     2.11           OBSERVATION DATA    Mixed(MIXED)        RINEX VERSION / TYPE
cnvtToRINEX 3.09.11 convertToRINEX OPR  29-May-19 08:33 UTC PGM / RUN BY / DATE 
----------------------------------------------------------- COMMENT             
1                                                           MARKER NAME         
1                                                           MARKER NUMBER       
GNSS Observer       Trimble                                 OBSERVER / AGENCY   
5216486001          TRIMBLE R8 GNSS3    4.44                REC # / TYPE / VERS 
                    TRM60158.00                             ANT # / TYPE        
  4146347.3608   611812.3688  4791819.3981                  APPROX POSITION XYZ 
        0.0000        0.0000        0.0000                  ANTENNA: DELTA H/E/N
     1     1     0                                          WAVELENGTH FACT L1/2
     7    C1    C2    C5    L1    L2    L5    P2            # / TYPES OF OBSERV 
  2019     5    27     8    29    5.0000000     GPS         TIME OF FIRST OBS   
  2019     5    27     9    39   45.0000000     GPS         TIME OF LAST OBS    
     0                                                      RCV CLOCK OFFS APPL 
    18                                                      LEAP SECONDS        
    19                                                      # OF SATELLITES     
   G02   655     0     0   655   655     0   655            PRN / # OF OBS      
   G06   748   748   748   748  1496   748   748            PRN / # OF OBS      
   G12   748   748     0   748  1496     0   748            PRN / # OF OBS      
   G14   748     0     0   747   721     0   722            PRN / # OF OBS      
   G17    48    48     0    48    96     0    48            PRN / # OF OBS      
   G19   488     0     0   488   390     0   390            PRN / # OF OBS      
   G24   748   748   748   748  1496   748   748            PRN / # OF OBS      
   G25   748   748   748   748  1496   748   748            PRN / # OF OBS      
   G29   465   465     0   465   930     0   465            PRN / # OF OBS      
   G32   748   748   748   748  1496   748   748            PRN / # OF OBS      
   R01   746     0     0   746   746     0   746            PRN / # OF OBS      
   R02   116     0     0   114    88     0    90            PRN / # OF OBS      
   R08   386     0     0   386   386     0   386            PRN / # OF OBS      
   R09   748     0     0   748   748     0   748            PRN / # OF OBS      
   R10   748     0     0   748   748     0   748            PRN / # OF OBS      
   R11   647     0     0   647   647     0   647            PRN / # OF OBS      
   R19   677     0     0   676   677     0   677            PRN / # OF OBS      
   R20   748     0     0   748   748     0   748            PRN / # OF OBS      
   R21   274     0     0   274   274     0   274            PRN / # OF OBS      
CARRIER PHASE MEASUREMENTS: PHASE SHIFTS REMOVED            COMMENT             
                                                            END OF HEADER       
                            2  1
              *** Start of Kinematic Data ***               COMMENT             
 19  5 27  8 29  5.0000000  0 14G06G12G14G17G19G24G25G32R01R08R09R10
                                R19R20
  23759242.648 6  23759247.781 9  23759249.535 9 124855610.69916  97290144.32619
  93236385.57719  23759248.28547
  19955780.305 7  19955781.105 9                 104868331.40417  81715586.55819
                  19955781.10549
  24354579.773 2                                 127984050.79412
                
  24311314.477 3  24311318.215 8                 127756810.58313  99550764.48518
                  24311318.09046
  22297539.938 6                                 117174358.51416  91304691.76257
                  22297539.72347
  20579474.164 7  20579478.617 9  20579480.453 9 108145844.54017  84269524.26619
  80758290.44819  20579478.68049
  22095810.586 6  22095815.770 9  22095817.141 9 116114226.86216  90478675.45919
  86708727.50219  22095815.71548
  22843318.898 6  22843324.270 9  22843323.816 9 120042415.35716  93539594.64419
  89642106.91619  22843324.15248
  21732985.844 5                                 116175192.43015  90358566.99018
                  21732993.563 8
  21760384.469 6                                 116525859.65516  90631220.44519
                  21760387.996 9
  19967453.984 7                                 106625084.82117  82930622.34719
                  19967457.664 9
  19669131.883 8                                 104847541.60818  81548085.74519
                  19669138.703 9
  20519863.477 4                                 109767435.20314  85374680.94819
                  20519866.488 9
  21629292.219 5                                 115661804.48115  89959018.65819
                  21629296.809 9
 19  5 27  8 29 10.0000000  0 14G06G12G14G17G19G24G25G32R01R08R09R10
                                R19R20
  23756108.172 6  23756114.168 9  23756115.453 9 124839138.282 6  97277308.674 9
  93224084.747 9  23756114.03147
  19953939.594 8  19953940.191 9                 104858658.640 8  81708049.354 9
                  19953940.27749
  24350422.414 1                                 127962215.099 1
                
  24312889.898 3  24312893.332 8                 127765087.114 3  99557213.703 8
                  24312893.34446
  22298496.273 6                                 117179382.484 6  91308606.55047
                  22298496.29747
  20579633.156 7  20579637.605 9  20579639.105 9 108146682.879 7  84270177.496 9
  80758916.483 9  20579637.62549
  22091914.266 7  22091919.543 9  22091920.664 9 116093749.067 7  90462718.754 9
  86693435.656 9  22091919.41448
  22840028.633 6  22840033.777 9  22840032.770 9 120025122.416 6  93526119.609 9
  89629193.341 9  22840033.75048
  21731495.883 5                                 116167225.842 5  90352370.767 8
                  21731503.305 8
  21761730.039 6                                 116533059.141 6  90636820.040 9
                  21761732.645 9
  19967646.359 8                                 106626110.904 8  82931420.413 9
                  19967648.949 9
  19666549.977 8                                 104833772.121 8  81537376.136 9
                  19666555.570 9
  20518751.039 3                                 109761477.498 3  85370047.166 9
                  20518752.691 9
  21624332.227 5                                 115635280.186 5  89938388.645 9
                  21624336.707 9
                            3  5
              *** Start of Occupation ***                   COMMENT             
1                                                           MARKER NAME         
1                                                           MARKER NUMBER       
  4146347.3608   611812.3688  4791819.3981                  APPROX POSITION XYZ 
        0.0000        0.0000        0.0000                  ANTENNA: DELTA H/E/N
 19  5 27  8 29 15.0000000  0 14G06G12G14G17G19G24G25G32R01R08R09R10
                                R19R20
  23752975.805 6  23752981.492 9  23752983.578 9 124822676.781 6  97264481.526 9
  93211792.078 9  23752981.03947
  19952100.945 7  19952101.898 9                 104848997.134 7  81700520.919 9
                  19952101.97749
  24346270.781 1                                 127940386.267 1
                
  24314465.617 3  24314469.340 8                 127773368.954 3  99563667.080 8
                  24314469.59445
  22299454.922 6                                 117184419.347 6  91312531.38447
                  22299454.86747
  20579794.914 7  20579799.434 9  20579800.367 9 108147531.729 7  84270838.930 9
  80759550.356 9  20579799.06349
  22088018.883 7  22088023.461 9  22088024.648 9 116073277.904 7  90446767.222 9
  86678148.767 9  22088023.52048
  22836740.258 6  22836745.754 9  22836744.848 9 120007841.921 6  93512654.304 9
  89616289.081 9  22836745.82448
  21730009.906 5                                 116159280.550 5  90346191.113 8
                  21730016.691 8
  21763076.594 7                                 116540272.919 7  90642430.738 9
                  21763079.844 9
  19967840.523 8                                 106627145.793 8  82932225.309 9
                  19967842.910 9
  19663967.781 8                                 104820011.203 8  81526673.202 9
                  19663974.695 9
  20517639.648 4                                 109755542.562 4  85365431.086 9
                  20517643.414 9
  21619373.758 5                                 115608766.653 5  89917767.032 9
                  21619379.242 9
 19  5 27  8 29 20.0000000  0 14G06G12G14G17G19G24G25G32R01R08R09R10
                                R19R20
  23749844.367 6  23749850.801 9  23749852.512 9 124806227.108 6  97251663.596 9
  93199508.238 9  23749850.15247
  19950264.539 7  19950266.293 9                 104839347.817 7  81693001.955 9
                  19950265.68049
  24342116.938 1                                 127918565.111 1
                
  24316043.336 3  24316045.922 8                 127781657.193 3  99570125.443 8
                  24316046.77745
  22300415.688 6                                 117189470.007 6  91316466.93847
                  22300416.10947
  20579958.648 7  20579963.234 9  20579964.109 9 108148392.167 7  84271509.408 9
  80760192.881 9  20579962.56649
  22084124.930 7  22084129.594 9  22084130.805 9 116052814.354 7  90430821.588 9
  86662867.546 9  22084129.20748
  22833454.547 6  22833459.297 9  22833458.969 9 119990574.815 6  93499199.433 9
  89603394.807 9  22833459.71547
  21728528.484 5                                 116151357.570 5  90340028.787 8
                  21728534.398 8
  21764426.438 6                                 116547502.002 6  90648053.367 9
                  21764429.672 9
  19968035.625 8                                 106628190.342 8  82933037.740 9
                  19968038.711 9
  19661387.672 8                                 104806259.897 8  81515977.735 9
                  19661394.750 9
  20516534.813 4                                 109749631.474 4  85360833.580 9
                  20516538.449 9
  21614417.258 5                                 115582264.947 5  89897154.595 9
                  21614423.352 9
 19  5 27  8 29 25.0000000  0 14G06G12G14G17G19G24G25G32R01R08R09R10
                                R19R20
  23746716.602 6  23746722.742 9  23746723.656 9 124789788.860 6  97238854.587 9
  93187232.922 9  23746722.11747
  19948430.727 7  19948431.980 9                 104829710.301 7  81685492.197 9
                  19948431.69949
  24337965.625 1                                 127896751.326 1
                
  24317621.898 4  24317625.078 8                 127789951.309 4  99576588.418 8
                  24317625.12946
  22301379.430 6                                 117194533.959 6  91320412.86747
                  22301380.07447
  20580124.656 7  20580129.387 9  20580130.047 9 108149263.571 7  84272188.402 9
  80760843.600 9  20580128.80149
  22080232.133 7  22080236.750 9  22080237.949 9 116032357.987 7  90414881.587 9
  86647591.683 9  22080236.52748
  22830171.500 6  22830176.074 9  22830175.543 9 119973320.686 6  93485754.621 9
  89590510.227 9  22830176.16848
  21727050.430 6                                 116143456.514 6  90333883.523 8
                  21727056.828 8
  21765778.852 6                                 116554745.789 6  90653687.406 9
                  21765781.906 9
  19968232.500 7                                 106629244.229 7  82933857.411 9
                  19968235.637 9
  19658810.344 8                                 104792517.828 8  81505289.457 9
                  19658816.965 9
  20515436.016 4                                 109743743.656 4  85356254.174 9
                  20515437.309 9
  21609462.734 5                                 115555774.495 5  89876550.909 9
                  21609468.633 9
 19  5 27  8 29 30.0000000  0 14G06G12G14G17G19G24G25G32R01R08R09R10
                                R19R20
  23743591.031 6  23743597.520 9  23743598.668 9 124773362.962 6  97226055.167 9
  93174966.812 9  23743597.07047
  19946599.063 8  19946600.262 9                 104820085.452 8  81677992.322 9
                  19946599.84449
  24333814.633 1                                 127874945.746 1
                
  24319202.531 5  24319203.934 8                 127798252.112 5  99583056.537 8
                  24319204.31346
  22302345.430 6                                 117199612.103 6  91324369.85847
                  22302346.14847
  20580292.719 7  20580297.406 9  20580297.965 9 108150146.859 7  84272876.680 9
  80761503.193 9  20580296.65649
  22076341.250 7  22076346.043 9  22076347.168 9 116011909.673 7  90398947.836 9
  86632321.824 9  22076345.33248
  22826890.359 6  22826895.406 9  22826895.563 9 119956080.417 6  93472320.642 9
  89577635.997 9  22826895.60248
  21725576.102 5                                 116135578.201 5  90327755.951 8
                  21725582.949 8
  21767134.680 6                                 116562005.350 6  90659333.739 9
                  21767137.301 9
  19968432.266 7                                 106630308.267 7  82934685.003 9
                  19968435.148 9
  19656234.469 8                                 104778785.880 8  81494609.056 9
                  19656241.395 9
  20514338.703 3                                 109737880.052 3  85351693.585 9
                  20514341.371 9
  21604511.656 5                                 115529296.405 5  89855956.864 9
                  21604517.887 9
 19  5 27  8 29 35.0000000  0 14G06G12G14G17G19G24G25G32R01R08R09R10
                                R19R20
  23740466.820 5  23740473.637 9  23740474.816 9 124756948.586 5  97213264.726 9
  93162709.324 9  23740473.80547
  19944769.922 7  19944771.105 9                 104810472.428 7  81670501.654 9
                  19944770.87949
  24329668.414 1                                 127853147.594 1
                
  24320783.422 5  24320784.980 8                 127806558.771 5  99589529.265 8
                  24320785.30146
  22303314.320 6                                 117204703.581 6  91328337.24347
                  22303314.91447
  20580462.539 7  20580467.383 9  20580468.195 9 108151041.293 7  84273573.638 9
  80762171.108 9  20580466.53949
  22072451.102 7  22072455.648 9  22072457.426 9 115991468.596 7  90383019.721 9
  86617057.390 9  22072455.18048
  22823612.711 6  22823617.086 9  22823617.191 9 119938853.207 6  93458896.840 9
  89564771.521 9  22823617.29348
  21724105.664 5                                 116127721.883 5  90321645.501 8
                  21724112.992 8
  21768492.297 6                                 116569279.587 6  90664991.479 9
                  21768496.879 9
  19968632.945 7                                 106631381.767 7  82935519.934 9
                  19968636.008 9
  19653659.695 8                                 104765063.241 8  81483935.909 9
                  19653666.461 9
  20513246.031 3                                 109732039.850 3  85347151.214 9
                  20513248.898 9
  21599561.938 5                                 115502829.819 5  89835371.745 9
                  21599568.281 9
 19  5 27  8 29 40.0000000  0 14G06G12G14G17G19G24G25G32R01R08R09R10
                                R19R20
  23737345.336 5  23737352.547 9  23737353.648 9 124740547.212 5  97200484.432 9
  93150461.546 9  23737352.52047
  19942943.109 7  19942944.219 9                 104800872.709 7  81663021.351 9
                  19942943.89849
  24325520.289 1                                 127831358.392 1
                
  24322365.703 5  24322366.957 8                 127814872.806 5  99596007.728 8
                  24322366.92246
  22304285.281 6                                 117209809.894 6  91332316.19147
                  22304286.64147
  20580635.477 7  20580640.004 9  20580640.891 9 108151948.289 7  84274280.394 9
  80762848.411 9  20580639.46949
  22068562.625 7  22068567.320 9  22068568.785 9 115971036.277 7  90367098.426 9
  86601799.489 9  22068566.83648
  22820336.898 6  22820341.574 9  22820342.105 9 119921640.520 6  93445484.366 9
  89551917.902 9  22820341.79748
  21722640.164 6                                 116119888.862 6  90315553.148 8
                  21722647.688 8
  21769854.398 6                                 116576570.237 6  90670661.974 9
                  21769857.566 9
  19968836.867 8                                 106632465.979 8  82936363.208 9
                  19968838.996 9
  19651087.289 8                                 104751351.401 8  81473271.139 9
                  19651094.348 9
  20512160.898 4                                 109726224.556 4  85342628.208 9
                  20512162.266 9
  21594615.422 5                                 115476376.265 5  89814796.761 9
                  21594621.184 9
 19  5 27  8 29 45.0000000  0 14G06G12G14G17G19G24G25G32R01R08R09R10
                                R19R20
  23734226.500 5  23734233.641 9  23734234.594 9 124724157.154 5  97187712.958 9
  93138222.216 9  23734233.34847
  19941118.781 7  19941120.164 9                 104791284.608 7  81655550.095 9
                  19941119.78149
  24321377.227 1                                 127809576.389 1
                
  24323948.875 5  24323950.227 8                 127823192.507 5  99602490.591 8
                  24323950.56346
  22305259.633 6                                 117214929.328 6  91336305.35647
                  22305260.93847
  20580809.859 7  20580814.824 9  20580815.746 9 108152866.364 7  84274995.776 9
  80763533.985 9  20580814.37949
  22064675.430 7  22064680.813 9  22064682.598 9 115950610.963 7  90351182.586 9
  86586546.817 9  22064680.41448
  22817063.367 6  22817068.371 9  22817068.496 9 119904440.676 6  93432081.886 9
  89539073.855 9  22817068.59848
  21721179.477 5                                 116112077.605 5  90309477.740 8
                  21721185.969 8
  21771218.820 6                                 116583875.254 6  90676343.640 9
                  21771222.109 9
  19969041.938 8                                 106633559.365 8  82937213.608 9
                  19969044.203 9
  19648517.258 8                                 104737648.555 8  81462613.373 9
                  19648523.816 9
  20511078.602 4                                 109720432.409 4  85338123.209 9
                  20511080.012 9
  21589670.438 5                                 115449934.021 5  89794230.567 9
                  21589676.508 9
 19  5 27  8 29 50.0000000  0 14G06G12G14G17G19G24G25G32R01R08R09R10
                                R19R20
  23731110.586 6  23731117.023 9  23731118.059 9 124707779.934 6  97174951.492 9
  93125992.475 9  23731117.04747
  19939297.063 7  19939297.563 9                 104781709.579 7  81648089.041 9
                  19939297.29749
  24317234.547 1                                 127787803.059 1
                
  24325533.016 5  24325535.207 8                 127831519.313 5  99608978.989 8
                  24325534.88346
  22306237.281 6                                 117220063.326 6  91340305.85747
                  22306237.68847
  20580987.227 7  20580991.680 9  20580993.137 9 108153796.665 7  84275720.688 9
  80764228.692 9  20580991.53549
  22060790.789 7  22060795.422 9  22060797.512 9 115930194.160 7  90335273.394 9
  86571300.497 9  22060794.85548
  22813793.250 6  22813798.227 9  22813798.875 9 119887255.179 6  93418690.566 9
  89526240.508 9  22813798.50847
  21719722.477 5                                 116104289.529 5  90303420.318 8
                  21719729.063 8
  21772585.391 6                                 116591196.321 6  90682037.813 9
                  21772589.043 9
  19969248.078 8                                 106634663.321 8  82938072.230 9
                  19969251.313 9
  19645947.820 8                                 104723956.228 8  81451963.794 9
                  19645954.680 9
  20509998.430 4                                 109714664.896 4  85333637.373 9
                  20510001.879 9
  21584728.383 5                                 115423504.453 5  89773674.249 9
                  21584734.043 9
 19  5 27  8 29 55.0000000  0 14G06G12G14G17G19G24G25G32R01R08R09R10
                                R19R20
  23727995.930 6  23728003.273 9  23728004.410 9 124691413.883 6  97162198.739 9
  93113771.075 9  23728002.98847
  19937477.008 7  19937478.113 9                 104772146.020 7  81640636.916 9
                  19937477.82049
  24313092.813 1                                 127766036.937 1
                
  24327118.836 5  24327120.758 8                 127839851.658 5  99615471.699 8
                  24327120.82446
  22307216.797 6                                 117225210.272 6  91344316.46347
                  22307216.49647
  20581166.539 7  20581171.145 9  20581172.051 9 108154737.732 7  84276453.976 9
  80764931.425 9  20581171.09449
  22056906.891 7  22056911.090 9  22056913.000 9 115909784.268 7  90319369.565 9
  86556059.359 9  22056910.81348
  22810525.742 6  22810529.836 9  22810530.055 9 119870082.395 6  93405309.196 9
  89513416.696 9  22810529.62947
  21718269.789 6                                 116096523.087 6  90297379.761 8
                  21718275.961 8
  21773954.953 6                                 116598531.824 6  90687743.213 9
                  21773958.285 9
  19969456.492 8                                 106635776.280 8  82938937.873 9
                  19969459.629 9
  19643380.953 8                                 104710272.700 8  81441321.047 9
                  19643388.176 9
  20508924.883 4                                 109708920.411 4  85329169.448 9
                  20508928.113 9
  21579787.070 5                                 115397086.233 5  89753126.754 9
                  21579794.285 9
 19  5 27  8 30  0.0000000  0 14G06G12G14G17G19G24G25G32R01R08R09R10
                                R19R20
  23724883.633 6  23724890.680 9  23724892.063 9 124675059.774 6  97149455.303 9
  93101558.608 9  23724890.34447
  19935659.172 7  19935660.230 9                 104762594.618 7  81633194.261 9
                  19935659.93849
  24308952.797 1                                 127744278.515 1
                
  24328704.797 4  24328707.496 8                 127848190.118 4  99621969.208 8
                  24328707.00846
  22308198.703 6                                 117230370.876 6  91348337.71047
                  22308199.25047
  20581347.070 7  20581352.086 9  20581353.414 9 108155690.341 7  84277196.255 9
  80765642.776 9  20581352.16449
  22053024.664 7  22053028.559 9  22053031.066 9 115889382.015 7  90303471.703 9
  86540823.900 9  22053028.06348
  22807260.211 6  22807264.781 9  22807265.086 9 119852923.074 6  93391938.307 9
  89500602.919 9  22807264.89547
  21716822.922 6                                 116088778.864 6  90291356.483 8
                  21716828.074 8
  21775328.094 6                                 116605882.308 6  90693460.242 9
                  21775331.078 9
  19969666.078 8                                 106636898.900 8  82939811.018 9
                  19969669.813 9
  19640815.398 8                                 104696598.708 8  81430685.722 9
                  19640821.773 9
  20507854.883 3                                 109703199.657 3  85324719.971 9
                  20507857.363 9
  21574850.195 5                                 115370679.931 5  89732588.529 9
                  21574856.207 9
 19  5 27  8 30  5.0000000  0 14G06G12G14G17G19G24G25G32R01R08R09R10
                                R19R20
  23721774.352 6  23721780.672 9  23721781.824 9 124658718.164 6  97136721.604 9
  93089355.492 9  23721779.98847
  19933843.820 7  19933845.539 9                 104753055.958 7  81625761.537 9
                  19933844.85249
  24304812.570 1                                 127722528.556 1  99524166.41055
                  24304818.73045
  24330292.836 4  24330295.539 8                 127856535.373 4  99628471.981 8
                  24330295.61346
  22309182.906 5                                 117235545.674 5  91352370.01247
                  22309183.87547
  20581530.875 7  20581535.617 9  20581536.980 9 108156654.855 7  84277947.825 9
  80766363.032 9  20581535.91049
  22049143.422 7  22049147.930 9  22049150.051 9 115868987.896 7  90287580.176 9
  86525594.527 9  22049147.22348
  22803997.008 6  22804002.348 9  22804002.047 9 119835777.773 6  93378578.324 9
  89487799.604 9  22804002.03147
  21715377.086 6                                 116081057.541 6  90285351.004 8
                  21715384.195 8
  21776703.883 6                                 116613248.483 6  90699189.477 9
                  21776707.379 9
  19969879.531 8                                 106638031.796 8  82940692.149 9
                  19969881.598 9
  19638252.656 8                                 104682935.072 8  81420058.457 9
                  19638259.000 9
  20506789.430 4                                 109697503.215 4  85320289.396 9
                  20506792.152 9
  21569913.227 5                                 115344285.958 5  89712059.901 9
                  21569919.766 9
 19  5 27  8 30 10.0000000  0 14G06G12G14G17G19G24G25G32R01R08R09R10
                                R19R20
  23718666.797 6  23718673.133 9  23718674.324 9 124642388.546 6  97123997.224 9
  93077161.302 9  23718672.78547
  19932030.711 7  19932032.609 9                 104743529.530 7  81618338.341 9
                  19932032.26249
  24300675.070 1                                 127700786.496 1  99507224.54145
                  24300681.46945
  24331881.242 4  24331884.438 8                 127864886.787 4  99634979.545 8
                  24331884.69946
  22310170.578 6                                 117240734.123 6  91356412.96247
                  22310171.13747
  20581717.141 7  20581721.293 9  20581722.441 9 108157631.029 7  84278708.471 9
  80767091.990 9  20581721.48849
  22045264.211 7  22045269.176 9  22045270.508 9 115848601.448 7  90271694.654 9
  86510370.889 9  22045268.08648
  22800737.102 6  22800742.602 9  22800741.605 9 119818645.968 6  93365228.892 9
  89475006.391 9  22800742.11747
  21713936.383 6                                 116073358.530 6  90279362.881 8
                  21713943.344 8
  21778082.617 6                                 116620629.676 6  90704930.382 9
                  21778086.234 9
  19970092.750 8                                 106639174.377 8  82941580.820 9
                  19970095.285 9
  19635691.617 8                                 104669281.220 8  81409438.799 9
                  19635697.750 9
  20505730.234 3                                 109691830.523 3  85315877.298 9
                  20505732.164 9
  21564981.164 5                                 115317904.138 5  89691540.692 9
                  21564987.094 9
 19  5 27  8 30 15.0000000  0 14G06G12G14G17G19G24G25G32R01R08R09R10
                                R19R20
  23715561.695 6  23715568.098 9  23715569.609 9 124626070.209 6  97111281.627 9
  93064975.530 9  23715567.48047
  19930220.664 7  19930221.844 9                 104734014.592 7  81610924.109 9
                  19930221.55949
  24296539.570 1                                 127679051.563 1  99490288.20445
                  24296545.32845
  24333471.313 2  24333475.578 8                 127873243.626 2  99641491.386 8
                  24333475.46546
  22311160.500 6                                 117245935.486 6  91360465.96647
                  22311160.78147
  20581904.750 7  20581909.168 9  20581910.445 9 108158617.947 7  84279477.506 9
  80767828.973 9  20581909.31649
  22041385.242 7  22041390.984 9  22041392.457 9 115828221.941 7  90255814.535 9
  86495152.430 9  22041390.21148
  22797480.039 6  22797485.281 9  22797484.363 9 119801526.923 6  93351889.367 9
  89462222.688 9  22797485.22347
  21712500.625 6                                 116065681.037 6  90273391.497 8
                  21712507.137 8
  21779465.563 7                                 116628025.187 7  90710682.445 9
                  21779466.305 9
  19970308.391 8                                 106640325.942 8  82942476.480 9
                  19970310.766 9
  19633131.578 8                                 104655636.319 8  81398826.104 8
                  19633137.293 8
  20504674.914 3                                 109686180.841 3  85311483.090 9
                  20504676.438 9
  21560049.188 5                                 115291533.644 5  89671030.319 9
                  21560055.027 9
 19  5 27  8 30 20.0000000  0 14G06G12G14G17G19G24G25G32R01R08R09R10
                                R19R20
  23712459.445 6  23712465.105 9  23712465.535 9 124609763.330 6  97098574.981 9
  93052798.309 9  23712464.52347
  19928412.227 7  19928413.793 9                 104724511.358 7  81603518.981 9
                  19928413.52749
  24292404.273 1                                 127657324.087 1  99473357.71345
                  24292410.24645
  24335062.672 2  24335066.938 8                 127881606.125 2  99648007.617 8
                  24335066.55546
  22312153.633 6                                 117251149.959 6  91364529.20047
                  22312152.99647
  20582094.484 7  20582099.238 9  20582100.090 9 108159615.721 7  84280255.004 9
  80768574.068 9  20582099.37149
  22037509.102 7  22037513.785 9  22037515.301 9 115807849.571 7  90239939.972 9
  86479939.308 9  22037513.52748
  22794224.242 6  22794230.285 9  22794229.230 9 119784420.895 6  93338560.007 9
  89449448.715 9  22794230.44547
  21711068.852 6                                 116058025.379 6  90267437.086 8
                  21711074.805 8
  21780848.047 6                                 116635435.255 6  90716445.818 9
                  21780851.234 9
  19970526.281 8                                 106641486.792 8  82943379.353 9
                  19970528.758 9
  19630573.547 8                                 104642000.528 8  81388220.472 9
                  19630579.465 9
  20503621.844 3                                 109680554.366 3  85307106.964 9
                  20503625.137 9
  21555119.922 5                                 115265174.558 5  89650528.820 9
                  21555126.637 9
 19  5 27  8 30 25.0000000  0 14G06G12G14G17G19G24G25G32R01R08R09R10
                                R19R20
  23709358.883 6  23709364.613 9  23709365.516 9 124593468.346 6  97085877.598 9
  93040629.968 9  23709364.09447
  19926605.328 7  19926607.125 9                 104715020.157 7  81596123.234 9
                  19926607.02749
  24288272.570 1                                 127635604.411 1  99456433.30745
                  24288277.03545
  24336655.234 2  24336659.020 8                 127889974.691 2  99654528.569 8
                  24336658.56346
  22313148.461 6                                 117256377.896 6  91368602.90747
                  22313147.59047
  20582286.508 7  20582291.230 9  20582292.219 9 108160624.938 7  84281041.391 9
  80769327.695 9  20582290.79749
  22033634.109 7  22033638.855 9  22033640.098 9 115787484.735 7  90224071.260 9
  86464731.805 9  22033638.55548
  22790971.844 6  22790977.320 9  22790976.316 9 119767328.278 6  93325241.100 9
  89436684.759 9  22790978.00047
  21709640.719 6                                 116050391.847 6  90261499.899 8
                  21709645.992 8
  21782235.273 6                                 116642860.105 6  90722220.694 9
                  21782236.086 9
  19970745.266 8                                 106642657.096 8  82944289.593 9
                  19970747.949 9
  19628016.805 8                                 104628374.115 8  81377622.153 9
                  19628023.219 9
  20502575.078 4                                 109674951.532 4  85302749.195 9
                  20502577.184 9
  21550193.961 6                                 115238827.524 6  89630036.693 9
                  21550199.344 9
 19  5 27  8 30 30.0000000  0 14G06G12G14G17G19G24G25G32R01R08R09R10
                                R19R20
  23706259.539 6  23706265.461 9  23706266.051 9 124577185.391 6  97073189.590 9
  93028470.635 9  23706265.56647
  19924802.047 7  19924803.441 9                 104705541.168 7  81588737.023 9
                  19924803.57049
  24284139.508 1                                 127613892.631 1  99439514.94545
                  24284145.19145
  24338248.805 3  24338252.492 8                 127898349.410 3  99661054.334 8
                  24338252.35546
  22314146.273 6                                 117261619.469 6  91372687.25147
                  22314145.08647
  20582480.938 7  20582484.988 9  20582486.453 9 108161645.630 7  84281836.733 9
  80770089.897 9  20582484.73449
  22029760.516 7  22029765.086 9  22029766.371 9 115767127.594 7  90208208.563 9
  86449530.051 9  22029765.41848
  22787721.586 6  22787727.141 9  22787726.547 9 119750249.171 6  93311932.708 9
  89423930.869 9  22787727.64547
  21708215.102 5                                 116042780.571 5  90255580.035 8
                  21708222.078 8
  21783623.609 6                                 116650299.850 6  90728007.150 9
                  21783625.918 9
  19970966.430 7                                 106643837.139 7  82945207.403 9
                  19970968.801 9
  19625462.680 8                                 104614757.368 8  81367031.352 9
                  19625468.684 9
  20501532.195 4                                 109669372.421 4  85298409.897 9
                  20501534.273 9
  21545267.938 5                                 115212492.553 5  89609553.954 9
                  21545274.766 9
 19  5 27  8 30 35.0000000  0 14G06G12G14G17G19G24G25G32R01R08R09R10
                                R19R20
  23703163.375 6  23703169.285 9  23703169.453 9 124560914.670 6  97060511.108 9
  93016320.426 9  23703169.32047
  19923001.219 7  19923001.867 9                 104696074.585 7  81581360.463 9
                  19923001.87549
  24280009.055 1                                 127592188.983 1  99422603.11145
                  24280014.90645
  24339844.484 2  24339847.781 8                 127906730.534 2  99667585.097 8
                  24339847.42645
  22315145.805 6                                 117266874.839 6  91376782.33147
                  22315145.09847
  20582677.477 7  20582681.762 9  20582683.574 9 108162677.982 7  84282641.166 9
  80770860.810 9  20582681.38749
  22025887.594 7  22025892.793 9  22025893.824 9 115746778.313 7  90192351.980 9
  86434334.170 9  22025892.69548
  22784474.242 6  22784479.418 9  22784478.227 9 119733183.880 6  93298635.053 9
  89411187.279 9  22784479.09047
  21706795.891 6                                 116035191.957 6  90249677.781 8
                  21706802.910 8
  21785015.563 6                                 116657754.808 6  90733805.444 9
                  21785018.156 9
  19971188.578 7                                 106645027.105 7  82946132.919 9
                  19971192.230 9
  19622910.375 8                                 104601150.804 8  81356448.471 9
                  19622915.945 9
  20500494.484 4                                 109663817.323 4  85294089.264 9
                  20500495.906 9
  21540344.500 5                                 115186169.890 5  89589080.773 9
                  21540352.230 9
 19  5 27  8 30 40.0000000  0 14G06G12G14G17G19G24G25G32R01R08R09R10
                                R19R20
  23700069.289 6  23700075.910 9  23700076.301 9 124544656.242 6  97047842.220 9
  93004179.406 9  23700075.75847
  19921202.039 7  19921202.914 9                 104686620.406 7  81573993.571 9
                  19921202.69549
  24275881.375 1                                 127570493.438 1  99405697.42045
                  24275886.06345
  24341440.641 2  24341443.805 8                 127915118.066 2  99674120.831 8
                  24341443.34045
  22316148.234 6                                 117272144.043 6  91380888.20247
                  22316148.42247
  20582875.742 7  20582880.609 9  20582881.828 9 108163721.904 7  84283454.605 9
  80771640.357 9  20582880.16849
  22022017.141 7  22022022.230 9  22022023.656 9 115726436.938 7  90176501.557 9
  86419144.182 9  22022021.88348
  22781229.453 6  22781234.348 9  22781233.418 9 119716132.302 6  93285348.118 9
  89398453.976 9  22781234.34047
  21705380.555 5                                 116027625.770 5  90243792.979 8
                  21705387.559 8
  21786411.234 6                                 116665224.919 6  90739615.510 9
                  21786412.953 9
  19971412.906 7                                 106646227.011 7  82947066.175 9
                  19971416.230 9
  19620359.758 8                                 104587554.284 8  81345873.391 9
                  19620366.164 9
  20499459.680 4                                 109658286.135 4  85289787.219 9
                  20499462.168 9
  21535424.641 5                                 115159859.438 5  89568617.100 9
                  21535431.793 9
 19  5 27  8 30 45.0000000  0 14G06G12G14G17G19G24G25G32R01R08R09R10
                                R19R20
  23696976.961 6  23696984.031 9  23696984.406 9 124528408.059 6  97035181.303 9
  92992046.031 9  23696983.68847
  19919404.430 7  19919405.711 9                 104677176.605 7  81566634.778 9
                  19919405.50449
  24271754.617 1                                 127548804.239 1  99388796.78245
                  24271758.34445
  24343037.422 3  24343039.820 8                 127923509.910 3  99680659.867 8
                  24343039.84446
  22317153.023 6                                 117277425.012 6  91385003.24047
                  22317153.00847
  20583076.727 7  20583080.895 9  20583082.641 9 108164775.632 7  84284275.683 9
  80772427.229 9  20583081.03949
  22018146.734 7  22018151.629 9  22018153.480 9 115706101.437 7  90160655.710 9
  86403958.584 9  22018151.64548
  22777987.461 6  22777992.348 9  22777991.352 9 119699092.469 6  93272070.321 9
  89385729.419 9  22777991.85947
  21703969.070 5                                 116020080.084 5  90237924.107 8
                  21703975.762 8
  21787809.461 6                                 116672708.207 6  90745435.837 9
                  21787810.789 9
  19971639.273 7                                 106647434.762 7  82948005.532 9
                  19971642.523 9
  19617810.625 8                                 104573965.563 8  81335304.395 9
                  19617817.348 9
  20498429.289 4                                 109652776.872 4  85285502.235 9
                  20498432.156 9
  21530506.758 5                                 115133559.445 5  89548161.544 9
                  21530513.676 9
 19  5 27  8 30 50.0000000  0 14G06G12G14G17G19G24G25G32R01R08R09R10
                                R19R20
  23693888.203 6  23693894.484 9  23693894.973 9 124512172.277 6  97022530.041 9
  92979921.929 9  23693894.25047
  19917609.922 7  19917610.977 9                 104667745.358 7  81559285.747 9
                  19917610.71549
  24267628.352 1                                 127527123.214 1  99371902.47545
                  24267632.62545
  24344635.750 3  24344638.914 8                 127931908.091 3  99687203.924 8
                  24344638.46146
  22318159.734 5                                 117282719.847 5  91389129.08847
                  22318160.70347
  20583278.930 7  20583283.645 9  20583285.113 9 108165841.139 7  84285105.938 9
  80773222.884 9  20583283.80949
  22014279.281 7  22014283.891 9  22014285.539 9 115685773.985 7  90144816.142 9
  86388778.995 9  22014283.76648
  22774747.453 6  22774752.113 9  22774750.977 9 119682066.589 6  93258803.407 9
  89373015.293 9  22774751.48847
  21702562.102 6                                 116012557.079 6  90232072.867 8
                  21702567.926 8
  21789208.211 6                                 116680206.587 6  90751267.905 9
                  21789211.469 9
  19971867.352 8                                 106648652.585 8  82948952.720 9
                  19971870.242 9
  19615262.992 8                                 104560386.863 8  81324743.180 9
                  19615269.742 9
  20497403.859 4                                 109647291.684 4  85281235.977 9
                  20497406.555 9
  21525590.906 5                                 115107272.009 5  89527715.759 9
                  21525597.246 9
 19  5 27  8 30 55.0000000  0 14G06G12G14G17G19G24G25G32R01R08R09R10
                                R19R20
  23690800.398 6  23690806.652 9  23690807.824 9 124495947.795 6  97009887.602 9
  92967806.268 9  23690806.75047
  19915817.500 7  19915818.340 9                 104658325.514 7  81551945.604 9
                  19915817.96149
  24263504.852 1                                 127505449.406 1  99355013.79245
                  24263508.43045
  24346234.750 3  24346238.207 8                 127940311.555 3  99693752.087 8
                  24346237.83245
  22319169.750 5                                 117288027.472 5  91393264.91547
                  22319171.09447
  20583484.094 7  20583488.203 9  20583489.473 9 108166917.330 7  84285944.532 9
  80774026.534 9  20583488.52049
  22010412.016 7  22010416.965 9  22010418.316 9 115665453.406 7  90128981.925 9
  86373604.544 9  22010416.66048
  22771509.961 6  22771514.871 9  22771513.734 9 119665053.483 6  93245546.442 9
  89360310.704 9  22771514.12547
  21701160.258 6                                 116005055.564 6  90226238.333 8
                  21701165.668 8
  21790610.602 6                                 116687719.039 6  90757110.931 9
                  21790615.105 9
  19972097.781 8                                 106649879.292 8  82949906.831 9
                  19972100.891 9
  19612717.414 8                                 104546816.914 8  81314188.770 8
                  19612723.512 8
  20496383.414 4                                 109641829.436 4  85276987.568 9
                  20496385.949 9
  21520677.195 5                                 115080995.857 5  89507278.764 9
                  21520683.559 9
 19  5 27  8 31  0.0000000  0 14G06G12G14G17G19G24G25G32R01R08R09R10
                                R19R20
  23687716.664 6  23687721.883 9  23687722.836 9 124479735.873 6  96997254.923 9
  92955699.972 9  23687722.00047
  19914027.359 7  19914028.582 9                 104648918.244 7  81544615.266 9
                  19914028.25449
  24259383.000 2                                 127483783.984 2  99338131.63445
                  24259385.46945
  24347836.125 4  24347837.574 8                 127948721.510 4  99700305.241 8
                  24347837.73045
  22320183.188 5                                 117293349.017 5  91397411.55447
                  22320183.56647
  20583691.031 7  20583695.316 9  20583696.625 9 108168005.293 7  84286792.290 9
  80774838.976 9  20583695.37949
  22006546.797 7  22006551.578 9  22006552.875 9 115645140.939 7  90113154.025 9
  86358436.146 9  22006551.09848
  22768275.156 6  22768279.934 9  22768279.035 9 119648054.354 6  93232300.370 9
  89347616.561 9  22768279.54747
  21699758.789 5                                 115997576.812 5  90220421.533 8
                  21699766.863 8
  21792016.328 6                                 116695246.881 6  90762965.918 9
                  21792020.652 9
  19972329.398 8                                 106651116.168 8  82950868.840 9
                  19972331.914 9
  19610173.453 8                                 104533257.072 8  81303642.231 8
                  19610179.770 8
  20495366.797 4                                 109636391.312 4  85272757.928 9
                  20495369.297 9
  21515765.742 5                                 115054732.376 5  89486851.613 9
                  21515772.051 9
 19  5 27  8 31  5.0000000  0 14G06G12G14G17G19G24G25G32R01R08R09R10
                                R19R20
  23684632.734 6  23684639.020 9  23684640.230 9 124463536.734 6  96984632.220 9
  92943603.202 9  23684639.39547
  19912239.664 7  19912240.387 9                 104639523.914 7  81537295.006 9
                  19912240.17649
  24255260.055 1                                 127462127.260 1  99321256.31745
                  24255263.87145
  24349437.727 5  24349439.473 8                 127957138.277 5  99706863.776 8
                  24349439.00046
  22321199.242 6                                 117298684.759 6  91401569.27247
                  22321198.92647
  20583900.570 7  20583904.988 9  20583905.988 9 108169105.512 7  84287649.599 9
  80775660.560 9  20583904.97749
  22002683.430 7  22002687.816 9  22002689.082 9 115624836.894 7  90097332.690 9
  86343274.040 9  22002687.42648
  22765042.977 6  22765047.242 9  22765047.172 9 119631069.568 6  93219065.488 9
  89334933.129 9  22765047.38747
  21698364.484 5                                 115990121.113 5  90214622.639 8
                  21698371.391 8
  21793424.484 6                                 116702790.264 6  90768832.966 9
                  21793428.352 9
  19972562.852 8                                 106652363.441 8  82951838.935 9
                  19972565.363 9
  19607631.727 8                                 104519707.949 8  81293104.028 9
                  19607637.875 9
  20494354.648 4                                 109630977.715 4  85268547.346 9
                  20494357.023 9
  21510856.266 5                                 115028481.873 5  89466434.553 9
                  21510862.770 9
 19  5 27  8 31 10.0000000  0 14G06G12G14G17G19G24G25G32R01R08R09R10
                                R19R20
  23681553.000 6  23681558.578 9  23681559.645 9 124447349.762 6  96972019.017 9
  92931515.536 9  23681558.57047
  19910454.063 7  19910455.461 9                 104630141.845 7  81529984.295 9
                  19910455.21549
  24251141.922 1                                 127440478.549 1  99304387.19045
                  24251143.53145
  24351039.813 5  24351042.375 8                 127965561.090 5  99713427.000 8
                  24351041.90246
  22322216.750 6                                 117304034.071 6  91405737.57747
                  22322216.49647
  20584111.805 7  20584116.391 9  20584117.512 9 108170217.183 7  84288515.841 9
  80776490.703 9  20584116.26649
  21998821.086 7  21998826.066 9  21998826.781 9 115604540.600 7  90081517.396 9
  86328117.720 9  21998825.41848
  22761813.469 6  22761818.105 9  22761817.750 9 119614098.462 6  93205841.241 9
  89322259.894 9  22761818.02347
  21696975.281 5                                 115982687.771 5  90208841.139 8
                  21696981.109 8
  21794836.547 6                                 116710348.588 6  90774711.657 9
                  21794840.953 9
  19972798.141 8                                 106653620.422 8  82952816.585 9
                  19972800.652 9
  19605091.289 8                                 104506168.594 8  81282573.417 9
                  19605097.945 9
  20493347.797 4                                 109625587.789 4  85264355.183 9
                  20493349.953 9
  21505950.250 5                                 115002243.594 5  89446027.011 9
                  21505956.609 9
 19  5 27  8 31 15.0000000  0 14G06G12G14G17G19G24G25G32R01R08R09R10
                                R19R20
  23678474.461 6  23678480.547 9  23678481.523 9 124431176.058 6  96959416.132 9
  92919437.762 9  23678480.10247
  19908671.359 7  19908672.387 9                 104620773.013 7  81522683.909 9
                  19908672.27049
  24247023.273 1                                 127418839.139 1  99287525.30045
                  24247025.72345
  24352644.094 5  24352646.434 8                 127973991.102 5  99719995.832 8
                  24352646.06346
  22323237.461 6                                 117309398.032 6  91409917.29647
                  22323236.77347
  20584326.023 7  20584330.344 9  20584332.000 9 108171341.355 7  84289391.814 9
  80777330.169 9  20584330.16449
  21994960.289 7  21994965.066 9  21994965.895 9 115584253.104 7  90065708.967 9
  86312967.974 9  21994964.76648
  22758587.148 6  22758591.633 9  22758591.145 9 119597142.076 6  93192628.473 9
  89309597.656 9  22758591.71547
  21695589.711 5                                 115975277.805 5  90203077.850 8
                  21695593.887 8
  21796250.898 6                                 116717922.791 6  90780602.711 9
                  21796255.680 9
  19973035.516 8                                 106654888.231 8  82953802.649 9
                  19973038.215 9
  19602553.898 8                                 104492640.021 8  81272051.197 9
                  19602559.930 9
  20492343.938 4                                 109620222.802 4  85260182.413 9
                  20492346.773 9
  21501046.320 5                                 114976019.013 5  89425630.118 9
                  21501052.781 9
 19  5 27  8 31 20.0000000  0 14G06G12G14G17G19G24G25G32R01R08R09R10
                                R19R20
  23675399.273 6  23675404.879 9  23675406.148 9 124415013.509 6  96946821.954 9
  92907368.357 9  23675404.78547
  19906890.586 7  19906892.008 9                 104611415.423 7  81515392.268 9
                  19906891.72749
  24242905.828 1                                 127397206.785 1  99270668.95345
                  24242909.66845
  24354248.703 5  24354251.836 8                 127982426.192 5  99726568.652 8
                  24354251.38346
  22324259.906 6                                 117314774.469 6  91414106.71047
                  22324259.71147
  20584541.984 7  20584546.414 9  20584548.020 9 108172475.995 7  84290275.945 9
  80778177.464 9  20584546.01249
  21991100.891 7  21991106.121 9  21991107.418 9 115563972.392 7  90049905.826 9
  86297823.285 9  21991105.64548
  22755362.813 6  22755367.148 9  22755366.738 9 119580198.352 6  93179425.584 9
  89296944.879 9  22755367.07447
  21694206.023 6                                 115967889.183 6  90197331.139 8
                  21694211.590 8
  21797667.047 6                                 116725510.812 6  90786504.503 9
                  21797672.832 9
  19973274.852 8                                 106656164.796 8  82954795.518 9
                  19973276.926 9
  19600017.680 8                                 104479120.152 8  81261535.736 9
                  19600023.656 9
  20491345.938 4                                 109614880.560 4  85256027.338 9
                  20491347.977 9
  21496143.820 5                                 114949805.555 5  89405241.890 9
                  21496150.168 9
 19  5 27  8 31 25.0000000  0 14G06G12G14G17G19G24G25G32R01R08R09R10
                                R19R20
  23672325.711 6  23672331.691 9  23672332.941 9 124398862.213 6  96934236.553 9
  92895307.328 9  23672331.10947
  19905111.789 7  19905113.332 9                 104602069.137 7  81508109.458 9
                  19905113.08249
  24238789.984 1                                 127375581.501 1  99253818.07545
                  24238794.52745
  24355855.461 5  24355857.871 8                 127990866.366 5  99733145.409 8
                  24355857.52346
  22325286.078 6                                 117320163.508 6  91418305.96347
                  22325286.07447
  20584759.703 7  20584764.102 9  20584766.066 9 108173621.187 7  84291168.302 9
  80779032.643 9  20584763.99649
  21987243.742 7  21987247.539 9  21987248.930 9 115543698.488 7  90034107.976 9
  86282683.691 9  21987247.21548
  22752141.039 6  22752145.039 9  22752145.227 9 119563267.369 6  93166232.602 9
  89284301.621 9  22752145.26648
  21692828.398 6                                 115960521.923 6  90191601.066 8
                  21692833.328 8
  21799086.859 6                                 116733112.688 6  90792417.065 9
                  21799092.293 9
  19973515.781 8                                 106657450.114 8  82955795.209 9
                  19973517.816 9
  19597482.828 8                                 104465609.269 8  81251027.278 9
                  19597489.512 9
  20490350.750 4                                 109609561.108 4  85251890.004 9
                  20490353.602 9
  21491244.195 5                                 114923603.510 5  89384862.527 9
                  21491250.461 9
 19  5 27  8 31 30.0000000  0 14G06G12G14G17G19G24G25G32R01R08R09R10
                                R19R20
  23669254.977 6  23669260.105 9  23669261.105 9 124382723.870 6  96921661.224 9
  92883255.995 9  23669259.21147
  19903335.828 8  19903337.586 9                 104592735.783 8  81500836.712 9
                  19903337.46549
  24234675.781 1                                                
                  24234680.50445
  24357463.352 5  24357465.164 8                 127999313.349 5  99739727.445 8
                  24357464.59446
  22326314.070 6                                 117325566.772 6  91422516.30547
                  22326314.10547
  20584980.070 7  20584984.547 9  20584986.680 9 108174778.626 7  84292070.202 9
  80779896.962 9  20584984.49649
  21983386.750 7  21983391.059 9  21983392.266 9 115523433.063 7  90018316.729 9
  86267550.416 9  21983390.72748
  22748922.102 6  22748926.008 9  22748925.965 9 119546350.813 6  93153050.870 9
  89271669.134 9  22748925.89147
  21691455.039 6                                 115953177.744 6  90185888.946 8
                  21691459.391 8
  21800509.086 6                                 116740729.986 6  90798341.609 9
                  21800514.012 9
  19973757.430 8                                 106658745.901 8  82956803.038 9
                  19973760.836 9
  19594950.109 8                                 104452108.907 8  81240526.979 9
                  19594956.820 9
  20489361.930 4                                 109604266.125 4  85247771.683 9
                  20489363.852 9
  21486347.234 5                                 114897414.520 5  89364493.320 9
                  21486353.223 9
 19  5 27  8 31 35.0000000  0 14G06G12G14G17G19G24G25G32R01R08R09R10
                                R19R20
  23666185.422 6  23666190.945 9  23666193.098 9 124366596.692 6  96909094.595 9
  92871212.978 9  23666190.09447
  19901561.961 7  19901563.496 9                 104583413.606 7  81493572.684 9
                  19901563.51249
  24230564.961 1                                 127332355.68811  99220135.55055
                  24230567.74245
  24359071.063 5  24359073.789 8                 128007765.300 5  99746313.368 8
                  24359073.34446
  22327345.008 6                                 117330982.439 6  91426736.29147
                  22327344.71947
  20585202.500 7  20585206.836 9  20585208.621 9 108175946.481 7  84292980.225 9
  80780769.061 9  20585206.96549
  21979532.094 7  21979536.262 9  21979537.746 9 115503174.369 7  90002530.727 9
  86252422.173 9  21979535.79748
  22745704.758 6  22745709.543 9  22745709.293 9 119529446.930 6  93139879.011 9
  89259046.099 9  22745709.04348
  21690085.125 6                                 115945854.846 6  90180193.341 8
                  21690090.262 8
  21801934.625 6                                 116748361.047 6  90804276.884 9
                  21801939.238 9
  19974002.258 7                                 106660050.287 7  82957817.558 9
                  19974004.977 9
  19592419.125 8                                 104438617.118 8  81230033.371 9
                  19592425.902 9
  20488375.336 4                                 109598993.940 4  85243671.101 9
                  20488378.605 9
  21481451.695 5                                 114871236.869 5  89344132.937 9
                  21481457.789 9
 19  5 27  8 31 40.0000000  0 14G06G12G14G17G19G24G25G32R01R08R09R10
                                R19R20
  23663118.891 6  23663124.238 9  23663125.930 9 124350481.186 6  96896537.036 9
  92859178.662 9  23663123.62947
  19899790.102 7  19899791.770 9                 104574103.069 7  81486317.723 9
                  19899791.84849
  24226454.141 1                                 127310753.931 1  99203303.07245
                  24226457.09445
  24360679.945 4  24360683.500 8                 128016222.749 4  99752903.576 8
                  24360682.80146
  22328377.680 6                                 117336411.004 6  91430966.34647
                  22328377.98847
  20585426.383 7  20585431.102 9  20585432.652 9 108177125.334 7  84293898.800 9
  80781649.369 9  20585431.28549
  21975678.398 7  21975682.094 9  21975684.133 9 115482922.879 7  89986750.333 9
  86237299.308 9  21975681.89148
  22742490.516 6  22742495.488 9  22742495.281 9 119512556.141 6  93126717.378 9
  89246432.866 9  22742495.67648
  21688719.492 5                                 115938553.706 5  90174514.664 8
                  21688725.094 8
  21803363.586 6                                 116756006.293 6  90810223.177 9
                  21803366.547 9
  19974248.258 7                                 106661363.836 7  82958839.207 9
                  19974251.355 9
  19589889.734 8                                 104425134.488 8  81219546.886 9
                  19589896.945 9
  20487393.852 4                                 109593744.794 4  85239588.409 9
                  20487396.590 9
  21476558.289 5                                 114845071.069 5  89323781.757 9
                  21476564.344 9
 19  5 27  8 31 45.0000000  0 14G06G12G14G17G19G24G25G32R01R08R09R10
                                R19R20
  23660054.875 6  23660060.477 9  23660061.422 9 124334378.063 6  96883989.155 9
  92847153.615 9  23660059.47347
  19898021.148 7  19898022.355 9                 104564804.854 7  81479072.351 9
                  19898022.23049
  24222345.375 1                                 127289160.467 1  99186477.01745
                  24222348.09845
  24362290.352 5  24362293.133 8                 128024686.383 5  99759498.633 8
                  24362292.80946
  22329413.406 6                                 117341853.156 6  91435206.97947
                  22329413.48847
  20585652.969 7  20585657.027 9  20585658.867 9 108178315.690 7  84294826.331 9
  80782538.255 9  20585657.44549
  21971825.695 7  21971829.813 9  21971832.219 9 115462679.307 7  89970976.136 9
  86222182.356 9  21971829.38748
  22739279.117 6  22739283.258 9  22739283.184 9 119495679.245 6  93113566.547 9
  89233829.988 9  22739283.46148
  21687356.969 6                                 115931275.063 6  90168853.510 8
                  21687363.629 8
  21804793.852 6                                 116763666.380 6  90816181.031 9
                  21804797.066 9
  19974495.047 7                                 106662687.302 7  82959868.553 9
                  19974499.746 9
  19587362.578 8                                 104411661.917 8  81209068.224 8
                  19587369.145 8
  20486416.766 4                                 109588519.668 4  85235524.426 9
                  20486419.250 9
  21471667.195 6                                 114818917.827 6  89303440.372 9
                  21471673.676 9
 19  5 27  8 31 50.0000000  0 14G06G12G14G17G19G24G25G32R01R08R09R10
                                R19R20
  23656991.766 5  23656998.707 9  23656999.578 9 124318286.576 5  96871450.357 9
  92835137.244 9  23656998.38747
  19896253.922 7  19896254.980 9                 104555518.237 7  81471836.038 9
                  19896254.83249
  24218237.156 1                                 127267574.423 1  99169656.71345
                  24218240.40645
  24363903.250 5  24363905.219 8                 128033155.396 5  99766097.863 8
