     2.11           OBSERVATION DATA    Mixed(MIXED)        RINEX VERSION / TYPE
cnvtToRINEX 3.09.11 convertToRINEX OPR  29-May-19 08:34 UTC PGM / RUN BY / DATE 
----------------------------------------------------------- COMMENT             
3                                                           MARKER NAME         
3                                                           MARKER NUMBER       
GNSS Observer       Trimble                                 OBSERVER / AGENCY   
5216486001          TRIMBLE R8 GNSS3    4.44                REC # / TYPE / VERS 
                    TRM60158.00                             ANT # / TYPE        
  4146333.9152   611809.6441  4791825.5441                  APPROX POSITION XYZ 
        0.0000        0.0000        0.0000                  ANTENNA: DELTA H/E/N
     1     1     0                                          WAVELENGTH FACT L1/2
     7    C1    C2    C5    L1    L2    L5    P2            # / TYPES OF OBSERV 
  2019     5    27     9    51   40.0000000     GPS         TIME OF FIRST OBS   
  2019     5    27    10    41   55.0000000     GPS         TIME OF LAST OBS    
     0                                                      RCV CLOCK OFFS APPL 
    18                                                      LEAP SECONDS        
    16                                                      # OF SATELLITES     
   G02   520     0     0   512   467     0   467            PRN / # OF OBS      
   G06   283   232   263   251   377   263   158            PRN / # OF OBS      
   G12   604   604     0   604  1208     0   604            PRN / # OF OBS      
   G14   535     0     0   498   223     0   224            PRN / # OF OBS      
   G24   381   379   380   366   739   380   374            PRN / # OF OBS      
   G25   604   604   604   604  1208   604   604            PRN / # OF OBS      
   G29   604   604     0   604  1208     0   604            PRN / # OF OBS      
   G31   550   544     0   539  1010     0   472            PRN / # OF OBS      
   G32   601   601   601   599  1198   601   599            PRN / # OF OBS      
   R02   135     0     0   122    47     0    58            PRN / # OF OBS      
   R09   202     0     0   202   202     0   202            PRN / # OF OBS      
   R10   600     0     0   599   600     0   600            PRN / # OF OBS      
   R11   604     0     0   604   604     0   604            PRN / # OF OBS      
   R12   191     0     0   184     0     0     0            PRN / # OF OBS      
   R20   604     0     0   604   604     0   604            PRN / # OF OBS      
   R21   604     0     0   604   604     0   604            PRN / # OF OBS      
CARRIER PHASE MEASUREMENTS: PHASE SHIFTS REMOVED            COMMENT             
                                                            END OF HEADER       
                            2  1
              *** Start of Kinematic Data ***               COMMENT             
 19  5 27  9 51 40.0000000  0 13G02G06G12G24G25G29G32R02R09R10R11R20
                                R21
  22935564.852 1                                 120527156.04011
                
  23540840.672 3  23540850.309 7  23540849.871 8 123708107.91413  96395834.35417
  92379351.54818  23540848.85945
  20720300.695 7  20720303.473 9                 108885918.16817  84846172.59619
                  20720303.37548
  23201893.406 6  23201900.504 9  23201901.625 9 121926772.53816  95007865.67019
  91049226.30719  23201900.02747
  20581673.180 7  20581677.582 9  20581679.281 9 108157419.16517  84278528.56319
  80766929.66619  20581677.21548
  21861363.813 7  21861368.258 9                 114882242.83817  89518646.91319
                  21861368.58248
  22553439.789 6  22553443.168 8  22553443.547 9 118519119.25716  92352589.44718
  88504557.19319  22553442.00447
  22917085.617 1                                 122289846.97411  95114447.62117
                  22917092.492 7
  22507293.516 5                                 120187788.11715  93479310.91618
                  22507297.500 8
  19664711.477 7                                 104823981.18317  81529759.00018
                  19664719.672 8
  20662710.227 7                                 110415237.72517  85878540.02919
                  20662716.309 9
  19852815.125 5                                 106162114.86915  82570385.91619
                  19852820.195 9
  21508154.563 7                                 115094468.49417  89517921.98019
                  21508158.836 9
 19  5 27  9 51 45.0000000  0 14G02G06G12G14G24G25G29G32R02R09R10R11
                                R20R21
  22933448.461 1                                 120516057.75711
                
  23540558.766 4  23540566.039 8  23540566.988 7 123706617.140 4  96394672.642 8
  92378238.310 7  23540564.74245
  20720470.242 7  20720473.012 9                 108886811.416 7  84846868.629 9
                  20720473.45748
  22806286.531 1                                 119847927.86011
                
  23203735.203 5  23203741.984 9  23203743.281 9 121936452.841 5  95015408.704 9
  91056455.046 9  23203741.56347
  20579500.766 7  20579505.082 9  20579506.820 9 108146001.746 7  84269631.862 9
  80758403.654 9  20579505.10548
  21857198.977 7  21857203.137 9                 114860353.636 7  89501590.379 9
                  21857203.48848
  22553107.742 6  22553110.867 8  22553113.234 9 118517376.157 6  92351231.101 8
  88503255.496 9  22553109.52346
  22915579.281 2                                 122281812.160 2  95108198.276 7
                  22915586.844 7
  22509027.258 5                                 120197045.786 5  93486511.305 8
                  22509034.434 8
  19664308.891 8                                 104821834.476 8  81528089.352 8
                  19664316.605 8
  20658861.563 7                                 110394664.087 7  85862538.343 9
                  20658867.348 9
  19851465.773 5                                 106154900.653 5  82564774.876 9
                  19851471.258 9
  21503056.750 7                                 115067185.076 7  89496701.557 9
                  21503060.230 9
                            3  5
              *** Start of Occupation ***                   COMMENT             
3                                                           MARKER NAME         
3                                                           MARKER NUMBER       
  4146333.9152   611809.6441  4791825.5441                  APPROX POSITION XYZ 
        0.0000        0.0000        0.0000                  ANTENNA: DELTA H/E/N
 19  5 27  9 51 50.0000000  0 14G02G06G12G14G24G25G29G32R02R09R10R11
                                R20R21
  22931340.594 1                                 120504980.782 1
                
  23540278.953 2  23540286.938 7  23540285.715 7 123705149.846 2  96393529.341 7
  92377142.532 7  23540285.69945
  20720643.805 7  20720646.305 9                 108887721.257 7  84847577.604 9
                  20720646.45748
  22804484.617 1                                                
                
  23205581.281 6  23205586.938 9  23205587.891 9 121946146.515 6  95022962.169 9
  91063693.828 9  23205586.64147
  20577331.727 7  20577336.070 9  20577337.617 9 108134602.559 7  84260749.378 9
  80749891.264 9  20577335.66848
  21853036.648 7  21853039.762 9                 114838482.306 7  89484547.826 9
                  21853040.22748
  22552780.516 6  22552784.004 8  22552786.582 9 118515656.116 6  92349890.892 8
  88501971.048 9  22552782.05547
  22914078.344 3                                 122273806.741 3  95101971.933 7
                  22914087.461 7
  22510764.813 5                                 120206317.900 5  93493722.966 8
                  22510771.109 8
  19663909.977 7                                 104819709.132 7  81526436.304 8
                  19663918.137 8
  20655013.148 7                                 110374106.109 7  85846548.794 9
                  20655019.492 9
  19850122.188 5                                 106147717.885 5  82559188.249 9
                  19850128.004 9
  21497961.727 8                                 115039920.897 8  89475496.087 9
                  21497964.414 9
 19  5 27  9 51 55.0000000  0 13G06G12G14G24G25G29G32R02R09R10R11R20
                                R21
  23540002.836 2  23540012.734 7  23540012.180 7 123703705.045 2  96392403.553 7
  92376063.679 7  23540010.46545
  20720820.063 7  20720822.613 9                 108888646.632 7  84848298.678 9
                  20720822.86348
  22802687.914 1                                 119828997.28311
                
  23207427.180 5  23207434.000 9  23207434.656 9 121955852.535 5  95030525.262 9
  91070941.790 9  23207433.52347
  20575166.070 7  20575170.223 9  20575171.434 9 108123220.582 7  84251880.275 9
  80741391.724 9  20575170.12948
  21848878.016 7  21848881.012 9                 114816627.898 7  89467518.396 9
                  21848880.79748
  22552458.461 6  22552460.750 8  22552463.039 9 118513958.124 6  92348567.829 8
  88500703.060 9  22552459.44947
  22912585.914 2                                 122265829.313 2  95095767.332 7
                  22912593.754 7
  22512501.953 5                                 120215603.392 5  93500944.954 8
                  22512508.387 8
  19663515.070 7                                 104817604.244 7  81524799.175 8
                  19663522.508 8
  20651169.242 7                                 110353562.817 7  85830570.651 9
                  20651175.637 9
  19848783.313 5                                 106140565.347 5  82553625.176 9
                  19848790.688 9
  21492869.109 8                                 115012674.896 8  89454304.751 9
                  21492872.594 9
 19  5 27  9 52  0.0000000  0 13G06G12G14G24G25G29G32R02R09R10R11R20
                                R21
  23539731.484 1  23539741.367 7                 123702281.869 1  96391294.517 7
                  23539739.95745
  20720999.047 7  20721001.809 9                 108889586.931 7  84849031.375 9
                  20721001.96948
  22800894.875 1                                 119819564.992 1
                
  23209275.266 4  23209283.871 9  23209284.723 9 121965570.236 4  95038097.468 9
  91078198.468 9  23209283.12147
  20573002.422 7  20573007.398 9  20573008.469 9 108111855.160 7  84243024.113 9
  80732904.567 9  20573007.57048
  21844722.367 7  21844725.656 9                 114794789.576 7  89450501.530 9
                  21844725.33248
  22552138.922 6  22552142.734 8  22552143.813 9 118512281.541 6  92347261.354 8
  88499451.070 9  22552140.57047
  22911093.492 1                                 122257879.610 1  95089584.210 7
                  22911104.457 7
  22514243.875 5                                 120224901.688 5  93508176.896 7
                  22514247.020 7
  19663124.172 8                                 104815519.130 8  81523177.408 8
                  19663131.188 8
  20647327.938 7                                 110333033.540 7  85814603.477 9
                  20647333.648 9
  19847453.227 5                                 106133442.459 5  82548085.153 9
                  19847458.805 9
  21487781.156 7                                 114985446.479 7  89433127.123 9
                  21487783.980 9
 19  5 27  9 52  5.0000000  0 12G06G12G14G24G25G29G32R09R10R11R20R21
  23539465.469 2  23539473.531 8  23539467.551 7 123700879.853 2  96390201.995 8
  92373926.79317  23539473.04745
  20721181.203 8  20721182.992 9                 108890541.467 8  84849775.151 9
                  20721183.18448
  22799104.398 1                                 119810153.983 1
                
  23211127.836 5  23211134.996 9  23211135.641 9 121975299.146 5  95045678.396 9
  91085463.528 9  23211134.39547
  20570843.188 7  20570847.191 9  20570848.551 9 108100505.624 7  84234180.313 9
  80724429.249 9  20570847.36348
  21840570.297 7  21840572.668 9                 114772966.872 7  89433496.807 9
                  21840572.41048
  22551822.828 6  22551827.176 8  22551828.855 9 118510625.662 6  92345971.044 8
  88498214.526 9  22551824.38746
  22515988.008 5                                 120234212.057 5  93515418.290 7
                  22515990.551 7
  19662736.547 7                                 104813453.044 7  81521570.434 8
                  19662743.824 8
  20643487.688 7                                 110312517.607 7  85798646.605 9
                  20643494.371 9
  19846126.641 5                                 106126348.396 5  82542567.548 9
                  19846131.309 9
  21482696.172 7                                 114958234.990 7  89411962.633 9
                  21482699.438 9
 19  5 27  9 52 10.0000000  0 14G02G06G12G14G24G25G29G32R02R09R10R11
                                R20R21
  22922971.008 1                                                
                
  23539204.719 4  23539211.824 8                 123699497.781 4  96389125.090 8
                  23539210.14545
  20721365.266 7  20721366.883 9                 108891509.095 7  84850529.157 9
                  20721367.06648
  22797316.391 1                                 119800762.896 1
                
  23212980.773 5  23212988.211 9  23212988.539 9 121985037.913 5  95053267.063 9
  91092736.008 9  23212987.87547
  20568686.461 7  20568690.633 9  20568691.754 9 108089170.847 7  84225348.030 9
  80715964.988 9  20568690.62548
  21836419.953 7  21836422.473 9                 114751158.563 7  89416503.320 9
                  21836422.54348
  22551511.359 6  22551516.582 8  22551516.762 9 118508989.381 6  92344696.027 8
  88496992.610 9  22551513.11346
  22908130.617 1                                 122242059.74011  95077279.95017
                  22908144.227 7
  22517733.906 4                                 120243533.271 4  93522668.083 7
                  22517733.875 7
  19662352.102 7                                 104811404.788 7  81519977.352 8
                  19662359.254 8
  20639650.391 7                                 110292013.818 7  85782699.271 9
                  20639656.254 9
  19844805.164 5                                 106119282.064 5  82537071.512 9
                  19844810.480 9
  21477614.750 7                                 114931039.303 7  89390810.441 9
                  21477617.473 9
 19  5 27  9 52 15.0000000  0 13G06G12G14G24G25G29G32R02R09R10R11R20
                                R21
  23538943.258 2  23538953.328 8  23538947.043 7 123698137.392 2  96388065.067 8
  92371876.69417  23538951.53945
  20721553.055 8  20721554.387 9                 108892491.533 8  84851294.689 9
                  20721554.41848
  22795530.852 1                                 119791393.69911
                
  23214836.867 5  23214843.047 9  23214843.598 9 121994788.310 5  95060864.769 9
  91100017.138 9  23214842.99647
  20566532.094 7  20566536.543 9  20566538.703 9 108077852.527 7  84216528.585 9
  80707512.998 9  20566536.75448
  21832272.953 7  21832275.926 9                 114729366.369 7  89399522.402 9
                  21832276.16048
  22551204.859 6  22551208.211 8  22551208.465 9 118507374.368 6  92343437.517 8
  88495786.596 9  22551204.93447
  22906657.039 1                                                  95071159.15416
                  22906671.391 6
  22519481.664 5                                 120252867.287 5  93529927.767 7
                  22519481.234 7
  19661970.727 7                                 104809375.963 7  81518399.367 8
                  19661978.156 8
  20635816.211 7                                 110271524.089 7  85766762.785 9
                  20635821.215 9
  19843488.039 6                                 106112245.290 6  82531598.478 9
                  19843493.992 9
  21472535.102 7                                 114903861.210 7  89369671.954 9
                  21472538.414 9
 19  5 27  9 52 20.0000000  0 12G06G12G14G24G25G29G32R09R10R11R20R21
  23538690.430 3  23538697.969 8  23538698.277 8 123696796.969 3  96387020.493 8
  92370875.677 8  23538697.02745
  20721741.766 7  20721743.500 9                 108893486.996 7  84852070.384 9
                  20721743.59848
  22793752.414 1                                                
                
  23216695.078 5  23216701.242 9  23216701.148 9 122004548.644 5  95068470.168 9
  91107305.660 9  23216701.07047
  20564381.281 7  20564385.938 9  20564386.727 9 108066548.946 7  84207720.569 9
  80699072.028 9  20564386.53548
  21828129.070 7  21828130.707 9                 114707588.570 7  89382552.714 9
                  21828131.02348
  22550900.336 6  22550904.512 8  22550904.926 9 118505778.891 6  92342194.271 8
  88494595.143 9  22550901.56647
  22521231.906 5                                 120262212.132 5  93537196.102 7
                  22521231.734 7
  19661593.930 7                                 104807364.937 7  81516835.230 8
                  19661600.887 8
  20631983.945 7                                 110251046.519 7  85750835.776 9
                  20631988.535 9
  19842178.281 6                                 106105236.345 6  82526147.071 9
                  19842183.211 9
  21467457.523 7                                 114876698.856 7  89348545.654 9
                  21467462.594 9
 19  5 27  9 52 25.0000000  0 12G06G12G14G24G25G29G32R09R10R11R20R21
  23538438.141 3  23538446.320 8  23538448.945 8 123695478.236 3  96385992.863 8
  92369890.887 8  23538445.94145
  20721933.898 8  20721935.680 9                 108894497.271 8  84852857.597 9
                  20721935.89148
  22791979.813 1                                 119772716.97611
                
  23218553.992 5  23218560.668 9  23218561.121 9 122014320.467 5  95076084.571 9
  91114602.792 9  23218560.28547
  20562234.164 7  20562237.527 9  20562238.867 9 108055261.875 7  84198925.443 9
  80690643.336 9  20562238.02748
  21823987.305 7  21823990.379 9                 114685826.961 7  89365595.622 9
                  21823989.88348
  22550601.938 6  22550605.180 8  22550606.449 9 118504204.648 6  92340967.635 8
  88493419.571 9  22550603.26647
  22522983.578 3                                 120271569.439 3  93544473.989 7
                  22522986.570 7
  19661219.922 7                                 104805373.529 7  81515286.348 8
                  19661227.953 8
  20628153.781 7                                 110230582.911 7  85734919.615 9
                  20628160.070 9
  19840871.742 6                                 106098256.803 6  82520718.552 9
                  19840878.047 9
  21462384.891 7                                 114849553.999 7  89327433.005 9
                  21462389.813 9
 19  5 27  9 52 30.0000000  0 12G06G12G14G24G25G29G32R09R10R11R20R21
  23538189.828 3  23538197.645 7  23538200.273 8 123694180.267 3  96384981.425 7
  92368921.623 8  23538198.79345
  20722128.711 8  20722130.648 9                 108895521.538 8  84853655.726 9
                  20722130.77048
  22790208.969 2                                 119763410.419 2
                
  23220414.508 5  23220421.949 9  23220422.473 9 122024103.130 5  95083707.397 9
  91121908.011 9  23220421.87146
  20560088.969 7  20560092.801 9  20560094.266 9 108043990.450 7  84190142.521 9
  80682226.356 9  20560093.07448
  21819849.086 7  21819852.203 9                 114664080.759 7  89348650.503 9
                  21819851.66448
  22550306.422 6  22550309.082 8  22550310.938 9 118502650.848 6  92339756.885 8
  88492259.269 9  22550307.34847
  22524737.875 3                                 120280938.646 3  93551761.112 8
                  22524742.059 8
  19660850.391 7                                 104803400.838 7  81513752.037 8
                  19660857.543 8
  20624326.648 6                                 110210132.409 6  85719013.669 9
                  20624333.012 9
  19839571.953 5                                 106091306.005 5  82515312.366 9
                  19839578.703 9
  21457316.516 7                                 114822425.890 7  89306333.377 9
                  21457320.086 9
 19  5 27  9 52 35.0000000  0 12G06G12G14G24G25G29G32R09R10R11R20R21
  23537947.094 3  23537954.160 7  23537957.371 8 123692902.955 3  96383986.066 7
  92367967.790 8  23537956.06645
  20722326.547 8  20722327.777 9                 108896559.603 8  84854464.612 9
                  20722327.73048
  22788442.742 1                                 119754124.613 1
                
  23222277.484 4  23222285.285 9  23222286.184 9 122033896.329 4  95091338.488 9
  91129221.147 9  23222285.46546
  20557946.938 7  20557951.426 9  20557952.844 9 108032734.508 7  84181371.646 9
  80673820.940 9  20557951.53948
  21815713.141 6  21815716.938 9                 114642349.720 6  89331717.210 9
                  21815716.56348
  22550014.281 6  22550017.922 8  22550019.031 9 118501117.314 6  92338561.909 8
  88491114.089 9  22550016.14547
  22526493.008 1                                 120290319.446 1  93559057.288 7
                  22526497.449 7
  19660483.531 7                                 104801446.892 7  81512232.301 8
                  19660491.047 8
  20620502.523 7                                 110189694.931 7  85703117.863 9
                  20620509.059 9
  19838277.320 5                                 106084383.582 5  82509928.269 9
                  19838283.430 9
  21452250.211 7                                 114795314.418 7  89285246.693 9
                  21452253.707 9
 19  5 27  9 52 40.0000000  0 12G06G12G14G24G25G29G32R09R10R11R20R21
  23537708.469 3  23537714.297 8  23537719.016 8 123691646.222 3  96383006.810 8
  92367029.336 8  23537716.89145
  20722527.016 8  20722528.160 9                 108897611.407 8  84855284.206 9
                  20722528.15648
  22786678.836 2                                 119744859.601 2
                
  23224142.180 4  23224150.820 9  23224152.000 9 122043700.012 4  95098977.702 9
  91136542.069 9  23224150.75446
  20555808.297 7  20555811.961 9  20555813.555 9 108021494.018 7  84172612.834 9
  80665427.072 9  20555812.30948
  21811580.664 6  21811584.176 9                 114620633.790 6  89314795.719 9
                  21811584.31348
  22549725.945 6  22549730.344 8  22549731.113 9 118499603.982 6  92337382.683 8
  88489984.008 9  22549728.86747
  22528249.656 1                                 120299711.918 1  93566362.551 7
                  22528255.441 7
  19660121.320 7                                 104799511.518 7  81510727.017 8
                  19660127.992 8
  20616680.648 7                                 110169270.394 7  85687232.102 9
                  20616685.883 9
  19836989.063 6                                 106077489.640 6  82504566.319 9
                  19836994.297 9
  21447186.617 7                                 114768219.562 7  89264172.929 9
                  21447189.820 9
 19  5 27  9 52 45.0000000  0 12G06G12G14G24G25G29G32R09R10R11R20R21
  23537474.750 4  23537480.117 8  23537483.840 8 123690409.749 4  96382043.360 8
  92366105.968 8  23537482.12545
  20722729.430 8  20722730.945 9                 108898676.607 8  84856114.229 9
                  20722730.94148
  22784920.516 1                                 119735614.939 1
                
  23226009.164 3  23226017.648 9  23226019.809 9 122053513.954 3  95106624.932 9
  91143870.634 9  23226018.03146
  20553672.297 7  20553675.680 9  20553677.184 9 108010268.578 7  84163865.734 9
  80657044.433 9  20553676.11348
  21807452.703 6  21807454.453 9                 114598932.598 6  89297885.746 9
                  21807454.52048
  22549441.648 6  22549445.859 8  22549447.219 9 118498110.512 6  92336218.916 8
  88488868.752 9  22549444.85947
  22530011.563 2                                 120309115.371 2  93573676.414 7
                  22530016.395 7
  19659761.172 7                                 104797594.212 7  81509235.770 8
                  19659769.184 8
  20612859.586 7                                 110148858.485 7  85671356.166 9
                  20612865.715 9
  19835703.836 6                                 106070623.851 6  82499226.271 9
                  19835710.770 9
  21442125.734 7                                 114741140.843 7  89243111.725 9
                  21442130.113 9
 19  5 27  9 52 50.0000000  0 13G06G12G14G24G25G29G32R02R09R10R11R20
                                R21
  23537244.328 4  23537248.848 8  23537252.930 8 123689193.051 4  96381095.275 8
  92365197.423 8  23537250.68845
  20722934.508 8  20722936.055 9                 108899754.727 8  84856954.335 9
                  20722935.79748
  22783165.906 3                                 119726390.224 3
                
  23227880.258 5  23227886.965 9  23227889.398 9 122063337.584 5  95114279.713 9
  91151206.463 9  23227887.56646
  20551539.000 7  20551542.121 9  20551543.867 9 107999057.771 7  84155130.056 9
  80648672.738 9  20551542.62148
  21803325.805 7  21803327.191 9                 114577245.845 7  89280986.978 9
                  21803326.95348
  22549160.836 6  22549164.648 8  22549166.355 9 118496636.396 6  92335070.219 8
  88487767.926 9  22549163.40647
  22896470.938 1                                 122179876.32811
                
  22531775.500 1                                 120318529.572 1  93580998.579 7
                  22531779.926 7
  19659405.023 7                                 104795694.670 7  81507758.346 8
                  19659412.395 8
  20609044.016 7                                 110128458.737 7  85655489.693 9
                  20609048.320 9
  19834426.773 6                                 106063785.535 6  82493907.566 9
                  19834432.320 9
  21437068.023 6                                 114714077.928 6  89222062.757 9
                  21437072.582 9
 19  5 27  9 52 55.0000000  0 13G06G12G14G24G25G29G32R02R09R10R11R20
                                R21
  23537015.781 2  23537022.465 8  23537025.352 8 123687997.420 2  96380163.623 8
  92364304.558 8  23537022.98845
  20723142.547 8  20723144.355 9                 108900847.018 8  84857805.467 9
                  20723143.91848
  22781419.258 3                                 119717186.607 3
                
  23229751.492 4  23229758.531 9  23229761.172 9 122073172.207 4  95121943.049 9
  91158550.462 9  23229758.69546
  20549408.250 7  20549411.723 9  20549413.930 9 107987862.864 7  84146406.761 9
  80640312.912 9  20549412.09448
  21799200.594 6  21799203.063 9                 114555574.684 6  89264100.337 9
                  21799202.48448
  22548885.172 6  22548888.715 8  22548890.090 9 118495182.926 6  92333937.646 8
  88486682.528 9  22548887.37947
  22895033.406 1                                 122172218.238 1
                
  22533540.188 2                                 120327955.886 2  93588330.084 8
                  22533545.285 8
  19659052.531 7                                 104793814.052 7  81506295.634 8
                  19659059.996 8
  20605228.156 7                                 110108072.354 7  85639633.606 9
                  20605233.355 9
  19833152.086 6                                 106056976.103 6  82488611.350 9
                  19833158.508 9
  21432013.813 7                                 114687032.087 7  89201027.137 9
                  21432018.035 9
 19  5 27  9 53  0.0000000  0 13G06G12G14G24G25G29G32R02R09R10R11R20
                                R21
  23536791.352 2  23536797.535 8  23536800.305 8 123686821.692 2  96379247.445 8
  92363426.538 8  23536798.70745
  20723352.641 8  20723354.992 9                 108901952.474 8  84858666.865 9
                  20723354.58648
  22779672.773 2                                 119708003.188 2
                
  23231625.148 5  23231631.727 9  23231634.914 9 122083016.657 5  95129614.034 9
  91165901.811 9  23231632.20346
  20547280.703 7  20547283.816 9  20547286.344 9 107976682.821 7  84137695.044 9
  80631964.180 9  20547284.56648
  21795078.922 6  21795082.000 9                 114533918.162 6  89247225.110 9
                  21795080.94147
  22548611.594 6  22548615.961 8  22548617.730 9 118493749.008 6  92332820.322 8
  88485611.742 9  22548614.55147
  22893603.563 1                                 122164585.833 1  95016965.05216
                  22893607.137 6
  22535309.594 4                                 120337393.134 4  93595670.158 8
                  22535313.656 8
  19658702.922 7                                 104791951.420 7  81504846.924 8
                  19658710.707 8
  20601416.078 7                                 110087698.407 7  85623787.213 9
                  20601420.324 9
  19831884.445 6                                 106050194.562 6  82483336.819 9
                  19831890.836 9
  21426963.273 7                                 114660002.327 7  89180003.984 9
                  21426965.934 9
 19  5 27  9 53  5.0000000  0 13G06G12G14G24G25G29G32R02R09R10R11R20
                                R21
  23536571.508 1  23536577.254 8  23536579.461 8                  96378346.15818
  92362562.86118  23536578.50845
  20723565.500 8  20723567.594 9                 108903070.229 8  84859537.838 9
                  20723567.13348
  22777930.320 2                                 119698838.962 2
                
  23233499.711 4  23233506.434 9  23233509.066 9 122092870.129 4  95137292.101 9
  91173259.938 9  23233506.29746
  20545155.242 7  20545158.930 9  20545161.570 9 107965516.718 7  84128994.175 9
  80623625.849 9  20545159.44148
  21790960.758 6  21790963.809 9                 114512275.347 6  89230360.602 9
                  21790963.30948
  22548342.195 6  22548345.965 8  22548348.090 9 118492333.784 6  92331717.539 8
  88484554.908 9  22548345.25847
  22892177.906 1                                 122156978.356 1
                
  22537077.867 4                                 120346840.392 4  93603018.041 8
                  22537081.926 8
  19658356.758 7                                 104790105.787 7  81503411.421 8
                  19658364.207 8
  20597606.195 7                                 110067335.919 7  85607949.723 9
                  20597609.422 9
  19830621.336 6                                 106043439.935 6  82478083.220 9
                  19830627.770 9
  21421914.164 7                                 114632987.668 7  89158992.580 9
                  21421917.797 9
 19  5 27  9 53 10.0000000  0 13G06G12G14G24G25G29G32R02R09R10R11R20
                                R21
  23536355.703 2  23536361.219 8  23536363.383 8 123684526.85512  96377459.261 8
  92361712.923 8  23536362.02045
  20723779.938 8  20723781.840 9                 108904199.535 8  84860417.811 9
                  20723781.85549
  22776193.172 1                                 119689693.32211
                
  23235375.836 4  23235383.266 9  23235385.535 9 122102731.858 4  95144976.563 9
  91180624.212 9  23235382.64846
  20543032.914 7  20543036.805 9  20543039.328 9 107954363.936 7  84120303.699 9
  80615297.471 9  20543036.73048
  21786845.266 6  21786848.191 9                 114490645.600 6  89213506.211 9
                  21786848.07048
  22548076.500 6  22548080.645 8  22548082.582 9 118490936.577 6  92330628.784 8
  88483511.527 9  22548080.51647
  22890756.273 1                                 122149394.940 1
                
  22538851.742 4                                 120356297.042 4  93610373.220 8
                  22538852.676 8
  19658013.266 7                                 104788276.651 7  81501988.764 8
                  19658021.422 8
  20593795.852 7                                 110046984.339 7  85592120.704 9
                  20593801.508 9
  19829363.289 6                                 106036711.448 6  82472849.942 9
                  19829369.234 9
  21416868.672 6                                 114605987.526 6  89137992.481 9
                  21416871.973 9
 19  5 27  9 53 15.0000000  0 13G06G12G14G24G25G29G32R02R09R10R11R20
                                R21
  23536144.742 3  23536148.418 8  23536150.105 8 123683408.590 3  96376587.912 8
  92360877.889 8  23536148.85945
  20723997.523 8  20723999.719 9                 108905341.886 8  84861307.953 9
                  20723999.68848
  22774458.984 1                                                
                
  23237254.672 4  23237261.934 9  23237264.223 9 122112603.511 4  95152668.747 9
  91187995.887 9  23237261.56646
  20540913.383 7  20540917.109 9  20540920.227 9 107943225.937 7  84111624.735 9
  80606980.136 9  20540917.27748
  21782731.945 6  21782735.051 9                 114469030.342 6  89196663.158 9
                  21782735.43048
  22547814.609 6  22547818.813 8  22547819.938 9 118489558.854 6  92329555.239 8
  88482482.708 9  22547818.57047
  22889342.000 1                                 122141837.407 1
                
  22540624.359 4                                 120365764.478 4  93617736.766 8
                  22540625.883 8
  19657674.563 7                                 104786465.465 7  81500580.063 8
                  19657680.652 8
  20589991.359 7                                 110026645.059 7  85576301.260 9
                  20589994.270 9
  19828110.703 6                                 106030010.682 6  82467638.230 9
                  19828116.336 9
  21411826.008 7                                 114579003.340 7  89117004.800 9
                  21411829.738 9
 19  5 27  9 53 20.0000000  0 12G06G12G14G24G25G29G32R09R10R11R20R21
  23535934.000 2  23535938.738 8  23535940.418 8 123682309.220 2  96375731.269 8
  92360056.937 8  23535939.87545
  20724216.555 7  20724219.047 9                 108906496.202 7  84862207.410 9
                  20724219.40248
  22772720.703 1                                 119671461.16511
                
  23239135.742 4  23239142.016 9  23239144.234 9 122122483.862 4  95160367.726 9
  91195374.058 9  23239141.64146
  20538796.922 7  20538799.871 9  20538802.645 9 107932101.683 7  84102956.492 9
  80598673.067 9  20538799.69548
  21778620.359 6  21778623.980 9                 114447428.571 6  89179830.636 9
                  21778624.41848
  22547555.664 6  22547560.434 9  22547561.016 9 118488199.563 6  92328496.025 9
  88481467.643 9  22547560.41047
  22542398.164 5                                 120375241.787 5  93625107.939 8
                  22542400.133 8
  19657337.320 7                                 104784671.116 7  81499184.443 8
                  19657343.891 8
  20586187.156 7                                 110006317.067 7  85560490.606 9
                  20586190.633 9
  19826861.398 6                                 106023336.628 6  82462447.286 9
                  19826868.371 9
  21406786.266 6                                 114552034.093 6  89096028.714 9
                  21406789.820 9
 19  5 27  9 53 25.0000000  0 12G06G12G14G24G25G29G32R09R10R11R20R21
  23535730.227 2  23535732.637 8  23535734.832 8 123681228.56512  96374889.21718
  92359249.99218  23535733.87945
  20724438.594 7  20724440.934 9                 108907662.544 7  84863116.239 9
                  20724441.27748
  22770987.086 1                                 119662373.681 1
                
  23241016.453 4  23241024.176 9  23241025.984 9 122132372.892 4  95168073.438 9
  91202758.714 9  23241023.68446
  20536682.656 7  20536685.953 9  20536689.254 9 107920991.183 7  84094298.964 9
  80590376.272 9  20536685.72348
  21774513.117 6  21774516.070 9                 114425840.378 6  89163008.685 9
                  21774516.07848
  22547300.789 6  22547304.922 8  22547305.203 9 118486858.759 6  92327451.240 8
  88480466.368 9  22547305.47747
  22544175.688 5                                 120384728.791 5  93632486.699 8
                  22544177.004 8
  19657004.492 7                                 104782893.566 7  81497801.914 8
                  19657010.840 8
  20582385.477 7                                 109986000.348 7  85544688.716 9
                  20582388.633 9
  19825619.297 6                                 106016689.363 6  82457277.200 9
                  19825625.219 9
  21401748.438 7                                 114525079.928 7  89075064.398 9
                  21401752.410 9
 19  5 27  9 53 30.0000000  0 13G06G12G14G24G25G29G32R02R09R10R11R20
                                R21
  23535527.930 1  23535531.207 8  23535532.637 8 123680166.959 1  96374061.984 8
  92358457.226 8  23535531.39145
  20724663.000 7  20724665.066 9                 108908840.986 7  84864034.508 9
                  20724665.12948
  22769262.672 1                                                
                
  23242900.664 4  23242907.625 9  23242909.301 9 122142270.781 4  95175786.054 9
  91210149.982 9  23242906.99646
  20534571.352 7  20534574.621 9  20534576.738 9 107909894.549 7  84085652.224 9
  80582089.820 9  20534573.79348
  21770408.289 7  21770411.043 9                 114404265.785 7  89146197.328 9
                  21770411.20748
  22547048.766 6  22547053.051 8  22547053.930 9 118485536.452 6  92326420.833 8
  88479478.913 9  22547053.96947
  22885118.445 1                                 122119313.12611  94981758.13016
                  22885123.777 6
  22545953.578 6                                 120394225.702 6  93639873.206 8
                  22545955.586 8
  19656674.758 8                                 104781132.956 8  81496432.530 8
                  19656680.512 8
  20578585.539 7                                 109965695.065 7  85528895.743 9
                  20578589.129 9
  19824381.836 6                                 106010068.675 6  82452127.773 9
                  19824386.934 9
  21396713.391 6                                 114498140.900 6  89054111.825 9
                  21396718.449 9
 19  5 27  9 53 35.0000000  0 12G06G12G14G24G25G29G32R09R10R11R20R21
  23535332.047 2  23535333.246 8  23535335.043 8 123679125.543 2  96373250.502 8
  92357679.554 8  23535332.97745
  20724890.383 8  20724892.430 9                 108910032.757 8  84864963.163 9
                  20724892.44548
  22767538.180 1                                                
                
  23244786.117 3  23244793.867 8  23244795.363 9 122152178.874 3  95183506.653 8
  91217548.902 9  23244792.88746
  20532462.617 7  20532465.996 9  20532468.184 9 107898813.077 7  84077017.314 9
  80573814.692 9  20532465.18048
  21766306.523 7  21766308.754 9                 114382706.148 7  89129397.617 9
                  21766309.13348
  22546801.219 6  22546805.332 8  22546805.762 9 118484233.932 6  92325405.887 8
  88478506.236 9  22546805.74647
  22547735.352 6                                 120403733.813 6  93647268.425 8
                  22547736.688 8
  19656346.953 7                                 104779390.521 7  81495077.315 8
                  19656353.832 8
  20574788.000 7                                 109945402.568 7  85513112.709 9
                  20574791.816 9
  19823149.469 6                                 106003476.222 6  82447000.311 9
                  19823154.406 9
  21391683.508 6                                 114471218.279 6  89033172.007 9
                  21391686.578 9
 19  5 27  9 53 40.0000000  0 13G06G12G14G24G25G29G31G32R09R10R11R20
                                R21
  23535135.828 2  23535137.953 8  23535140.254 8 123678102.944 2  96372453.660 8
  92356915.900 8  23535137.83645
  20725118.914 8  20725121.125 9                 108911236.434 8  84865901.086 9
                  20725120.83248
  22765820.828 1                                 119635228.47211
                
  23246674.055 4  23246679.852 8  23246681.711 9 122162095.538 4  95191233.856 8
  91224954.174 9  23246679.05546
  20530356.422 7  20530360.188 9  20530362.125 9 107887745.217 7  84068393.015 9
  80565549.734 9  20530359.47348
  21762205.656 7  21762208.316 9                 114361159.946 7  89112608.369 9
                  21762208.70348
  23420651.430 3  23420649.840 6                 123076307.87313  95903651.79016
                
  22546556.961 6  22546560.434 8  22546561.441 9 118482949.730 6  92324405.210 8
  88477547.276 9  22546561.30947
  22549517.758 5                                 120413251.646 5  93654671.173 8
                  22549519.383 8
  19656022.820 7                                 104777664.867 7  81493735.133 8
                  19656029.910 8
  20570992.680 7                                 109925121.254 7  85497338.355 9
                  20570996.492 9
  19821920.742 6                                 105996910.243 6  82441893.428 9
                  19821926.559 9
  21386654.906 6                                 114444310.574 6  89012243.805 9
                  21386659.121 9
 19  5 27  9 53 45.0000000  0 13G06G12G14G24G25G29G31G32R09R10R11R20
                                R21
  23534944.945 1  23534946.957 8  23534949.223 8 123677098.740 1  96371671.139 8
  92356165.993 8  23534946.57045
  20725350.492 8  20725351.684 9                 108912451.651 8  84866848.010 9
                  20725351.92648
  22764103.148 1                                                
                
  23248561.977 5  23248569.051 8  23248571.215 9 122172020.628 5  95198967.722 8
  91232365.764 9  23248567.56646
  20528252.586 7  20528256.551 9  20528257.863 9 107876690.745 7  84059779.146 9
  80557294.783 9  20528255.91048
  21758108.125 7  21758110.543 9                 114339626.907 7  89095829.376 9
                  21758110.52748
  23416305.258 3  23416301.641 6                 123053465.854 3  95885852.877 6
                
  22546315.305 6  22546320.039 8  22546319.957 9 118481683.504 6  92323418.551 8
  88476601.707 9  22546320.29347
  22551302.969 6                                 120422778.820 6  93662081.195 8
                  22551304.699 8
  19655702.469 7                                 104775955.617 7  81492405.711 8
                  19655709.738 8
  20567199.078 7                                 109904850.907 7  85481572.548 9
                  20567203.641 9
  19820697.344 6                                 105990370.563 6  82436807.009 9
                  19820702.898 9
  21381629.766 6                                 114417417.534 6  88991326.980 9
                  21381633.316 9
 19  5 27  9 53 50.0000000  0 13G06G12G14G24G25G29G31G32R09R10R11R20
                                R21
  23534755.625 1  23534760.375 8  23534763.133 8                  96370903.05718
  92355429.89718  23534759.30545
  20725584.125 8  20725585.645 9                 108913678.604 8  84867804.083 9
                  20725585.75848
  22762389.766 1                                 119617226.50411
                
  23250452.461 5  23250459.816 8  23250460.781 9 122181954.052 5  95206708.078 8
  91239783.597 9  23250457.77746
  20526151.703 7  20526155.332 9  20526156.910 9 107865649.790 7  84051175.813 9
  80549049.904 9  20526154.60948
  21754013.844 7  21754015.875 9                 114318107.235 7  89079060.787 9
                  21754015.44548
  23411959.625 4  23411956.797 6                 123030632.320 4  95868060.582 6
                
  22546077.867 6  22546082.523 8  22546081.965 9 118480435.492 6  92322446.053 8
  88475669.750 9  22546082.59447
  22553087.039 5                                 120432315.547 5  93669498.619 8
                  22553090.941 8
  19655384.594 7                                 104774262.955 7  81491089.183 8
                  19655392.039 8
  20563408.055 7                                 109884591.706 7  85465815.427 9
                  20563411.734 9
  19819480.516 6                                 105983857.332 6  82431741.155 9
                  19819484.961 9
  21376607.461 7                                 114390539.311 7  88970421.719 9
                  21376611.531 9
 19  5 27  9 53 55.0000000  0 14G06G12G14G24G25G29G31G32R02R09R10R11
                                R20R21
  23534574.398 1  23534575.734 8  23534579.090 8                  96370149.70718
  92354707.90718  23534574.38345
  20725820.180 8  20725822.063 9                 108914917.552 8  84868769.492 9
                  20725821.56348
  22760679.133 1                                 119608253.81811
                
  23252344.063 5  23252350.859 8  23252352.824 9 122191896.108 5  95214455.102 8
  91247207.835 9  23252349.52746
  20524053.711 7  20524057.020 9  20524058.086 9 107854622.535 7  84042583.142 9
  80540815.263 9  20524056.25048
  21749920.773 7  21749923.246 9                 114296601.009 7  89062302.679 9
                  21749923.06348
  23407617.555 4  23407614.824 7                 123007807.489 4  95850275.176 7
                
  22545843.859 6  22545848.645 8  22545848.145 9 118479205.765 6  92321487.823 8
  88474751.417 9  22545848.77047
  22878182.195 1                                 122082271.49811  94952947.94417
                  22878183.156 7
  22554875.711 5                                 120441861.910 5  93676923.531 8
                  22554879.473 8
  19655070.953 7                                 104772587.122 7  81489785.763 8
                  19655077.516 8
  20559618.188 7                                 109864343.793 7  85450067.047 9
                  20559622.660 9
  19818266.414 6                                 105977370.626 6  82426695.954 9
                  19818271.699 9
  21371587.773 7                                 114363676.116 7  88949528.140 9
                  21371591.715 9
 19  5 27  9 54  0.0000000  0 13G12G14G24G25G29G31G32R02R09R10R11R20
                                R21
  20726058.445 8  20726059.578 9                 108916169.270 8  84869744.862 9
                  20726059.88348
  22758974.758 1                                 119599300.989 1
                
  23254238.883 5  23254244.965 8  23254246.770 9 122201847.723 5  95222209.602 8
  91254639.246 9  23254243.23846
  20521958.008 7  20521961.988 9  20521962.711 9 107843609.833 7  84034001.817 9
  80532591.492 9  20521961.69548
  21745830.594 7  21745833.895 9                 114275109.188 7  89045555.814 9
                  21745834.10548
  23403275.250 4  23403275.801 7                 122984992.396 4  95832497.061 7
                
  22545614.039 6  22545618.297 8  22545617.215 9 118477995.249 6  92320544.573 8
  88473847.457 9  22545618.72347
  22876807.227 2                                 122074937.718 2  94947243.917 7
                  22876808.516 7
  22556665.039 5                                 120451418.830 5  93684356.695 8
                  22556668.680 8
  19654759.984 7                                 104770928.813 7  81488495.965 8
                  19654766.855 8
  20555831.539 7                                 109844108.048 7  85434328.143 9
                  20555835.977 9
  19817058.883 6                                 105970911.360 6  82421672.084 9
                  19817063.938 9
  21366569.898 7                                 114336828.836 7  88928646.942 9
                  21366574.387 9
 19  5 27  9 54  5.0000000  0 14G06G12G14G24G25G29G31G32R02R09R10R11
                                R20R21
  23534217.758 1  23534219.516 8                                  96368694.14618
                  23534219.09845
  20726298.617 8  20726299.730 9                 108917432.894 8  84870729.501 9
                  20726300.04348
  22757276.047 1                                 119590367.145 1
                
  23256135.078 5  23256139.488 8  23256141.988 9 122211807.921 5  95229970.769 8
  91262077.055 9  23256138.04746
  20519863.945 7  20519868.457 9  20519869.625 9 107832610.839 7  84025431.178 9
  80524377.958 9  20519868.43448
  21741743.625 6  21741746.570 9                 114253630.854 6  89028819.465 9
                  21741746.94948
  23398935.141 3  23398937.785 7                 122962186.017 3  95814725.839 7
                
  22545386.523 6  22545391.273 8  22545390.383 9 118476803.015 6  92319615.589 8
  88472957.144 9  22545392.65247
  22875437.867 3                                 122067628.457 3  94941558.942 7
                  22875438.855 7
  22558454.797 5                                 120460985.392 5  93691797.340 8
                  22558460.121 8
  19654451.469 7                                 104769287.313 7  81487219.243 8
                  19654458.543 8
  20552046.953 7                                 109823883.730 7  85418598.120 9
                  20552051.688 9
  19815855.211 6                                 105964478.643 6  82416668.860 9
                  19815860.895 9
  21361557.539 7                                 114309996.689 7  88907777.505 9
                  21361560.375 9
 19  5 27  9 54 10.0000000  0 13G12G14G24G25G29G31G32R02R09R10R11R20
                                R21
  20726541.117 8  20726542.848 9                 108918707.291 8  84871722.544 9
                  20726542.87948
  22755579.625 3                                 119581451.27913
                
  23258031.781 5  23258035.113 8  23258038.617 9 122221775.569 5  95237737.781 8
  91269520.422 9  23258034.09046
  20517773.672 7  20517778.457 9  20517779.125 9 107821624.458 7  84016870.357 9
  80516173.842 9  20517777.52748
  21737659.438 7  21737662.109 9                 114232165.011 7  89012092.844 9
                  21737662.11348
  23394597.930 4  23394601.574 7                 122939387.371 4  95796960.699 7
                
  22545163.141 6  22545168.410 9  22545167.230 9 118475628.041 6  92318700.016 9
  88472079.708 9  22545169.55947
  22874073.063 2                                 122060342.744 2  94935892.212 7
                  22874073.637 7
  22560247.992 5                                 120470560.627 5  93699244.685 8
                  22560252.613 8
  19654147.156 8                                 104767661.630 8  81485954.820 8
                  19654154.309 8
  20548263.656 7                                 109803669.621 7  85402876.040 9
                  20548269.457 9
  19814657.398 6                                 105958071.544 6  82411685.558 9
                  19814663.098 9
  21356545.117 7                                 114283178.549 7  88886918.959 9
                  21356549.016 9
 19  5 27  9 54 15.0000000  0 13G12G14G24G25G29G31G32R02R09R10R11R20
                                R21
  20726785.805 8  20726787.750 9                 108919994.131 8  84872725.272 9
                  20726787.71948
  22753886.438 3                                 119572554.870 3
                
  23259930.758 5  23259933.141 8  23259937.156 9 122231752.416 5  95245511.912 8
  91276970.661 9  23259931.86746
  20515685.758 7  20515690.297 9  20515691.418 9 107810652.353 7  84008320.660 9
  80507980.380 9  20515689.87548
  21733577.406 7  21733579.137 9                 114210713.208 7  88995377.141 9
                  21733579.18448
  23390260.516 4  23390262.887 7                 122916598.108 4  95779202.751 7
                
  22544942.602 6  22544948.656 9  22544946.988 9 118474471.910 6  92317799.096 9
  88471216.360 9  22544950.31347
  22872713.938 2                                 122053082.414 2  94930245.261 7
                  22872712.414 7
  22562042.742 4                                 120480146.046 4  93706699.947 8
                  22562046.555 8
  19653844.703 8                                 104766053.321 8  81484703.913 8
                  19653852.535 8
  20544483.789 7                                 109783467.484 7  85387163.272 9
                  20544489.059 9
  19813463.750 6                                 105951691.516 6  82406723.319 9
                  19813470.117 9
  21351537.328 7                                 114256376.121 7  88866072.622 9
                  21351540.328 9
 19  5 27  9 54 20.0000000  0 13G12G14G24G25G29G31G32R02R09R10R11R20
                                R21
  20727032.711 7  20727034.414 9                 108921291.037 7  84873735.839 9
                  20727034.24248
  22752198.602 3                                 119563675.635 3
                
  23261831.000 6  23261833.344 8  23261837.957 9 122241736.152 6  95253291.438 8
  91284426.034 9  23261831.43446
  20513600.195 7  20513604.559 9  20513606.164 9 107799692.132 7  83999780.232 9
  80499795.807 9  20513603.80148
  21729498.031 7  21729499.664 9                 114189273.190 7  88978670.623 9
                  21729499.32048
  23385925.391 3  23385927.965 7                 122893815.815 3  95761450.332 7
                
  22544725.898 6  22544732.238 9  22544729.621 9 118473332.264 6  92316911.055 9
  88470365.321 9  22544733.76647
  22871354.766 2                                 122045844.605 2  94924615.848 7
                  22871356.781 7
  22563838.102 4                                 120489739.300 4  93714161.347 8
                  22563842.262 8
  19653545.805 8                                 104764459.823 8  81483464.531 8
                  19653553.605 8
  20540704.742 7                                 109763274.803 7  85371457.853 9
                  20540710.629 9
  19812275.563 6                                 105945336.178 6  82401780.288 9
                  19812280.613 9
  21346530.430 7                                 114229586.903 7  88845236.584 9
                  21346533.949 9
 19  5 27  9 54 25.0000000  0 13G12G14G24G25G29G31G32R02R09R10R11R20
                                R21
  20727281.500 7  20727283.801 9                 108922599.573 7  84874755.466 9
                  20727283.39148
  22750510.828 2                                 119554815.104 2
                
  23263731.555 6  23263735.242 7  23263739.781 9 122251728.153 6  95261077.370 7
  91291887.547 9  23263732.84846
  20511516.438 7  20511521.652 9  20511523.566 9 107788745.344 7  83991250.258 9
  80491621.255 9  20511520.96948
  21725419.953 7  21725422.332 9                 114167846.448 7  88961974.466 9
                  21725422.04348
  23381591.633 3  23381594.707 7                 122871041.996 3  95743704.504 7
                
  22544512.914 6  22544518.914 9  22544516.176 9 118472210.597 6  92316037.014 9
  88469527.706 9  22544520.84847
  22870001.938 1                                 122038631.189 1  94919005.432 7
                  22870004.539 7
  22565635.781 4                                 120499341.925 4  93721630.026 8
                  22565640.535 8
  19653250.734 8                                 104762882.907 8  81482238.036 8
                  19653258.016 8
  20536928.641 7                                 109743093.207 7  85355761.044 9
                  20536933.980 9
  19811093.289 6                                 105939007.255 6  82396857.785 9
                  19811097.543 9
  21341527.516 7                                 114202812.484 7  88824412.058 9
                  21341530.328 9
 19  5 27  9 54 30.0000000  0 13G12G14G24G25G29G31G32R02R09R10R11R20
                                R21
  20727532.602 7  20727534.563 9                 108923919.322 7  84875783.840 9
                  20727534.62548
  22748829.055 3                                 119545972.983 3
                
  23265634.797 6  23265637.805 7  23265642.676 9 122261728.097 6  95268869.540 7
  91299355.030 9  23265635.33246
  20509435.531 6  20509440.988 9  20509442.465 9 107777811.640 6  83982730.498 9
  80483456.484 9  20509440.16448
  21721344.508 7  21721346.813 9                 114146432.635 7  88945288.407 9
                  21721346.99648
  23377260.000 4  23377263.535 7                 122848276.403 4  95725965.074 7
                
  22544302.867 6  22544309.133 9  22544306.113 9 118471106.592 6  92315176.753 9
  88468703.285 9  22544310.14147
  22868656.305 1                                 122031441.746 1  94913413.640 7
                  22868657.676 7
  22567438.305 5                                 120508953.524 5  93729105.726 8
                  22567439.984 8
  19652957.242 8                                 104761322.119 8  81481024.077 8
                  19652965.145 8
  20533152.875 7                                 109722922.431 7  85340072.655 9
                  20533159.195 9
  19809913.414 6                                 105932704.256 6  82391955.447 9
                  19809917.898 9
  21336527.500 7                                 114176052.585 7  88803598.813 9
                  21336530.043 9
 19  5 27  9 54 35.0000000  0 13G12G14G24G25G29G31G32R02R09R10R11R20
                                R21
  20727786.211 8  20727787.996 9                 108925250.300 8  84876820.952 9
                  20727787.91848
  22747150.727 3                                 119537149.171 3
                
  23267539.383 6  23267542.527 8  23267547.336 9 122271736.015 6  95276667.896 8
  91306828.460 9  23267540.22746
  20507357.555 7  20507363.242 9  20507364.859 9 107766890.988 7  83974220.886 9
  80475301.452 9  20507362.14548
  21717272.164 6  21717274.387 9                 114125031.712 6  88928612.378 9
                  21717273.93048
  23372928.773 4  23372931.496 7                 122825518.982 4  95708232.017 7
                
  22544096.094 6  22544103.176 9  22544099.250 9 118470020.208 6  92314330.217 9
  88467892.011 9  22544104.09847
  22867311.211 1                                                  94907840.54517
                  22867315.723 7
  22569239.211 5                                 120518574.134 5  93736588.438 8
                  22569241.379 8
  19652667.297 7                                 104759777.480 7  81479822.693 8
                  19652675.090 8
  20529380.320 7                                 109702762.390 7  85324392.604 9
                  20529386.352 9
  19808739.813 6                                 105926427.149 6  82387073.257 9
                  19808744.707 9
  21331529.352 7                                 114149307.215 7  88782796.854 9
                  21331531.383 9
 19  5 27  9 54 40.0000000  0 12G12G14G24G25G29G31G32R09R10R11R20R21
  20728041.320 8  20728043.293 9                 108926592.223 8  84877866.611 9
                  20728043.28548
  22745474.164 3                                 119528343.375 3
                
  23269445.328 5  23269447.910 7  23269452.762 9 122281751.533 5  95284472.236 7
  91314307.570 9  23269446.00446
  20505281.852 7  20505287.027 9  20505288.813 9 107755983.122 7  83965721.234 9
  80467155.965 9  20505286.27748
  21713201.813 6  21713204.848 9                 114103643.454 6  88911946.203 9
                  21713204.21948
  23368600.672 4  23368602.746 7                 122802769.465 4  95690505.142 7
                
  22543892.828 6  22543898.879 9  22543895.516 8 118468951.130 6  92313497.174 9
  88467093.665 8  22543900.65647
  22571041.727 4                                 120528203.399 4  93744077.840 8
                  22571044.945 8
  19652380.797 7                                 104758248.604 7  81478633.581 8
                  19652388.875 8
  20525608.992 7                                 109682612.735 7  85308720.651 9
                  20525615.602 9
  19807571.484 6                                 105920175.591 6  82382210.938 9
                  19807575.516 9
  21326532.984 7                                 114122576.067 7  88762005.951 9
                  21326535.770 9
 19  5 27  9 54 45.0000000  0 12G12G14G24G25G29G31G32R09R10R11R20R21
  20728299.156 8  20728300.406 9                 108927944.493 8  84878920.317 9
                  20728300.15648
  22743801.883 4                                 119519555.098 4
                
  23271353.477 6  23271355.078 8  23271359.527 9 122291774.170 6  95292282.007 8
  91321791.993 9  23271353.53146
  20503209.328 7  20503213.793 9  20503215.488 9 107745087.438 7  83957231.091 9
  80459019.582 9  20503213.00848
  21709133.359 6  21709136.813 9                 114082267.273 6  88895289.426 9
                  21709136.04348
