     3.03           OBSERVATION DATA    M: Mixed            RINEX VERSION / TYPE
Geo++ RINEX Logger  Geo++               20180704 140906 UTC PGM / RUN BY / DATE
************************************************************COMMENT
This file was generated by the Geo++ RINEX Logger App       COMMENT
for Android devices (Version 1.2.4). If you encounter       COMMENT
any issues, please send an email to android@geopp.de        COMMENT
Note: Tracking signals and phase shifts by best knowledge   COMMENT
************************************************************COMMENT
Geo++                                                       MARKER NAME
GEODETIC                                                    MARKER TYPE
RINEX Logger user   Geo++                                   OBSERVER / AGENCY
21f9f770130b7ece    samsung             SM-G965F            REC # / TYPE / VERS
21f9f770130b7ece    SM-G965F                                ANT # / TYPE
  4146276.7063   611656.7169  4791930.4543                  APPROX POSITION XYZ
        0.0000        0.0000        0.0000                  ANTENNA: DELTA H/E/N
G    4 C1C L1C D1C S1C                                      SYS / # / OBS TYPES
R    4 C1C L1C D1C S1C                                      SYS / # / OBS TYPES
E    4 C1B L1B D1B S1B                                      SYS / # / OBS TYPES
C    4 C2I L2I D2I S2I                                      SYS / # / OBS TYPES
J    4 C1C L1C D1C S1C                                      SYS / # / OBS TYPES
  2018     7     4    14     9   24.0002898     GPS         TIME OF FIRST OBS
G                                                           SYS / PHASE SHIFTS
R                                                           SYS / PHASE SHIFTS
E                                                           SYS / PHASE SHIFTS
C                                                           SYS / PHASE SHIFTS
J                                                           SYS / PHASE SHIFTS
                                                            END OF HEADER
> 2018  7  4 14  9 24.0002898  0 18
G07  24432886.864       51587.0421       -686.551          15.374  
G08  22514157.873     -171904.4691       2205.479          18.849  
G10  21356888.234     -121020.7400       1431.490          28.850  
G13  25307351.785       82101.3060      -1010.404          23.936  
G15  24436390.239       18283.2821       -243.195          26.877  
G16  21308797.327      243249.1580      -2942.309          23.418  
G20  20842168.267       50620.6971       -633.720          28.186  
G21  22786454.566      240212.9990      -2890.135          29.234  
G26  23098381.423      341082.3640      -4102.551          28.044  
G27  20268163.143      -32971.3861        381.680          18.122  
R15  21906396.417      -93885.5961       1111.684          20.521  
R01  22774163.675     -304498.4651       3713.241          23.191  
R23  19642004.923      130165.2070      -1580.984          27.287  
R07  21889375.701      198859.5090      -2424.494          32.543  
R08  20893750.258     -117224.4701       1377.713          27.356  
C06  39626208.846         942.6051        -18.721          22.353  
C09  39325075.117      -63132.6751        796.247          18.785  
C14  26946169.955     1453957.0871      -3394.991          19.740  
> 2018  7  4 14  9 25.0002895  0 19
G07  24432906.950       52273.2461       -687.222          14.753  
G08  22513626.940     -174110.3961       2203.670          20.220  
G10  21356503.300     -122452.2890       1431.383          28.928  
G13  25307431.530       83111.2910      -1010.397          23.547  
G15  24436320.987       18527.4711       -244.062          25.743  
G16  21309243.718      246191.1550      -2942.420          23.646  
G18  24750567.639     -245136.1281       3100.129           9.340  
G20  20842178.160       51254.4460       -634.181          29.784  
G21  22786893.762      243103.6250      -2890.622          29.652  
G26  23099052.659      345184.5030      -4102.813          26.867  
G27  20267979.370      -33349.1661        381.109          14.953  
R15  21906078.637      -95001.5531       1109.462          20.751  
R01  22773348.239     -308213.8280       3715.047          24.355  
R23  19642180.901      131746.0200      -1581.385          29.180  
R07  21889705.772      201284.5630      -2425.633          32.687  
R08  20893370.121     -118602.1670       1377.325          28.945  
C06  39626097.923         962.4401        -23.250          21.316  
C09  39324811.000      -63927.8811        795.151          18.235  
C14  26946711.380     1457353.7631      -3395.731          18.883  
> 2018  7  4 14  9 26.0002891  0 19
G07  24432925.538       52961.6571       -687.069          17.783  
G08  22513099.306     -176320.6771       2202.630          21.075  
G10  21356122.264     -123883.1860       1430.575          29.349  
G13  25307510.375       84122.0410      -1011.101          23.710  
G15  24436261.928       18772.2021       -244.958          25.805  
G16  21309696.104      249134.3131      -2937.756          21.468  
G18  24749871.520     -248208.7251       3103.881           9.890  
G20  20842185.355       51888.8670       -634.443          30.662  
G21  22787332.658      245994.2560      -2890.367          29.976  
G26  23099718.498      349286.9300      -4102.805          27.328  
G27  20267796.197      -33731.6931        380.862          10.883  
R15  21905803.128      -96104.1131       1102.493          23.323  
R01  22772531.005     -311928.8611       3716.147          22.317  
R23  19642360.777      133327.3360      -1581.548          29.085  
R07  21890050.234      203710.3740      -2426.403          32.607  
R08  20893002.275     -119978.9410       1376.543          29.491  
C06  39625989.099         982.1411        -18.694          21.882  
C09  39324548.681      -64722.8121        794.444          18.899  
C14  26947253.105     1460750.6311      -3396.556          18.341  
> 2018  7  4 14  9 27.0002887  0 18
G07  24432945.924       53655.1261       -687.751          17.347  
G08  22512565.675     -178525.4241       2198.973          21.976  
G10  21355739.429     -125313.5690       1429.796          30.005  
G13  25307595.216       85133.2930      -1011.480          24.930  
G15  24436193.575       19017.4930       -245.517          25.992  
G16  21310144.894      252075.3061      -2942.903          20.287  
G18  24749166.708     -251312.4751       3103.415          10.228  
G20  20842197.047       52524.0490       -635.698          30.174  
G21  22787773.053      248885.0290      -2890.655          29.852  
G26  23100388.834      353389.5790      -4103.304          26.647  
R15  21905493.742      -97198.3041       1100.444          23.964  
R01  22771760.838     -315644.8411       3714.750          21.834  
R23  19642546.348      134909.0100      -1581.890          29.534  
R07  21890401.590      206136.9150      -2426.875          32.097  
R08  20892639.826     -121354.8850       1375.589          29.862  
C06  39625885.670        1001.9901        -17.442          22.472  
C09  39324285.763      -65517.6871        794.705          19.492  
C14  26947795.130     1464147.2911      -3395.852          17.990  
> 2018  7  4 14  9 28.0002884  0 18
G07  24432967.808       54347.6211       -686.509          16.321  
G08  22512052.730     -180723.0461       2195.055          21.003  
G10  21355352.097     -126743.5690       1429.516          29.901  
G13  25307673.162       86145.0870      -1011.738          25.924  
G15  24436133.017       19263.3150       -245.725          25.462  
G16  21310585.589      255023.1661      -2943.098          19.630  
G18  24748465.494     -254415.1501       3104.032          10.407  
G20  20842208.739       53159.6870       -636.118          30.669  
G21  22788212.249      251775.8440      -2890.961          29.821  
G26  23101060.069      357492.3270      -4103.302          27.905  
R15  21905161.272      -98296.8451       1104.433          22.635  
R01  22770949.899     -319365.3601       3720.192          19.636  
R23  19642743.612      136491.0260      -1582.087          29.573  
R07  21890751.148      208564.1730      -2427.770          32.306  
R08  20892278.577     -122730.0920       1374.333          29.308  
C06  39625780.443        1020.4201        -22.174          22.399  
C09  39324022.845      -66312.4391        795.055          17.885  
C14  26948335.655     1467544.3961      -3394.625          19.575  
> 2018  7  4 14  9 29.0002880  0 18
G07  24432989.094       55035.8531       -688.166          17.360  
G08  22511522.098     -182920.1161       2197.143          19.871  
G10  21354972.560     -128172.9010       1428.908          29.432  
G13  25307758.004       87157.6720      -1012.996          26.314  
G15  24436063.465       19509.8551       -243.190          22.867  
G16  21311038.875      257966.9981      -2946.968          18.219  
G18  24747819.441     -257518.2941       3102.630          10.560  
G20  20842221.630       53796.1490       -637.107          31.647  
G21  22788653.843      254666.9110      -2891.125          28.914  
G26  23101728.906      361595.4330      -4103.339          28.039  
R15  21904861.480      -99394.0801       1104.887          21.780  
R01  22770137.162     -323083.8781       3719.005          18.237  
R23  19642924.686      138073.5340      -1582.590          29.353  
R07  21891105.803      210992.3880      -2428.644          33.145  
R08  20891905.035     -124104.5030       1374.099          27.772  
C06  39625673.717        1042.0001        -26.184          20.377  
C09  39323759.328      -67106.9001        795.048          16.813  
C14  26948875.881     1470941.9031      -3396.145          20.541  
> 2018  7  4 14  9 30.0002876  0 18
G07  24433010.679       55724.6931       -690.025          19.576  
G08  22510989.366     -185113.7281       2199.350          16.967  
G10  21354593.023     -129601.8010       1429.154          29.967  
G13  25307841.646       88170.7520      -1013.278          27.082  
G15  24435999.909       19756.5201       -246.835          21.783  
G16  21311493.960      260911.5731      -2945.271          22.085  
G18  24747133.816     -260622.4371       3104.545          11.583  
G20  20842230.924       54433.2060       -637.661          32.062  
G21  22789092.739      257558.0840      -2891.300          28.160  
G26  23102398.642      365698.7530      -4103.288          28.114  
R15  21904570.981     -100497.0781       1098.145          19.921  
R01  22769334.018     -326800.4581       3716.865          21.194  
R23  19643107.560      139656.4490      -1583.352          29.783  
R07  21891422.983      213421.3320      -2429.471          32.173  
R08  20891531.793     -125478.1910       1373.592          27.105  
C06  39625566.991        1068.2541        -25.689          18.904  
C09  39323494.611      -67900.6571        795.701          18.960  
C14  26949417.007     1474339.4761      -3396.964          20.683  
> 2018  7  4 14  9 31.0002872  0 18
G07  24433033.763       56413.8701       -690.010          21.457  
G08  22510462.331     -187305.3421       2198.839          12.455  
G10  21354209.289     -131030.1180       1428.273          29.242  
G13  25307923.489       89184.3670      -1013.646          26.613  
G15  24435946.846       20004.2181       -249.049          22.558  
G16  21311941.850      263856.6091      -2945.352          24.494  
G18  24746442.794     -263725.2691       3103.476          12.029  
G20  20842240.217       55070.8110       -638.062          31.717  
G21  22789530.436      260449.2920      -2891.584          27.901  
G26  23103071.676      369802.2130      -4103.601          28.562  
R15  21904198.639     -101593.4391       1100.967          19.607  
R01  22768510.488     -330509.8421       3714.638          21.753  
R23  19643294.630      141239.5450      -1583.273          30.048  
R07  21891773.141      215850.9600      -2429.766          32.560  
R08  20891174.141     -126851.0240       1372.382          27.458  
C06  39625462.963        1100.9911        -23.892          19.317  
C09  39323232.293      -68695.1231        795.149          19.255  
C14  26949957.832     1477737.3371      -3397.669          21.356  
> 2018  7  4 14  9 32.0002869  0 18
G07  24433054.448       57103.7621       -687.637          21.251  
G08  22509930.499     -189504.0451       2197.910          13.583  
G10  21353824.655     -132458.0430       1427.549          28.852  
G13  25308008.031       90198.5250      -1014.178          26.949  
G15  24435873.097       20252.2210       -248.244          23.228  
G16  21312393.637      266801.9911      -2946.102          24.757  
G18  24745765.563     -266829.6221       3102.993          12.097  
G20  20842250.710       55708.9720       -638.416          31.490  
G21  22789968.433      263340.4700      -2890.858          28.034  
G26  23103742.312      373905.7870      -4103.794          29.180  
R15  21903882.358     -102698.0721       1101.489          18.915  
R01  22767705.246     -334216.1951       3710.083          22.881  
R23  19643474.805      142823.0120      -1583.910          30.172  
R07  21892109.508      218281.3340      -2430.803          32.434  
R08  20890812.292     -128223.2640       1371.720          27.557  
C06  39625357.136        1127.1681        -23.455          19.122  
C09  39322969.075      -69489.4271        795.244          19.372  
C14  26950498.958     1481135.3191      -3398.122          21.138  
> 2018  7  4 14  9 33.0002865  0 18
G07  24433079.931       57794.1941       -685.797          21.164  
G08  22509374.684     -191699.7801       2194.911          13.711  
G10  21353440.321     -133885.3420       1426.884          29.076  
G13  25308085.077       91213.4020      -1015.422          26.098  
G15  24435812.539       20501.1720       -249.807          23.204  
G16  21312852.020      269747.9070      -2946.247          25.017  
G18  24745048.759     -269931.8091       3103.187          12.868  
G20  20842262.102       56347.8980       -639.428          31.299  
G21  22790406.730      266232.0030      -2891.725          28.075  
G26  23104415.046      378009.6230      -4104.159          29.420  
R15  21903567.276     -103805.6101       1100.903          19.315  
R01  22766915.293     -337927.2091       3714.848          23.818  
R23  19643655.880      144406.9300      -1584.405          30.052  
R07  21892456.368      220712.6030      -2431.817          32.357  
R08  20890444.146     -129594.6860       1371.164          27.773  
C06  39625250.710        1148.0091        -22.125          18.668  
C09  39322704.958      -70283.4221        795.379          19.307  
C14  26951039.783     1484533.5131      -3398.050          21.468  
> 2018  7  4 14  9 34.0002861  0 18
G07  24433095.520       58485.8331       -693.204          21.512  
G08  22508844.052     -193873.3241       2196.689          13.866  
G10  21353058.085     -135311.8700       1426.064          28.703  
G13  25308166.021       92229.1180      -1016.245          26.256  
G15  24435757.677       20750.8500       -250.406          24.184  
G16  21313298.111      272694.6950      -2947.026          24.191  
G18  24744346.645     -273037.1151       3102.851          13.213  
G20  20842274.094       56987.7300       -640.073          31.393  
G21  22790850.722      269123.9020      -2892.106          28.338  
G26  23105082.085      382113.9460      -4104.144          29.390  
R15  21903247.397     -104910.1491       1098.774          18.885  
R01  22766118.444     -341640.5591       3713.987          23.775  
R23  19643855.842      145991.5370      -1585.054          30.170  
R07  21892789.437      223144.9270      -2432.924          32.182  
R08  20890078.100     -130964.9080       1369.613          27.535  
C06  39625143.984        1169.4761        -20.901          19.181  
C09  39322441.740      -71076.9901        796.010          18.968  
C14  26951580.309     1487932.3201      -3399.144          21.566  
> 2018  7  4 14  9 35.0002858  0 18
G07  24433114.107       59177.5831       -694.062          21.002  
G08  22508326.910     -196069.3891       2197.346          13.884  
G10  21352679.747     -136737.9010       1425.809          28.652  
G13  25308247.265       93245.3360      -1016.438          26.398  
G15  24435696.819       21001.1190       -250.481          24.172  
G16  21313741.504      275641.8340      -2947.042          24.972  
G18  24743639.435     -276139.6531       3102.352          13.098  
G20  20842284.886       57628.2050       -640.790          31.150  
G21  22791290.218      272015.8480      -2892.116          28.139  
G26  23105754.219      386218.5370      -4104.545          29.516  
R15  21902933.515     -106011.5321       1099.002          17.651  
R01  22765306.906     -345353.7161       3711.991          23.674  
R23  19644035.117      147576.4650      -1585.212          30.299  
R07  21893146.490      225577.9710      -2433.323          32.277  
R08  20889694.066     -132334.5430       1369.400          27.959  
C06  39625037.557        1190.7101        -21.670          17.739  
C09  39322179.721      -71870.5001        795.418          18.564  
C14  26952117.837     1491331.2601      -3397.247          21.508  
> 2018  7  4 14  9 36.0002854  0 18
G07  24433133.893       59870.5221       -694.395          20.418  
G08  22507807.369     -198268.0011       2197.155          13.984  
G10  21352297.812     -138163.2910       1425.087          28.768  
G13  25308333.006       94262.3190      -1016.938          26.695  
G15  24435625.768       21252.0770       -250.809          23.506  
G16  21314195.390      278589.7300      -2947.922          23.851  
G18  24742930.126     -279246.2121       3102.946          13.272  
G20  20842294.480       58269.4340       -641.660          30.911  
G21  22791732.712      274908.0530      -2892.384          28.165  
G26  23106425.455      390323.3960      -4105.178          29.319  
R15  21902615.435     -107111.4611       1097.011          17.552  
R01  22764496.567     -349066.6821       3713.838          23.905  
R23  19644217.991      149161.9300      -1585.725          30.578  
R07  21893495.748      228011.9720      -2434.201          32.261  
R08  20889348.705     -133703.1700       1368.409          27.852  
C06  39624930.531        1212.4981        -21.725          18.848  
C09  39321916.504      -72663.8201        795.018          19.758  
C14  26952659.262     1494730.5991      -3400.917          21.001  
> 2018  7  4 14  9 37.0002850  0 18
G07  24433168.070       60564.3601       -694.951          21.076  
G08  22507291.426     -200467.2261       2197.234          14.004  
G10  21351914.077     -139588.0930       1424.241          29.124  
G13  25308417.847       95279.9710      -1018.407          26.414  
G15  24435555.317       21503.7320       -252.166          23.472  
G16  21314647.477      281538.1080      -2948.757          23.961  
G18  24742225.913     -282348.0191       3104.012          13.861  
G20  20842307.671       58911.2940       -642.346          31.218  
G21  22792169.210      277800.4310      -2892.573          28.058  
G26  23107093.392      394428.4850      -4105.403          29.132  
R15  21902303.651     -108207.2171       1096.045          17.407  
R01  22763681.131     -352779.2161       3710.414          23.825  
R23  19644405.961      150747.7750      -1586.033          30.903  
R07  21893828.818      230446.8060      -2435.660          32.385  
R08  20888970.067     -135070.9520       1367.163          27.749  
C06  39624822.306        1234.2371        -21.059          19.130  
C09  39321652.087      -73457.6611        795.145          19.338  
C14  26953199.188     1498130.1591      -3403.053          20.856  
> 2018  7  4 14  9 38.0002847  0 18
G07  24433169.868       61258.0051       -693.111          19.701  
G08  22506763.792     -202662.9571       2197.428          14.682  
G10  21351531.542     -141012.4650       1423.944          28.790  
G13  25308502.089       96298.0190      -1018.041          26.874  
G15  24435494.759       21755.9450       -252.937          23.842  
G16  21315099.863      284486.8450      -2949.066          23.589  
G18  24741519.602     -285450.5271       3104.979          13.776  
G20  20842319.662       59553.7110       -642.775          31.186  
G21  22792607.506      280692.8160      -2892.459          28.289  
G26  23107764.927      398533.6960      -4105.024          29.166  
R15  21901982.273     -109297.0801       1095.196          18.043  
R01  22762872.591     -356491.7711       3709.754          23.343  
R23  19644588.235      152334.0120      -1586.477          30.443  
R07  21894180.474      232882.2610      -2435.722          32.609  
R08  20888599.523     -136438.0280       1366.502          27.896  
C06  39624715.580        1255.6741        -20.294          18.429  
C09  39321389.768      -74257.4501        794.903          19.312  
C14  26953742.712     1501529.8221      -3403.394          21.301  
> 2018  7  4 14  9 39.0002843  0 18
G07  24433197.150       61952.4161       -694.510          20.044  
G08  22506235.857     -204857.1521       2196.655          15.280  
G10  21351151.106     -142436.2730       1423.442          28.866  
G13  25308589.328       97316.8790      -1019.336          26.578  
G15  24435434.501       22008.7720       -253.688          24.167  
G16  21315549.852      287436.1790      -2949.799          24.007  
G18  24740822.285     -288552.8411       3101.904          13.842  
G20  20842331.654       60196.8950       -643.723          31.032  
G21  22793051.799      283585.4880      -2892.962          28.411  
G26  23108433.165      402639.2710      -4105.561          28.953  
R15  21901662.095     -110390.3191       1095.184          16.752  
R01  22762068.848     -360204.0130       3712.137          24.119  
R23  19644775.305      153920.6270      -1587.042          30.408  
R07  21894522.238      235318.6370      -2436.714          32.537  
R08  20888251.165     -137804.3110       1365.772          27.878  
C06  39624607.055        1270.7011        -19.324          18.013  
C09  39321128.349      -75057.8421        794.719          19.721  
C14  26954289.534     1504929.5111      -3399.574          20.764  
> 2018  7  4 14  9 40.0002839  0 18
G07  24433214.538       62647.5471       -694.673          21.395  
G08  22505703.726     -207055.6311       2195.838          15.753  
G10  21350768.271     -143859.3380       1422.571          28.973  
G13  25308671.771       98336.4070      -1019.886          26.731  
G15  24435373.643       22262.2950       -254.013          24.748  
G16  21315998.641      290386.1690      -2949.940          23.757  
G18  24740124.968     -291656.9011       3102.166          13.771  
G20  20842340.948       60840.8820       -644.504          31.074  
G21  22793492.194      286478.3580      -2892.965          28.439  
G26  23109108.297      406745.1220      -4105.902          29.107  
R15  21901335.921     -111484.3491       1094.204          15.313  
R01  22761265.104     -363915.9571       3715.294          23.647  
R23  19644957.579      155507.7830      -1587.344          30.467  
R07  21894862.802      237755.9640      -2437.889          32.610  
R08  20887879.422     -139169.5540       1364.589          27.899  
C06  39624501.528        1292.0281        -19.613          19.149  
C09  39320863.932      -75859.5031        793.593          19.143  
C14  26954832.158     1508322.1301      -3397.777          20.613  
> 2018  7  4 14  9 41.0002835  0 18
G07  24433227.429       63344.8901       -693.623          21.642  
G08  22505176.391     -209249.3181       2194.815          15.858  
G10  21350381.838     -145281.9100       1422.686          28.766  
G13  25308753.914       99356.6040      -1020.278          26.547  
G15  24435310.986       22516.6170       -255.045          25.127  
G16  21316445.332      293336.7170      -2950.591          23.991  
G18  24739419.856     -294758.5661       3104.317          13.829  
G20  20842356.837       61485.5460       -645.013          30.909  
G21  22793929.291      289371.4710      -2893.156          28.285  
G26  23109777.734      410851.3400      -4106.413          29.208  
R15  21901018.740     -112579.9881       1094.965          16.477  
R01  22760462.260     -367627.6751       3713.019          23.100  
R23  19645144.350      157095.3900      -1587.718          30.420  
R07  21895208.463      240194.1360      -2438.303          32.525  
R08  20887520.870     -140534.0670       1363.867          27.995  
C06  39624395.102        1314.7801        -21.476          18.812  
C09  39320601.014      -76651.7481        792.220          19.950  
C14  26955372.384     1511723.0631      -3404.462          20.896  
> 2018  7  4 14  9 42.0002832  0 18
G07  24433247.815       64036.4801       -697.565          21.047  
G08  22504620.875     -211444.7921       2193.115          18.116  
G10  21350004.999     -146703.8970       1421.848          28.760  
G13  25308839.355      100377.4790      -1021.584          26.260  
G15  24435253.426       22771.3640       -255.127          25.211  
G16  21316895.021      296287.8470      -2951.640          23.807  
G18  24738727.335     -297860.3021       3103.456          13.545  
G20  20842364.032       62130.7750       -645.497          30.878  
G21  22794368.787      292264.6200      -2893.138          28.645  
G26  23110444.172      414957.6450      -4106.555          29.246  
R15  21900706.356     -113678.7301       1094.009          16.183  
R01  22759642.927     -371339.2171       3710.295          22.816  
R23  19645336.217      158683.3220      -1587.916          30.449  
R07  21895558.320      242633.1540      -2439.676          32.337  
R08  20887155.723     -141897.8040       1363.005          28.409  
C06  39624288.376        1337.6241        -21.165          18.561  
C09  39320337.497      -77444.0151        792.880          19.877  
C14  26955914.109     1515123.7891      -3400.348          20.883  
> 2018  7  4 14  9 43.0002828  0 18
G07  24433287.087       64733.4151       -699.444          21.722  
G08  22504092.941     -213639.8051       2193.443          16.426  
G10  21349626.061     -148125.3830       1421.170          28.988  
G13  25308920.299      101398.7760      -1021.966          26.041  
G15  24435190.470       23026.7490       -255.744          24.478  
G16  21317348.607      299239.3100      -2951.970          23.671  
G18  24738025.821     -300959.7841       3104.002          13.460  
G20  20842373.625       62776.6600       -645.987          30.719  
G21  22794805.584      295157.9250      -2893.298          28.679  
G26  23111117.206      419064.2100      -4106.870          29.368  
R15  21900393.673     -114773.0011       1094.666          15.670  
R01  22758844.580     -375050.5271       3712.672          22.675  
R23  19645521.189      160271.6740      -1588.605          30.611  
R07  21895900.983      245072.8200      -2439.859          32.738  
R08  20886782.781     -143260.8160       1362.630          28.363  
C06  39624182.249        1360.5951        -20.553          19.024  
C09  39320074.579      -78236.3081        790.832          19.456  
C14  26956454.335     1518524.7941      -3398.720          21.211  
> 2018  7  4 14  9 44.0002824  0 18
G07  24433306.274       65430.5251       -695.868          20.677  
G08  22503570.702     -215831.5071       2192.386          16.276  
G10  21349242.027     -149546.5630       1420.736          29.009  
G13  25309002.442      102420.4240      -1021.533          26.166  
G15  24435126.614       23282.6020       -256.667          24.250  
G16  21317802.792      302191.0470      -2952.185          23.536  
G18  24737318.910     -304061.2361       3103.928          13.953  
G20  20842388.615       63423.0900       -646.856          30.538  
G21  22795247.179      298051.1400      -2893.301          28.386  
G26  23111787.243      423170.7380      -4106.518          29.280  
R15  21900069.597     -115868.0911       1093.779          15.378  
R01  22758028.844     -378761.8721       3713.728          23.335  
R23  19645704.961      161860.1540      -1588.788          31.041  
R07  21896244.545      247513.1610      -2440.765          32.703  
R08  20886408.041     -144623.2270       1362.006          28.206  
C06  39624074.924        1383.6341        -22.043          20.202  
C09  39319811.061      -79028.4951        793.179          19.259  
C14  26956999.358     1521929.9311      -3398.862          20.416  
> 2018  7  4 14  9 45.0002821  0 18
G07  24433333.555       66128.3791       -693.451          21.363  
G08  22503047.564     -218018.3941       2190.746          16.084  
G10  21348862.790     -150967.1070       1420.203          28.812  
G13  25309084.585      103442.9990      -1023.022          26.122  
G15  24435063.657       23539.0220       -257.017          24.772  
G16  21318253.980      305143.5300      -2953.076          23.731  
G18  24736614.698     -307165.1081       3104.258          13.694  
G20  20842403.904       64070.1460       -647.557          30.615  
G21  22795681.878      300944.5830      -2893.322          28.190  
G26  23112455.780      427277.5730      -4106.955          29.358  
R15  21899772.503     -116965.9611       1091.916          14.323  
R01  22757239.791     -382472.9531       3709.951          23.148  
R23  19645899.827      163449.1430      -1589.314          31.290  
R07  21896589.007      249954.3630      -2441.831          32.681  
R08  20886036.598     -145984.6910       1360.867          28.405  
C06  39623969.097        1406.8891        -21.253          19.337  
C09  39319546.944      -79820.4301        792.794          19.092  
C14  26957543.181     1525331.4151      -3395.103          20.550  
> 2018  7  4 14  9 46.0002817  0 18
G07  24433363.534       66827.0611       -696.641          21.804  
G08  22502525.925     -220202.4211       2190.549          16.787  
G10  21348476.357     -152386.9150       1419.489          28.861  
G13  25309167.028      104466.2230      -1023.255          25.803  
G15  24435003.399       23796.2900       -257.194          24.718  
G16  21318699.172      308096.4981      -2954.238          22.994  
G18  24735908.687     -310268.6321       3102.622          14.004  
G20  20842413.797       64718.0830       -648.400          30.717  
G21  22796124.971      303838.4000      -2893.920          28.063  
G26  23113131.812      431384.8710      -4107.234          29.307  
R15  21899508.086     -118061.3361       1090.718          13.898  
R01  22756427.053     -386183.5101       3708.546          23.082  
R23  19646085.698      165038.6740      -1589.576          31.074  
R07  21896956.552      252396.5440      -2442.647          32.809  
R08  20885684.641     -147345.1240       1359.941          28.330  
C06  39623861.771        1430.5221        -20.393          18.998  
C09  39319285.225      -80612.0171        793.319          18.335  
C14  26958086.705     1528733.2901      -3404.307          20.685  
> 2018  7  4 14  9 47.0002813  0 18
G07  24433375.826       67526.3631       -702.164          22.128  
G08  22501996.492     -222394.4011       2193.095          17.621  
G10  21348100.717     -153806.3130       1418.998          29.108  
G13  25309250.371      105490.0360      -1024.304          25.681  
G15  24434944.040       24054.1230       -257.887          24.859  
G16  21319154.856      311050.1130      -2953.913          23.037  
G18  24735208.372     -313368.5731       3102.667          14.248  
G20  20842425.189       65366.5810       -648.828          30.961  
G21  22796567.165      306732.1940      -2893.564          27.983  
G26  23113800.649      435492.2340      -4107.300          28.773  
R15  21899128.249     -119164.8441       1088.084          13.982  
R01  22755617.614     -389894.0251       3709.024          22.700  
R23  19646265.873      166628.5500      -1590.092          30.851  
R07  21897286.324      254839.3810      -2443.145          32.711  
R08  20885320.693     -148704.9670       1359.526          28.109  
C06  39623755.045        1454.1361        -20.214          19.026  
C09  39319022.907      -81403.6201        791.928          19.196  
C14  26958625.432     1532140.8741      -3405.250          19.905  
> 2018  7  4 14  9 48.0002810  0 18
G07  24433401.608       68226.0991       -702.285          22.707  
G08  22501467.958     -224588.7521       2192.757          17.124  
G10  21347718.482     -155225.1630       1418.289          28.672  
G13  25309331.315      106514.3250      -1024.501          25.213  
G15  24434883.782       24312.5850       -259.014          24.729  
G16  21319600.947      314004.0731      -2954.374          22.480  
G18  24734505.958     -316473.7471       3101.038          14.267  
G20  20842439.280       66015.7630       -649.790          30.864  
G21  22797006.960      309626.2130      -2894.549          28.197  
G26  23114470.685      439599.9060      -4107.930          29.006  
R15  21898833.853     -120254.2561       1086.278          14.194  
R01  22754821.965     -393604.3401       3709.902          22.787  
R23  19646455.942      168218.8100      -1590.750          30.921  
R07  21897631.385      257283.1080      -2444.612          32.564  
R08  20884969.037     -150064.0150       1358.420          28.204  
C06  39623648.619        1478.0791        -21.126          19.338  
C09  39318759.389      -82195.0781        790.912          19.181  
C14  26959178.549     1535545.6031      -3405.888          18.392  
> 2018  7  4 14  9 49.0002806  0 18
G07  24433428.889       68926.7821       -702.708          22.673  
G08  22500943.321     -226778.6911       2192.347          17.460  
G10  21347336.846     -156643.1160       1417.401          29.035  
G13  25309416.456      107539.6800      -1025.735          25.873  
G15  24434818.727       24571.9030       -259.849          25.053  
G16  21320057.531      316958.9771      -2957.059          22.027  
G18  24733810.439     -319575.0441       3104.113          14.229  
G20  20842453.670       66665.8430       -650.454          30.802  
G21  22797449.154      312520.5700      -2894.384          28.320  
G26  23115138.323      443708.0410      -4108.229          28.762  
R15  21898516.672     -121340.7101       1089.332          13.556  
R01  22754025.416     -397314.2091       3712.184          22.321  
R23  19646643.012      169809.7590      -1591.281          31.057  
R07  21897967.153      259727.8930      -2445.051          32.672  
R08  20884592.497     -151421.9670       1357.741          28.485  
C06  39623542.193        1502.4461        -22.662          19.168  
C09  39318497.670      -82986.0421        790.541          19.441  
C14  26959722.373     1538948.2561      -3404.180          18.794  
> 2018  7  4 14  9 50.0002802  0 18
G07  24433447.776       69628.1651       -704.482          22.475  
G08  22500415.087     -228964.6881       2192.055          16.866  
G10  21346958.208     -158060.4680       1416.889          29.206  
G13  25309493.802      108565.7150      -1026.423          25.251  
G15  24434761.167       24831.9090       -260.166          24.385  
G16  21320500.625      319914.4111      -2956.253          22.757  
G18  24733105.327     -322674.9831       3102.233          14.325  
G20  20842466.860       67316.7020       -651.201          30.795  
G21  22797889.549      315415.2450      -2894.990          28.321  
G26  23115813.755      447816.5310      -4108.727          29.116  
R15  21898196.194     -122427.1451       1083.937          13.268  
R01  22753207.582     -401023.6821       3710.522          22.391  
R23  19646829.183      171401.2230      -1591.539          30.669  
R07  21898317.610      262173.5860      -2445.885          32.758  
R08  20884230.348     -152779.0290       1356.535          28.256  
C06  39623435.167        1527.0531        -22.890          18.903  
C09  39318234.153      -83776.8091        789.718          19.084  
C14  26960263.198     1542351.4061      -3402.812          18.989  
> 2018  7  4 14  9 51.0002798  0 18
G07  24433466.063       70329.9151       -699.403          21.574  
G08  22499885.054     -231152.4601       2190.726          14.227  
G10  21346575.673     -159477.4310       1416.459          28.855  
G13  25309584.339      109592.1700      -1026.913          24.892  
G15  24434698.210       25092.4940       -261.163          24.871  
G16  21320962.305      322870.1571      -2952.341          22.325  
G18  24732403.513     -325778.3001       3100.590          14.328  
G20  20842478.552       67968.1050       -652.041          30.923  
G21  22798328.446      318309.8710      -2894.900          28.708  
G26  23116481.993      451925.0650      -4108.657          29.232  
R15  21897896.402     -123509.0771       1086.444          13.178  
R01  22752381.954     -404733.2501       3709.779          22.068  
R23  19647016.254      172992.9460      -1591.993          30.774  
R07  21898658.474      264619.9980      -2446.800          32.616  
R08  20883859.805     -154135.4070       1356.084          28.262  
C06  39623329.040        1551.7741        -23.155          20.819  
C09  39317972.434      -84567.6001        789.281          20.434  
C14  26960805.523     1545754.7971      -3402.035          19.328  
> 2018  7  4 14  9 52.0002795  0 18
G07  24433498.441       71032.4061       -705.991          21.626  
G08  22499357.119     -233340.3921       2190.956          17.301  
G10  21346194.937     -160893.7530       1416.211          28.952  
G13  25309672.179      110619.3570      -1027.434          25.382  
G15  24434635.554       25353.6950       -261.624          24.984  
G16  21321413.193      325826.6991      -2953.407          21.764  
G18  24731701.699     -328879.3511       3101.256          13.915  
G20  20842490.844       68620.2510       -652.652          31.062  
G21  22798763.744      321204.7370      -2894.562          28.729  
G26  23117153.827      456034.0100      -4108.883          29.336  
R15  21897637.081     -124594.8031       1083.838          12.625  
R01  22751586.005     -408442.4731       3708.373          22.328  
R23  19647206.622      174585.1850      -1592.465          30.996  
R07  21899004.135      267067.2630      -2447.671          33.190  
R08  20883492.859     -155490.7990       1354.670          28.205  
C06  39623223.813        1576.6631        -24.357          19.958  
C09  39317709.516      -85358.0721        790.822          20.101  
C14  26961346.049     1549158.3411      -3399.980          19.081  
> 2018  7  4 14  9 53.0002791  0 18
G07  24433518.827       71735.4361       -702.044          20.667  
G08  22498826.786     -235538.7291       2191.234          17.962  
G10  21345816.299     -162309.5170       1415.282          29.037  
G13  25309753.422      111647.1340      -1028.188          25.469  
G15  24434566.901       25615.6110       -262.568          25.027  
G16  21321855.387      328783.6741      -2961.225          22.590  
G18  24730991.791     -331981.6401       3102.708          13.736  
G20  20842502.536       69272.9980       -653.068          30.578  
G21  22799201.141      324099.7590      -2894.712          28.727  
G26  23117825.662      460143.1030      -4109.583          29.215  
R15  21897249.749     -125677.6491       1082.731          12.322  
R01  22750783.760     -412150.1771       3711.019          22.181  
R23  19647383.200      176177.7430      -1592.621          30.801  
R07  21899362.687      269515.3220      -2448.600          33.304  
R08  20883125.913     -156845.5130       1354.227          27.904  
C06  39623117.986        1601.9231        -24.621          18.723  
C09  39317446.298      -86148.4171        790.836          20.247  
C14  26961887.474     1552562.2131      -3401.500          18.374  
> 2018  7  4 14  9 54.0002787  0 18
G07  24433533.817       72439.1401       -704.038          21.939  
G08  22498297.952     -237736.4141       2191.770          17.496  
G10  21345433.764     -163724.7340       1415.007          29.434  
G13  25309838.863      112675.6650      -1029.326          25.722  
G15  24434506.043       25878.0590       -262.743          24.740  
G16  21322309.872      331741.2461      -2961.541          22.111  
G18  24730304.966     -335078.6611       3104.083          13.993  
G20  20842517.525       69926.5030       -653.736          30.596  
G21  22799642.436      326995.0170      -2895.433          28.650  
G26  23118500.495      464252.4450      -4109.552          29.345  
R15  21896922.076     -126759.1521       1082.047          12.968  
R01  22749983.914     -415856.3501       3709.805          22.002  
R23  19647568.771      177770.8210      -1593.392          30.803  
R07  21899706.249      271964.2450      -2449.329          33.015  
R08  20882756.568     -158199.2970       1353.129          27.887  
C06  39623012.159        1627.2041        -23.937          19.230  
C09  39317183.980      -86938.5611        790.085          20.310  
C14  26962430.997     1555966.2131      -3402.502          18.959  
> 2018  7  4 14  9 55.0002784  0 18
G07  24433559.299       73143.4831       -704.073          21.107  
G08  22497767.620     -239935.4481       2191.905          16.938  
G10  21345054.826     -165139.3890       1414.199          29.215  
G13  25309927.902      113704.6810      -1029.589          25.340  
G15  24434449.982       26141.2380       -264.087          24.120  
G16  21322771.253      334699.1341      -2956.446          22.566  
G18  24729608.248     -338183.1951       3100.804          13.453  
G20  20842530.117       70580.6450       -654.590          31.025  
G21  22800084.930      329890.3150      -2895.318          28.485  
G26  23119171.730      468362.0280      -4109.906          29.472  
R15  21896678.945     -127843.2081       1080.138          12.550  
R01  22749162.782     -419557.2891       3706.776          21.486  
R23  19647757.640      179364.2430      -1593.748          30.731  
R07  21900045.614      274413.9080      -2450.293          33.044  
R08  20882392.620     -159552.3070       1352.304          27.782  
C06  39622905.733        1652.5841        -23.464          18.112  
C09  39316921.062      -87728.6661        789.973          19.717  
C14  26962973.922     1559370.5991      -3402.809          18.394  
> 2018  7  4 14  9 56.0002780  0 18
G07  24433582.683       73848.3231       -703.612          21.379  
G08  22497239.385     -242127.8431       2194.838          16.174  
G10  21344674.689     -166553.4340       1413.525          28.976  
G13  25310013.342      114734.3490      -1030.303          25.073  
G15  24434388.225       26404.9530       -264.170          24.597  
G16  21323215.245      337657.6860      -2958.789          23.019  
G18  24728916.028     -341283.0051       3101.471          13.183  
G20  20842544.207       71235.4580       -655.282          30.818  
G21  22800527.423      332785.8900      -2895.489          28.419  
G26  23119839.068      472471.8910      -4109.975          29.268  
R15  21896373.756     -128922.2521       1080.540          12.991  
R01  22748351.844     -423265.5611       3702.979          21.889  
R23  19647947.709      180958.0690      -1594.123          31.124  
R07  21900393.373      276864.5640      -2451.115          33.415  
R08  20882034.668     -160904.5380       1352.054          27.956  
C06  39622799.307        1678.3491        -24.017          19.135  
C09  39316658.744      -88518.4311        789.257          19.877  
C14  26963515.647     1562775.2861      -3403.092          18.421  
> 2018  7  4 14  9 57.0002776  0 18
G07  24433599.171       74553.9091       -710.726          21.046  
G08  22496713.549     -244324.2881       2193.134          16.651  
G10  21344293.353     -167966.9870       1413.164          28.892  
G13  25310094.886      115764.6500      -1030.896          24.869  
G15  24434328.566       26669.3780       -264.954          23.379  
G16  21323663.435      340616.7051      -2958.891          22.469  
G18  24728215.413     -344384.8751       3102.436          13.755  
G20  20842561.895       71890.9550       -656.020          30.421  
G21  22800964.521      335681.6200      -2895.926          28.660  
G26  23120509.404      476581.9580      -4110.121          28.694  
R15  21896051.779     -130003.3571       1079.691          12.845  
R01  22747547.501     -426974.0471       3708.139          21.334  
R23  19648141.974      182552.3690      -1594.709          31.092  
R07  21900753.424      279315.9770      -2451.967          33.321  
R08  20881667.123     -162255.9480       1350.995          28.180  
C06  39622693.780        1704.3121        -25.007          19.618  
C09  39316397.025      -89308.1011        789.545          18.937  
C14  26964058.571     1566180.0451      -3404.172          18.892  
> 2018  7  4 14  9 58.0002773  0 18
G07  24433627.652       75260.2671       -713.208          20.089  
G08  22496190.711     -246517.8981       2193.125          17.954  
G10  21343915.015     -169379.8780       1412.587          29.289  
G13  25310178.228      116795.6280      -1030.985          25.408  
G15  24434267.409       26934.4790       -265.691          24.097  
G16  21324117.021      343576.4761      -2961.502          21.979  
G18  24727503.406     -347486.2361       3102.453          14.251  
G20  20842575.685       72547.2380       -656.528          30.534  
G21  22801401.318      338577.5140      -2895.946          28.703  
G26  23121175.543      480692.3410      -4110.364          28.766  
R15  21895725.305     -131081.8521       1079.081          12.092  
R01  22746782.430     -430684.6801       3712.375          21.937  
R23  19648333.542      184147.0730      -1594.769          31.168  
R07  21901099.085      281768.1930      -2452.676          33.122  
R08  20881313.068     -163606.5120       1350.062          28.640  
C06  39622588.553        1730.5361        -26.081          19.117  
C09  39316135.306      -90097.5441        789.040          19.205  
C14  26964600.296     1569585.2921      -3403.806          18.653  
> 2018  7  4 14  9 59.0002769  0 18
G07  24433651.035       75966.8311       -707.846          20.968  
G08  22495659.479     -248707.9791       2193.392          16.806  
G10  21343537.876     -170792.3480       1412.237          29.359  
G13  25310262.470      117827.1230      -1031.427          25.269  
G15  24434203.553       27200.0770       -265.970          24.739  
G16  21324579.301      346536.5671      -2958.161          21.352  
G18  24726799.793     -350583.1491       3102.689          14.284  
G20  20842585.878       73203.9880       -657.054          30.572  
G21  22801846.210      341473.4610      -2895.946          28.866  
G26  23121849.477      484802.8620      -4110.442          29.015  
R15  21895439.303     -132160.3651       1078.777          12.701  
R01  22745965.196     -434400.5971       3708.609          20.831  
R23  19648513.717      185742.1490      -1595.074          31.273  
R07  21901428.257      284221.0670      -2453.273          32.748  
R08  20880959.313     -164956.2790       1349.246          28.720  
C06  39622483.026        1756.1051        -25.754          19.162  
C09  39315871.788      -90887.0761        790.022          19.831  
C14  26965142.021     1572990.5081      -3403.559          19.313  
> 2018  7  4 14 10  0.0002765  0 18
G07  24433678.316       76674.0771       -707.114          20.562  
G08  22495125.549     -250900.0891       2191.531          16.064  
G10  21343157.739     -172204.2510       1411.542          29.566  
G13  25310350.009      118859.2880      -1032.613          25.111  
G15  24434151.989       27466.2390       -266.473          23.668  
G16  21325026.891      349497.0831      -2960.596          21.441  
G18  24726095.880     -353687.3451       3099.957          14.621  
G20  20842599.369       73861.4360       -657.595          30.609  
G21  22802285.107      344369.5390      -2896.091          28.748  
G26  23122525.509      488913.5570      -4110.585          28.699  
R15  21895056.468     -133239.0161       1075.388          12.291  
R01  22745170.746     -438111.9181       3707.888          21.206  
R23  19648701.687      187337.5690      -1595.402          31.249  
R07  21901789.806      286674.7940      -2453.884          33.184  
R08  20880597.463     -166305.3600       1348.702          28.661  
C06  39622377.799        1781.8731        -27.342          20.075  
C09  39315608.571      -91676.2451        789.943          19.317  
C14  26965684.045     1576396.0771      -3402.347          19.623  
> 2018  7  4 14 10  1.0002761  0 18
G07  24433708.296       77381.7621       -709.375          19.894  
G08  22494601.212     -253091.0081       2192.328          16.607  
G10  21342776.403     -173615.8270       1411.276          29.527  
G13  25310438.748      119891.8190      -1032.332          25.569  
G15  24434087.533       27732.9220       -267.080          23.783  
G16  21325472.982      352457.9921      -2956.197          21.498  
G18  24725402.460     -356788.2371       3100.278          14.387  
G20  20842614.658       74519.4320       -658.547          30.840  
G21  22802724.602      347265.6030      -2896.298          28.880  
G26  23123197.344      493024.4010      -4110.950          29.195  
R15  21894783.956     -134314.1791       1077.433          11.636  
R01  22744357.409     -441819.4221       3704.467          21.658  
R23  19648894.453      188933.2940      -1595.938          31.394  
R07  21902135.467      289129.1840      -2454.940          33.149  
R08  20880230.217     -167653.7350       1348.180          28.217  
C06  39622273.771        1811.6661        -26.154          19.010  
C09  39315345.952      -92465.5411        789.449          19.588  
C14  26966227.569     1579801.5831      -3403.016          20.491  
> 2018  7  4 14 10  2.0002758  0 17
G07  24433710.394       78090.1691       -709.676          20.395  
G08  22494073.877     -255274.9191       2192.220          16.324  
G10  21342400.464     -175026.7490       1410.784          29.703  
G13  25310520.891      120925.2640      -1034.453          25.502  
G15  24434029.973       28000.2850       -267.783          23.963  
G16  21325927.168      355419.5041      -2960.525          21.331  
G18  24724707.241     -359885.1011       3100.782          14.365  
G20  20842629.948       75178.1180       -659.258          30.774  
G21  22803163.199      350161.8510      -2896.123          28.933  
G26  23123864.382      497135.5280      -4111.537          28.812  
R01  22743536.877     -445526.5821       3704.205          21.616  
R23  19649067.733      190529.4440      -1596.314          31.128  
R07  21902492.820      291584.4040      -2455.744          33.168  
R08  20879853.378     -169001.1340       1346.890          28.191  
C06  39622167.944        1838.4621        -27.391          19.046  
C09  39315084.234      -93254.5281        789.113          18.312  
C14  26966769.294     1583207.6931      -3402.655          20.749  
> 2018  7  4 14 10  3.0002754  0 18
G07  24433733.179       78799.2561       -706.961          19.832  
G08  22493540.846     -257465.3811       2189.892          16.520  
G10  21342027.222     -176436.9810       1409.965          29.821  
G13  25310605.732      121959.2030      -1034.527          25.535  
G15  24433971.214       28268.3250       -267.764          23.941  
G16  21326390.047      358381.4061      -2965.375          20.161  
G18  24723998.532     -362986.4941       3101.618          14.489  
G20  20842646.436       75837.4980       -659.614          30.985  
G21  22803605.392      353058.4340      -2896.511          28.915  
G26  23124537.116      501246.9470      -4111.580          28.833  
R15  21894219.447     -136464.3761       1073.748          11.719  
R01  22742716.945     -449233.3351       3711.482          20.166  
R23  19649255.104      192126.1920      -1596.890          30.949  
R07  21902832.784      294040.6800      -2456.607          33.006  
R08  20879500.822     -170347.7280       1346.236          27.944  
C06  39622063.316        1865.4401        -26.424          18.933  
C09  39314820.416      -94043.3591        791.636          18.477  
C14  26967311.619     1586614.0321      -3403.015          20.557  
> 2018  7  4 14 10  4.0002750  0 18
G07  24433776.049       79508.3681       -711.667          19.918  
G08  22493013.511     -259651.9451       2190.616          17.217  
G10  21341643.787     -177846.6720       1408.938          29.831  
G13  25310695.070      122993.7470      -1034.887          26.182  
G15  24433907.358       28537.0710       -269.206          24.145  
G16  21326843.334      361340.6781      -2959.066          20.868  
G18  24723280.529     -366083.6651       3100.845          14.858  
G20  20842659.927       76497.6650       -660.791          30.868  
G21  22804048.486      355955.0650      -2896.600          28.655  
G26  23125208.951      505358.5940      -4112.005          29.001  
R15  21893939.141     -137537.8211       1072.703          11.470  
R01  22741903.908     -452940.0731       3709.979          21.264  
R23  19649446.371      193723.2300      -1597.431          31.131  
R07  21903183.542      296497.7010      -2457.724          33.007  
R08  20879136.275     -171693.5840       1345.402          28.188  
C06  39621958.389        1892.6071        -25.821          19.677  
C09  39314557.498      -94831.9631        789.706          18.370  
C14  26967854.543     1590020.5571      -3404.076          20.213  
> 2018  7  4 14 10  5.0002747  0 18
G07  24433798.533       80213.3991       -709.714          19.393  
G08  22492490.073     -261842.4371       2189.903          16.936  
G10  21341263.950     -179255.8720       1409.052          30.004  
G13  25310780.511      124028.9690      -1035.532          25.841  
G15  24433850.997       28806.4080       -269.140          23.856  
G16  21327269.938      364302.1761      -2962.830          19.715  
G18  24722583.212     -369186.0631       3101.447          14.896  
G20  20842675.216       77158.4380       -660.968          30.640  
G21  22804489.780      358851.9270      -2896.713          28.623  
G26  23125883.784      509470.5120      -4112.136          28.885  
R15  21893559.304     -138610.5151       1073.578          11.133  
R01  22741133.441     -456648.0271       3702.889          21.642  
R23  19649632.842      195320.7040      -1597.583          31.049  
R07  21903531.001      298955.5500      -2458.237          32.826  
R08  20878770.528     -173038.5440       1344.641          27.960  
C06  39621852.262        1920.6991        -26.287          19.403  
C09  39314295.480      -95620.4491        789.786          18.904  
C14  26968399.266     1593427.4491      -3406.365          21.483  
> 2018  7  4 14 10  6.0002743  0 18
G07  24433824.016       80925.3641       -711.388          20.585  
G08  22491960.040     -264034.6261       2191.249          17.990  
G10  21340884.713     -180664.4940       1408.449          29.720  
G13  25310865.353      125064.7850      -1036.032          25.595  
G15  24433788.640       29076.2950       -269.908          23.809  
G16  21327738.514      367265.6301      -2968.472          20.150  
G18  24721877.800     -372287.1991       3100.830          14.878  
G20  20842687.508       77819.7860       -661.592          30.822  
G21  22804928.377      361748.8800      -2897.060          28.650  
G26  23126555.019      513582.6420      -4112.678          29.123  
R15  21893171.673     -139683.3621       1071.422          10.327  
R01  22740305.114     -460349.5101       3707.197          22.176  
R23  19649827.108      196918.5500      -1597.860          31.092  
R07  21903889.253      301414.1220      -2459.045          32.932  
R08  20878407.779     -174382.7880       1343.763          27.958  
C06  39621746.736        1948.0261        -26.445          19.608  
C09  39314032.861      -96408.5921        789.172          18.887  
C14  26968944.588     1596834.4171      -3406.544          21.548  
> 2018  7  4 14 10  7.0002739  0 18
G07  24433846.800       81636.8951       -714.356          21.607  
G08  22491426.110     -266225.5381       2190.988          17.911  
G10  21340502.777     -182072.6270       1407.349          30.076  
G13  25310949.294      126101.1010      -1036.247          25.602  
G15  24433732.279       29346.8090       -270.891          23.924  
G16  21328183.106      370229.8661      -2966.625          19.744  
G18  24721193.074     -375387.4231       3100.941          15.097  
G20  20842704.596       78481.8150       -662.303          30.467  
G21  22805368.172      364645.9070      -2897.070          28.787  
G26  23127225.055      517694.8730      -4112.648          28.992  
R15  21892804.727     -140755.5491       1070.877          10.439  
R01  22739505.868     -464061.4431       3704.068          22.695  
R23  19650013.279      198516.7610      -1598.380          31.052  
R07  21904222.322      303873.3400      -2459.589          33.278  
R08  20878041.133     -175726.2780       1343.027          27.814  
C06  39621640.909        1975.7291        -26.440          20.207  
C09  39313772.642      -97197.9451        788.556          18.385  
C14  26969492.609     1600241.7141      -3408.339          21.821  
> 2018  7  4 14 10  8.0002736  0 18
G07  24433867.486       82348.9161       -712.366          22.543  
G08  22490899.974     -268415.6141       2190.265          17.111  
G10  21340125.938     -183480.2310       1407.076          30.237  
G13  25311042.830      127138.1720      -1037.583          26.092  
G15  24433669.922       29617.9650       -271.426          24.023  
G16  21328645.686      373194.6951      -2969.102          19.546  
G18  24720495.457     -378488.9511       3100.440          15.449  
G20  20842717.787       79144.5540       -663.314          30.684  
G21  22805811.865      367543.1400      -2897.368          28.879  
G26  23127895.991      521807.4080      -4112.846          28.911  
R15  21892540.610     -141823.9191       1071.828          11.328  
R01  22738707.221     -467766.8691       3700.173          21.705  
R23  19650189.257      200115.3850      -1598.887          30.914  
R07  21904571.281      306333.5400      -2460.793          33.032  
R08  20877693.374     -177068.8790       1342.361          27.549  
C06  39621535.382        2003.4711        -25.855          19.665  
C09  39313510.323      -97985.9561        788.942          18.161  
C14  26970036.133     1603649.1801      -3404.753          20.998  
> 2018  7  4 14 10  9.0002732  0 18
G07  24433885.773       83061.4591       -711.085          22.041  
G08  22490368.742     -270605.5291       2189.983          17.391  
G10  21339746.401     -184887.2510       1406.408          30.046  
G13  25311129.170      128175.7740      -1037.839          25.875  
G15  24433606.966       29889.6510       -271.582          23.890  
G16  21329101.970      376159.7501      -2961.220          19.800  
G18  24719789.446     -381587.2081       3101.228          15.574  
G20  20842733.676       79807.9670       -663.761          30.520  
G21  22806254.958      370440.4760      -2897.327          29.014  
G26  23128568.725      525920.1540      -4113.100          28.774  
R15  21892312.767     -142893.7551       1069.060          11.862  
R01  22737914.270     -471469.8301       3702.846          20.281  
R23  19650382.323      201714.4270      -1599.339          31.046  
R07  21904928.633      308794.5120      -2461.734          32.919  
R08  20877323.130     -178410.6010       1341.268          28.177  
C06  39621428.656        2031.5641        -26.424          19.777  
