     2              OBSERVATION DATA    G (GPS)             RINEX VERSION / TYPE
TerraSat GeoGenius GPS+GLONASS Decoder  11-Jun-99 12:23:09  PGM / RUN BY / DATE
K116____                      K1163260                      MARKER NAME
                                                            OBSERVER / AGENCY
      9227          TRIMBLE              722 306            REC # / TYPE / VERS
00000000            EXT_COMP_L12_GP                         ANT # / TYPE
  4157401.3385   823307.2093  4751176.1458                  APPROX POSITION XYZ
        0.0000        0.0000        0.0000                  ANTENNA: DELTA H/E/N
     1     1     0                                          WAVELENGTH FACT L1/2
     5    C1    P2    L1    L2    D1                        # / TYPES OF OBSERV
     5                                                      INTERVAL
  1998    11    22    11    15   20.000000        GPS       TIME OF FIRST OBS
                                                            END OF HEADER
 98 11 22 11 15 20.0000000  0  8G26G13G10G17G18G02G19G27
  23271216.102    23271220.543    -4476620.09709  -3325753.07809     -2758.266  
  20554653.953    20554656.426   -15091044.71804  -9837207.99308       968.406  
  20698335.547    20698340.234   -13810244.82805  -5603566.51402       863.859  
  24674174.203                     -242126.89303         0.00000     -1636.828  
  24397515.672    24397522.363    24352147.81509  18998038.04409      3599.813  
  22722004.555    22722010.250    -9963827.91409  -7597651.78009     -2331.438  
  22248673.086    22248678.570    -4780131.13209  -3557756.32909      2860.281  
  20438650.297    20438654.480   -18052059.65102 -13890575.58401       523.063  
 98 11 22 11 15 25.0000000  0  8G26G13G10G17G18G02G19G27
  23268592.008    23268596.988    -4490411.06309  -3336499.27509     -2758.500  
  20555576.078    20555578.457   -15086198.44104  -9833431.67608       969.750  
  20699158.695    20699163.359   -13805918.56304  -5600195.40302       866.297  
  24672618.305                     -250305.23103         0.00000     -1634.813  
  24400940.914    24400945.449    24370147.02909  19012063.38909      3599.516  
  22719786.867    22719792.551    -9975481.73609  -7606732.67809     -2330.453  
  22251394.805    22251400.242    -4765828.17809  -3546611.17509      2860.547  
  20439148.930    20439153.090   -18049439.49901 -13888533.90801       524.656  
 98 11 22 11 15 30.0000000  0  8G26G13G10G17G18G02G19G27
  23265967.305    23265973.633    -4504204.28009  -3347247.21709     -2758.234  
  20556499.438    20556501.793   -15081346.18405  -9829650.69708       971.703  
  20699984.172    20699988.684   -13801581.10905  -5596815.57202       869.250  
  24671063.805                     -258474.30805         0.00000     -1632.234  
  24404365.563    24404373.359    24388144.00209  19026086.97309      3599.844  
  22717570.039    22717575.746    -9987131.63609  -7615810.51809     -2328.953  
  22254116.672    22254122.156    -4751525.07309  -3535465.90809      2861.266  
  20439648.727    20439652.852   -18046812.20701 -13886486.66801       526.813  
 98 11 22 11 15 35.0000000  0  8G26G13G10G17G18G02G19G27
  23263343.063    23263348.102    -4517995.10309  -3357993.30009     -2758.656  
  20557424.852    20557427.207   -15076483.25405  -9825861.40208       972.922  
  20700812.484    20700817.020   -13797228.02905  -5593423.56402       871.438  
  24669511.914                     -266629.58803         0.00000     -1630.438  
  24407790.750    24407797.938    24406143.56309  19040112.59509      3599.422  
  22715354.734    22715360.559    -9998773.04309  -7624881.74009     -2328.172  
  22256839.570    22256845.066    -4737217.20509  -3524316.92509      2861.297  
  20440150.867    20440154.922   -18044173.28801 -13884430.36801       528.172  
 98 11 22 11 15 40.0000000  0  8G26G13G10G17G18G02G19G27
  23260718.148    23260723.258    -4531787.44409  -3368740.56709     -2758.297  
  20558351.445    20558353.766   -15071613.69206  -9822066.94108       974.906  
  20701643.078    20701647.543   -13792863.26804  -5590022.45202       874.469  
  24667961.734                     -274775.07603         0.00000     -1627.734  
  24411216.023    24411222.539    24424141.73109  19054137.11609      3599.828  
  22713140.133    22713146.109   -10010409.78309  -7633949.32009     -2326.531  
  22259562.414    22259567.699    -4722908.27309  -3513167.11609      2862.234  
  20440654.445    20440658.676   -18041527.07301 -13882368.38401       530.313  
 98 11 22 11 15 45.0000000  0  8G26G13G10G17G18G02G19G27
  23258093.813    23258098.535    -4545578.69509  -3379486.98409     -2758.234  
  20559279.930    20559282.238   -15066734.67805  -9818265.11308       976.688  
  20702476.625    20702481.289   -13788484.02204  -5586610.05401       877.234  
  24666413.484                     -282907.76505         0.00000     -1625.313  
  24414641.164    24414649.629    24442141.39309  19068162.80309      3600.016  
  22710927.398    22710933.363   -10022039.04909  -7643011.07509     -2325.188  
  22262286.047    22262291.461    -4708595.34109  -3502014.19409      2862.906  
  20441159.883    20441164.137   -18038870.81401 -13880298.57501       532.188  
 98 11 22 11 15 50.0000000  0  8G26G13G10G17G18G02G19G27
  23255469.039    23255473.398    -4559371.61309  -3390234.70309     -2758.594  
  20560209.711    20560212.008   -15061848.66905  -9814457.83507       978.063  
  20703312.102    20703316.695   -13784092.75904  -5583188.29301       879.609  
  24664869.500                     -291030.06805         0.00000     -1623.250  
  24418065.742    24418073.469    24460139.99509  19082187.65009      3599.766  
  22708715.109    22708720.992   -10033663.53209  -7652069.11009     -2324.266  
  22265010.031    22265015.387    -4694280.97509  -3490860.15309      2863.156  
  20441666.875    20441671.199   -18036206.98801 -13878222.86701       533.672  
 98 11 22 11 15 55.0000000  0  8G26G13G10G17G18G02G19G27
  23252844.445    23252849.133    -4573164.51709  -3400982.41709     -2758.875  
  20561141.070    20561143.426   -15056954.37904  -9810644.10008       979.344  
  20704150.539    20704155.238   -13779688.00104  -5579756.01201       881.984  
  24663324.750                     -299140.18505         0.00000     -1621.109  
  24421491.125    24421499.344    24478138.93409  19096212.79109      3599.516  
  22706504.203    22706509.840   -10045281.67109  -7661122.20409     -2323.297  
  22267734.305    22267739.578    -4679963.61209  -3479703.77009      2863.484  
  20442175.555    20442179.785   -18033534.09401 -13876140.09301       535.188  
 98 11 22 11 16  0.0000000  0  8G26G13G10G17G18G02G19G27
  23250219.602    23250224.629    -4586960.33409  -3411732.40309     -2759.156  
  20562073.102    20562075.352   -15052055.02504  -9806826.42507       980.641  
  20704990.609    20704995.285   -13775272.92705  -5576315.69601       884.297  
  24661784.031                     -307241.13307         0.00000     -1619.016  
  24424916.172    24424924.648    24496135.14909  19110235.79509      3599.203  
  22704294.203    22704299.969   -10056896.32909  -7670172.58109     -2322.328  
  22270459.094    22270464.402    -4665646.21409  -3468547.36409      2863.766  
  20442685.453    20442689.695   -18030854.94701 -13874052.44501       536.703  
 98 11 22 11 16  5.0000000  0  8G26G13G10G17G18G02G19G27
  23247593.797    23247599.363    -4600755.95409  -3422482.22709     -2759.109  
  20563007.070    20563009.332   -15047147.85504  -9803002.66208       982.219  
  20705833.047    20705837.723   -13770845.02405  -5572865.38301       886.828  
  24660244.305                     -315330.31507         0.00000     -1616.625  
  24428339.977    24428348.781    24514131.33409  19124258.76909      3599.219  
  22702085.172    22702090.914   -10068504.90109  -7679218.21509     -2321.141  
  22273184.047    22273189.121    -4651325.88209  -3457388.67209      2864.359  
  20443196.891    20443201.133   -18028166.88001 -13871957.84901       538.484  
 98 11 22 11 16 10.0000000  0  8G26G13G10G17G18G02G19G27
  23244968.766    23244974.227    -4614551.17809  -3433231.74609     -2759.156  
  20563942.617    20563944.984   -15042232.90704  -9799172.83508       983.594  
  20706678.047    20706682.582   -13766404.38805  -5569405.15001       889.219  
  24658706.469                     -323407.33405         0.00000     -1614.359  
  24431765.023    24431774.168    24532127.34309  19138281.58709      3599.000  
  22699877.422    22699883.023   -10080107.50809  -7688259.20609     -2320.094  
  22275909.539    22275914.426    -4637002.36509  -3446227.49409      2864.859  
  20443709.961    20443714.285   -18025470.03702 -13869856.41401       540.063  
 98 11 22 11 16 15.0000000  0  8G26G13G10G17G18G02G19G27
  23242343.320    23242348.453    -4628347.70709  -3443982.29109     -2759.484  
  20564878.797    20564881.094   -15037311.94706  -9795338.32608       984.766  
  20707525.133    20707529.727   -13761952.94606  -5565936.49602       891.313  
  24657173.445                     -331473.81505         0.00000     -1612.266  
  24435188.977    24435197.383    24550121.25209  19152302.78609      3598.531  
  22697670.305    22697675.754   -10091705.91609  -7697296.92209     -2319.313  
  22278635.578    22278640.605    -4622677.24309  -3435065.07009      2865.141  
  20444224.672    20444228.984   -18022766.39902 -13867749.68401       541.344  
 98 11 22 11 16 20.0000000  0  8G26G13G10G17G18G02G19G27
  23239718.258    23239723.520    -4642143.30809  -3454732.09709     -2758.828  
  20565816.961    20565819.176   -15032382.68106  -9791497.33708       986.875  
  20708374.750    20708379.297   -13757488.62106  -5562457.80301       894.344  
  24655639.984                     -339527.37207         0.00000     -1609.234  
  24438613.227    24438622.301    24568115.28109  19166324.10009      3599.000  
  22695464.492    22695470.234   -10103297.92309  -7706329.65309     -2317.578  
  22281362.695    22281367.992    -4608348.22009  -3423899.60309      2866.391  
  20444740.734    20444744.871   -18020053.88501 -13865636.03701       543.594  
 98 11 22 11 16 25.0000000  0  8G26G13G10G17G18G02G19G27
  23237092.883    23237098.414    -4655939.85009  -3465482.63309     -2759.781  
  20566756.063    20566758.254   -15027447.13905  -9787651.46008       987.344  
  20709226.469    20709230.805   -13753013.26206  -5558970.51101       895.797  
  24654109.336                     -347570.03607         0.00000     -1607.844  
  24442037.438    24442047.379    24586107.44609  19180343.93409      3597.875  
  22693259.039    22693264.957   -10114885.57909  -7715358.98909     -2317.484  
  22284089.555    22284095.121    -4594017.28709  -3412732.64609      2866.000  
  20445258.250    20445262.281   -18017334.26701 -13863516.85601       544.266  
 98 11 22 11 16 30.0000000  0  8G26G13G10G17G18G02G19G27
  23234466.930    23234472.344    -4669738.55909  -3476234.87409     -2759.313  
  20567696.328    20567698.391   -15022506.65305  -9783801.73408       989.250  
  20710079.797    20710084.074   -13748528.18807  -5555475.64702       898.641  
  24652581.336                     -355603.29307         0.00000     -1605.063  
  24445460.008    24445469.445    24604096.34009  19194361.22609      3598.094  
  22691054.625    22691060.391   -10126470.35009  -7724386.07809     -2316.016  
  22286816.594    22286822.242    -4579685.84509  -3401565.30009      2866.984  
  20445776.961    20445781.086   -18014608.90101 -13861393.19701       546.313  
 98 11 22 11 16 35.0000000  0  8G26G13G10G17G18G02G19G27
  23231841.828    23231847.313    -4683534.21609  -3486984.72209     -2758.734  
  20568638.313    20568640.445   -15017556.13605  -9779944.19008       991.234  
  20710936.125    20710940.414   -13744028.14406  -5551969.12001       901.609  
  24651055.656                     -363622.00509         0.00000     -1602.156  
  24448883.383    24448891.953    24622086.94309  19208379.83709      3598.375  
  22688851.781    22688857.441   -10138047.08509  -7733406.90809     -2314.438  
  22289544.953    22289550.461    -4565348.74009  -3390393.53209      2868.109  
  20446297.586    20446301.758   -18011872.49401 -13859260.93201       548.516  
 98 11 22 11 16 40.0000000  0  8G26G13G10G17G18G02G19G27
  23229216.883    23229222.461    -4697327.03709  -3497732.36309     -2759.219  
  20569582.305    20569584.414   -15012595.73106  -9776078.94409       992.141  
  20711795.250    20711799.598   -13739513.11606  -5548450.91601       903.594  
  24649532.195    24649540.355     -371626.20609     -3739.96819     -1600.313  
  24452307.234    24452315.910    24640079.04909  19222399.64309      3597.656  
  22686650.172    22686655.785   -10149615.95509  -7742421.61409     -2313.906  
  22292274.203    22292279.828    -4551005.98309  -3379217.36509      2868.219  
  20446820.594    20446824.695   -18009124.96802 -13857120.00501       549.688  
 98 11 22 11 16 45.0000000  0  8G26G13G10G17G18G02G19G27
  23226591.594    23226596.961    -4711122.81109  -3508482.32209     -2759.141  
  20570527.008    20570529.188   -15007631.38106  -9772210.62108       993.563  
  20712656.414    20712660.703   -13734988.73004  -5544925.42301       906.109  
  24648010.703    24648015.215     -379621.43809     -9969.97809     -1597.828  
  24455730.844    24455736.363    24658067.06709  19236416.25009      3597.500  
  22684449.273    22684454.887   -10161182.83109  -7751434.76109     -2312.859  
  22295003.680    22295009.070    -4536663.27709  -3368041.23509      2868.828  
  20447344.477    20447348.648   -18006372.06802 -13854974.88901       551.406  
 98 11 22 11 16 50.0000000  0  8G26G13G10G17G18G02G19G27
  23223966.367    23223971.195    -4724919.09509  -3519232.67009     -2759.422  
  20571472.797    20571474.988   -15002660.65905  -9768337.33208       994.672  
  20713519.469    20713523.992   -13730452.54904  -5541390.73801       908.297  
  24646491.609    24646498.266     -387605.18509    -16191.05409     -1595.750  
  24459153.125    24459159.910    24676053.51809  19250431.65509      3597.016  
  22682249.172    22682254.809   -10172745.07509  -7760444.29509     -2312.109  
  22297733.320    22297738.242    -4522318.06609  -3356863.15309      2869.188  
  20447869.523    20447873.660   -18003611.42302 -13852823.73701       552.781  
 98 11 22 11 16 55.0000000  0  8G26G13G10G17G18G02G19G27
  23221341.133    23221346.383    -4738716.38709  -3529983.80509     -2759.594  
  20572419.836    20572422.027   -14997684.03004  -9764459.44208       995.875  
  20714384.938    20714389.262   -13725904.97302  -5537847.17301       910.641  
  24644974.102    24644981.957     -395578.06709    -22403.72009     -1593.516  
  24462575.508    24462582.848    24694037.98109  19264445.49309      3596.656  
  22680049.383    22680054.785   -10184303.16909  -7769450.59709     -2311.234  
  22300463.555    22300468.758    -4507970.76109  -3345683.43809      2869.625  
  20448396.430    20448400.531   -18000843.49402 -13850666.91401       554.281  
 98 11 22 11 17  0.0000000  0  8G26G13G10G17G18G02G19G27
  23218715.172    23218720.129    -4752514.07909  -3540735.23209     -2760.031  
  20573368.023    20573370.438   -14992701.01305  -9760576.57408       996.797  
  20715252.617    20715256.953   -13721345.41403  -5534294.27001       912.656  
  24643459.414    24643462.250     -403539.46009    -28607.47309     -1591.594  
  24465997.625    24466005.012    24712020.98709  19278458.21109      3596.016  
  22677850.742    22677856.063   -10195856.71209  -7778453.36009     -2310.734  
  22303193.883    22303199.180    -4493620.98809  -3334501.79509      2869.766  
  20448924.563    20448928.500   -17998067.65502 -13848503.92601       555.500  
 98 11 22 11 17  5.0000000  0  8G26G13G10G17G18G02G19G27
  23216089.477    23216094.961    -4766313.55209  -3551488.06309     -2759.422  
  20574317.352    20574319.813   -14987713.11905  -9756689.90808       998.688  
  20716122.344    20716126.891   -13716775.48903  -5530733.29201       915.625  
  24641945.969    24641949.813     -411490.89809    -34803.36509     -1588.672  
  24469419.359    24469426.430    24730001.29509  19292468.77709      3596.406  
  22675652.945    22675658.242   -10207407.63709  -7787454.08309     -2309.344  
  22305925.211    22305930.426    -4479270.09709  -3323319.28809      2870.906  
  20449454.055    20449457.945   -17995285.48403 -13846335.99901       557.672  
 98 11 22 11 17 10.0000000  0  8G26G13G10G17G18G02G19G27
  23213463.938    23213468.625    -4780110.26109  -3562238.74309     -2759.656  
  20575268.023    20575270.426   -14982716.03105  -9752796.07607       999.719  
  20716994.484    20716999.125   -13712190.70804  -5527160.73501       917.859  
  24640435.516    24640442.254     -419427.87309    -40988.02109     -1586.563  
  24472841.031    24472847.488    24747983.31709  19306480.73409      3595.969  
  22673456.031    22673461.844   -10218951.80909  -7796449.53909     -2308.766  
  22308657.094    22308662.648    -4464913.87909  -3312132.63509      2871.141  
  20449985.438    20449989.352   -17992492.63103 -13844159.75401       559.047  
 98 11 22 11 17 15.0000000  0  8G26G13G10G17G18G02G19G27
  23210838.203    23210842.797    -4793908.04909  -3572990.26009     -2759.656  
  20576220.102    20576222.480   -14977713.63205  -9748898.10608      1001.047  
  20717869.078    20717873.707   -13707594.69004  -5523579.42302       920.344  
  24638927.172    24638935.602     -427354.03709    -47164.26009     -1584.141  
  24476262.469    24476268.480    24765963.34309  19320491.13209      3595.828  
  22671259.633    22671265.398   -10230493.12609  -7805442.76209     -2307.969  
  22311389.359    22311394.867    -4450556.51209  -3300945.07909      2871.594  
  20450518.094    20450521.961   -17989692.81002 -13841978.07601       560.672  
 98 11 22 11 17 20.0000000  0  8G26G13G10G17G18G02G19G27
  23208212.594    23208217.293    -4807705.84509  -3583741.79609     -2759.750  
  20577173.195    20577175.645   -14972704.55104  -9744994.92908      1002.281  
  20718746.117    20718750.910   -13702986.24604  -5519988.42701       922.719  
  24637421.266    24637429.215     -435268.16309    -53331.11909     -1581.828  
  24479684.133    24479689.734    24783942.68809  19334500.98709      3595.625  
  22669064.125    22669069.609   -10242030.32109  -7814432.77309     -2307.219  
  22314121.867    22314127.387    -4436196.77309  -3289755.67409      2871.953  
  20451052.391    20451056.234   -17986884.81803 -13839790.03101       562.203  
 98 11 22 11 17 25.0000000  0  8G26G13G10G17G18G02G19G27
  23205586.414    23205591.230    -4821504.93209  -3594494.32009     -2760.141  
  20578127.375    20578129.906   -14967690.29204  -9741087.71608      1003.188  
  20719625.273    20719629.973   -13698367.00405  -5516389.01902       924.766  
  24635916.906    24635923.656     -443171.78709    -59489.77809     -1579.828  
  24483105.289    24483111.488    24801919.87809  19348509.14309      3595.031  
  22666869.539    22666875.070   -10253564.50409  -7823420.45009     -2306.703  
  22316854.492    22316860.234    -4421836.07609  -3278565.52709      2872.094  
  20451588.211    20451592.008   -17984070.13603 -13837596.77301       563.438  
 98 11 22 11 17 30.0000000  0  8G26G13G10G17G18G02G19G27
  23202960.172    23202965.762    -4835305.44409  -3605247.94409     -2759.984  
  20579082.773    20579085.293   -14962670.88405  -9737176.49208      1004.672  
  20720506.109    20720510.703   -13693736.90805  -5512781.15602       927.375  
  24634415.117    24634420.695     -451064.73509    -65640.09009     -1577.250  
  24486525.336    24486533.824    24819894.91809  19362515.64209      3595.063  
  22664675.375    22664680.953   -10265095.58409  -7832405.71309     -2305.641  
  22319587.680    22319593.316    -4407474.10309  -3267374.38509      2872.813  
  20452125.211    20452129.148   -17981248.64002 -13835398.20701       565.250  
 98 11 22 11 17 35.0000000  0  8G26G13G10G17G18G02G19G27
  23200334.148    23200339.117    -4849107.95909  -3616003.13209     -2760.484  
  20580038.664    20580041.172   -14957646.88005  -9733261.68609      1005.469  
  20721389.242    20721393.754   -13689096.51404  -5509165.26602       929.328  
  24632915.445    24632920.402     -458947.68209    -71782.60209     -1575.391  
  24489945.148    24489953.941    24837867.26809  19376520.06509      3594.391  
  22662481.492    22662487.141   -10276624.07209  -7841388.94809     -2305.234  
  22322320.914    22322326.105    -4393111.14209  -3256182.47309      2872.906  
  20452663.305    20452667.113   -17978420.95502 -13833194.82001       566.344  
 98 11 22 11 17 40.0000000  0  8G26G13G10G17G18G02G19G27
  23197707.258    23197713.398    -4862911.63609  -3626759.25209     -2761.000  
  20580995.906    20580998.320   -14952617.31705  -9729342.54509      1006.328  
  20722274.602    20722279.090   -13684444.76704  -5505540.52903       931.359  
  24631417.813    24631423.848     -466819.64309    -77916.59409     -1573.422  
  24493365.102    24493373.684    24855837.62409  19390522.91609      3593.719  
  22660288.242    22660293.762   -10288148.81509  -7850369.26609     -2304.703  
  22325054.375    22325059.719    -4378746.06809  -3244988.91309      2873.125  
  20453202.883    20453206.797   -17975586.24502 -13830985.96001       567.516  
 98 11 22 11 17 45.0000000  0  8G26G13G10G17G18G02G19G27
  23195080.711    23195087.191    -4876715.20809  -3637515.27909     -2760.922  
  20581954.086    20581956.477   -14947580.96905  -9725418.12209      1007.734  
  20723162.063    20723166.715   -13679780.35905  -5501905.92702       933.922  
  24629921.438    24629927.215     -474679.27909    -84040.97109     -1570.906  
  24496785.023    24496791.715    24873807.18109  19404525.14909      3593.625  
  22658096.250    22658101.617   -10299668.37509  -7859345.54109     -2303.594  
  22327788.563    22327793.906    -4364377.46009  -3233792.59709      2873.859  
  20453743.734    20453747.648   -17972743.17002 -13828770.57801       569.234  
 98 11 22 11 17 50.0000000  0  8G26G13G10G17G18G02G19G27
  23192452.664    23192458.957    -4890521.54409  -3648273.44709     -2761.250  
  20582913.234    20582915.625   -14942541.02806  -9721490.89608      1008.609  
  20724051.586    20724056.355   -13675106.30105  -5498263.80302       936.063  
  24628427.633    24628434.516     -482529.46109    -90158.01309     -1568.813  
  24500203.711    24500211.438    24891773.11309  19418524.55209      3593.125  
  22655904.617    22655910.008   -10311185.48309  -7868319.91009     -2302.875  
  22330522.773    22330527.941    -4350008.25109  -3222595.81009      2874.188  
  20454285.852    20454289.836   -17969894.69402 -13826550.98601       570.516  
 98 11 22 11 17 55.0000000  0  8G26G13G10G17G18G02G19G27
  23189826.227    23189831.582    -4904327.49909  -3659031.33109     -2760.859  
  20583873.477    20583875.797   -14937494.73106  -9717558.72108      1010.203  
  20724943.375    20724948.180   -13670419.38704  -5494611.66302       939.000  
  24626936.297    24626942.555     -490367.20709    -96265.35809     -1565.984  
  24503622.320    24503628.730    24909738.51309  19432523.55609      3593.344  
  22653714.008    22653719.586   -10322696.86209  -7877289.81509     -2301.359  
  22333257.836    22333262.840    -4335635.47409  -3211396.24309      2875.234  
  20454829.320    20454833.340   -17967037.93702 -13824324.94401       572.500  
 98 11 22 11 18  0.0000000  0  8G26G13G10G17G18G02G19G27
  23187198.758    23187204.266    -4918132.83609  -3669788.72109     -2761.141  
  20584834.992    20584837.266   -14932441.68806  -9713621.28608      1011.172  
  20725837.945    20725842.820   -13665718.97805  -5490949.01003       941.313  
  24625447.313    24625454.359     -498191.96709   -102362.58109     -1563.766  
  24507041.211    24507047.926    24927703.88609  19446522.50309      3592.969  
  22651524.727    22651530.352   -10334201.85009  -7886254.73509     -2300.484  
  22335993.734    22335998.750    -4321258.62009  -3200193.50009      2875.656  
  20455374.617    20455378.707   -17964172.33402 -13822092.00801       573.906  
 98 11 22 11 18  5.0000000  0  8G26G13G10G17G18G02G19G27
  23184571.914    23184577.516    -4931938.72009  -3680546.55309     -2761.375  
  20585797.688    20585799.949   -14927382.91006  -9709679.38309      1012.172  
  20726734.875    20726739.703   -13661006.27104  -5487276.77403       943.609  
  24623960.789    24623968.199     -506004.77609   -108450.45909     -1561.531  
  24510459.523    24510465.523    24945668.10309  19460520.57309      3592.563  
  22649336.344    22649341.758   -10345701.60809  -7895215.58309     -2299.578  
  22338730.016    22338735.160    -4306878.79109  -3188988.44409      2876.109  
  20455921.445    20455925.535   -17961298.73002 -13819852.83801       575.344  
 98 11 22 11 18 10.0000000  0  8G26G13G10G17G18G02G19G27
  23181944.148    23181950.090    -4945745.93909  -3691305.40609     -2761.609  
  20586761.273    20586763.523   -14922319.45706  -9705733.83908      1013.141  
  20727633.570    20727638.352   -13656282.38504  -5483595.82402       945.875  
  24622475.766    24622483.668     -513806.99709   -114530.10409     -1559.422  
  24513877.758    24513884.566    24963629.97509  19474516.84009      3592.125  
  22647148.797    22647154.293   -10357197.09109  -7904173.10309     -2298.688  
  22341466.906    22341471.828    -4292497.02909  -3177781.88309      2876.531  
  20456469.531    20456473.621   -17958418.43202 -13817608.45001       576.703  
 98 11 22 11 18 15.0000000  0  8G26G13G10G17G18G02G19G27
  23179317.016    23179322.113    -4959552.08109  -3702063.42609     -2761.375  
  20587726.266    20587728.422   -14917249.01307  -9701782.84509      1014.563  
  20728535.164    20728539.969   -13651545.01705  -5479904.37102       948.594  
  24620993.469    24621000.516     -521596.51609   -120599.84109     -1556.891  
  24517295.219    24517300.586    24981591.88409  19488513.09309      3592.172  
  22644962.281    22644967.941   -10368685.92809  -7913125.44309     -2297.328  
  22344204.609    22344209.637    -4278110.98909  -3166571.98409      2877.422  
  20457019.242    20457023.438   -17955529.29101 -13815357.17601       578.484  
 98 11 22 11 18 20.0000000  0  8G26G13G10G17G18G02G19G27
  23176689.484    23176694.734    -4973358.62109  -3712821.74509     -2761.063  
  20588692.063    20588694.289   -14912172.92607  -9697827.45609      1016.078  
  20729438.922    20729443.621   -13646795.64605  -5476203.56203       951.359  
  24619512.383    24619516.355     -529375.18309   -126661.12809     -1554.375  
  24520713.680    24520720.809    24999552.43309  19502508.29009      3592.234  
  22642777.289    22642783.148   -10380169.76709  -7922073.88009     -2295.984  
  22346942.664    22346947.563    -4263722.01509  -3155359.79609      2878.391  
  20457570.578    20457574.809   -17952632.95501 -13813100.29001       580.266  
 98 11 22 11 18 25.0000000  0  8G26G13G10G17G18G02G19G27
  23174062.563    23174067.848    -4987163.51209  -3723578.77909     -2761.078  
  20589659.625    20589661.922   -14907088.87407  -9693865.85708      1017.344  
  20730345.438    20730350.125   -13642032.09305  -5472491.70303       953.891  
  24618035.063    24618042.613     -537140.82009   -132712.24409     -1552.078  
  24524131.625    24524137.848    25017513.70609  19516504.03909      3592.078  
  22640593.344    22640599.016   -10391646.38609  -7931016.69809     -2294.844  
  22349681.711    22349686.785    -4249327.94309  -3144143.63609      2879.063  
  20458123.414    20458127.820   -17949727.35201 -13810836.18301       581.797  
 98 11 22 11 18 30.0000000  0  8G26G13G10G17G18G02G19G27
  23171435.188    23171440.730    -5000971.57009  -3734338.30109     -2762.391  
  20590627.484    20590629.723   -14902001.59007  -9689901.74309      1017.313  
  20731253.586    20731258.145   -13637258.94005  -5468772.36303       955.125  
  24616559.883    24616567.070     -544898.14009   -138756.89109     -1551.094  
  24527548.664    24527554.266    25035471.11409  19530496.80709      3590.641  
  22638409.945    22638415.559   -10403120.20209  -7939957.33309     -2294.953  
  22352421.094    22352426.285    -4234933.40309  -3132927.11109      2878.484  
  20458677.289    20458681.660   -17946817.13401 -13808568.48401       582.047  
 98 11 22 11 18 35.0000000  0  8G26G13G10G17G18G02G19G27
  23168807.172    23168811.813    -5014782.09809  -3745099.74509     -2761.375  
  20591596.438    20591598.734   -14896910.46207  -9685934.63308      1019.578  
  20732163.867    20732168.414   -13632475.38304  -5465044.91703       958.734  
  24615084.945    24615091.613     -552646.61009   -144794.68909     -1547.844  
  24530965.703    24530971.281    25053425.51309  19544487.21909      3591.547  
  22636227.258    22636233.117   -10414590.47709  -7948895.20509     -2292.719  
  22355160.531    22355166.063    -4220537.70809  -3121709.69109      2880.234  
  20459232.234    20459236.547   -17943901.45202 -13806296.52801       584.672  
 98 11 22 11 18 40.0000000  0  8G26G13G10G17G18G02G19G27
  23166179.477    23166183.906    -5028590.40809  -3755859.46309     -2761.797  
  20592566.914    20592569.188   -14891810.75307  -9681960.84009      1020.438  
  20733076.930    20733081.570   -13627676.69304  -5461305.68103       960.891  
  24613613.422    24613619.879     -560381.54909   -150821.89509     -1546.000  
  24534382.336    24534388.723    25071381.72009  19558479.07509      3591.063  
  22634045.945    22634051.852   -10426052.48309  -7957826.63009     -2291.953  
  22357900.664    22357905.844    -4206136.43309  -3110487.92409      2880.469  
  20459789.023    20459793.266   -17940975.37104 -13804016.46601       585.906  
 98 11 22 11 18 45.0000000  0  8G26G13G10G17G18G02G19G27
  23163550.883    23163555.313    -5042402.93809  -3766622.47409     -2762.313  
  20593537.766    20593539.992   -14886708.81907  -9677985.31009      1021.250  
  20733991.891    20733996.637   -13622869.23504  -5457559.60903       963.016  
  24612143.063    24612148.535     -568109.30209   -156843.49009     -1544.172  
  24537798.961    24537805.031    25089333.40909  19572467.39709      3590.516  
  22631865.273    22631871.133   -10437512.54409  -7966756.54209     -2291.172  
  22360641.281    22360646.555    -4191735.91309  -3099266.74309      2880.656  
  20460346.500    20460350.742   -17938045.08603 -13801733.12801       587.109  
 98 11 22 11 18 50.0000000  0  8G26G13G10G17G18G02G19G27
  23160922.680    23160928.516    -5056216.30509  -3777386.10709     -2762.656  
  20594509.750    20594512.105   -14881601.13106  -9674005.29509      1022.219  
  20734909.328    20734914.133   -13618049.38304  -5453803.88203       965.313  
  24610674.516    24610681.832     -575826.07609   -162856.56409     -1542.156  
  24541214.359    24541220.535    25107284.04809  19586454.87109      3590.125  
  22629685.422    22629691.305   -10448967.03309  -7975682.11809     -2290.219  
  22363382.070    22363387.590    -4177332.63809  -3088043.41509      2881.047  
  20460905.586    20460909.617   -17935107.07703 -13799443.76901       588.500  
 98 11 22 11 18 55.0000000  0  8G26G13G10G17G18G02G19G27
  23158293.813    23158298.641    -5070030.56509  -3788150.46109     -2763.047  
  20595482.750    20595485.176   -14876487.84306  -9670020.91908      1023.109  
  20735828.727    20735833.543   -13613217.34105  -5450038.65802       967.516  
  24609207.344    24609215.633     -583532.02809   -168861.16509     -1540.219  
  24544630.477    24544637.320    25125233.57609  19600441.48809      3589.688  
  22627506.734    22627512.699   -10460415.94709  -7984603.35309     -2289.328  
  22366123.594    22366129.453    -4162926.61609  -3076817.95009      2881.375  
  20461466.203    20461470.105   -17932161.36203 -13797148.40901       589.797  
 98 11 22 11 19  0.0000000  0  8G26G13G10G17G18G02G19G27
  23155665.453    23155670.551    -5083841.51609  -3798912.22809     -2761.656  
  20596457.625    20596460.051   -14871364.69806  -9666028.86008      1025.828  
  20736751.211    20736756.086   -13608369.14105  -5446260.84202       971.469  
  24607744.063    24607748.961     -591223.02109   -174854.17809     -1536.516  
  24548046.375    24548053.055    25143186.20109  19614430.50309      3591.031  
  22625329.984    22625335.949   -10471855.15709  -7993517.01209     -2286.656  
  22368865.906    22368871.566    -4148513.75309  -3065587.14909      2883.453  
  20462028.945    20462032.871   -17929203.95602 -13794843.94101       592.844  
 98 11 22 11 19  5.0000000  0  8G26G13G10G17G18G02G19G27
  23153037.695    23153043.016    -5097650.10409  -3809672.15909     -2761.453  
  20597434.281    20597436.801   -14866232.64807  -9662029.86308      1027.328  
  20737676.664    20737681.480   -13603505.89105  -5442471.29802       974.156  
  24606282.773    24606288.621     -598900.25809   -180836.47209     -1534.078  
  24551462.906    24551469.199    25161141.07109  19628421.31709      3591.219  
  22623154.914    22623160.645   -10483285.61809  -8002423.85609     -2285.188  
  22371609.906    22371615.355    -4134095.27409  -3054351.97309      2884.297  
  20462593.656    20462597.723   -17926236.00002 -13792531.24701       594.656  
 98 11 22 11 19 10.0000000  0  8G26G13G10G17G18G02G19G27
  23150409.875    23150414.680    -5111459.77209  -3820432.91909     -2761.781  
  20598411.727    20598414.270   -14861095.03406  -9658026.52908      1028.359  
  20738604.375    20738609.133   -13598631.16806  -5438672.81202       976.375  
  24604823.539    24604830.715     -606567.40209   -186810.83009     -1532.141  
  24554879.219    24554886.027    25179094.56009  19642411.02509      3590.797  
  22620980.891    22620986.668   -10494710.84509  -8011326.62909     -2284.281  
  22374354.094    22374359.555    -4119674.56109  -3043115.05309      2884.625  
  20463159.758    20463163.824   -17923260.97703 -13790213.05201       595.984  
 98 11 22 11 19 15.0000000  0  8G26G13G10G17G18G02G19G27
  23147782.125    23147786.977    -5125268.15109  -3831192.69409     -2761.703  
  20599391.109    20599393.641   -14855949.46006  -9654016.99208      1029.750  
  20739534.438    20739539.113   -13593742.52505  -5434863.48002       978.953  
  24603366.727    24603374.535     -614221.99809   -192775.42109     -1529.828  
  24558295.703    24558302.656    25197048.91409  19656401.41209      3590.797  
  22618808.313    22618814.219   -10506128.56509  -8020223.54709     -2282.953  
  22377099.164    22377104.379    -4105249.29209  -3031874.58509      2885.344  
  20463727.633    20463731.570   -17920276.44704 -13787887.44501       597.703  
 98 11 22 11 19 20.0000000  0  8G26G13G10G17G18G02G19G27
  23145154.492    23145159.285    -5139075.59609  -3841951.72509     -2761.625  
  20600371.664    20600374.078   -14850796.26207  -9650001.51708      1031.156  
  20740467.297    20740471.961   -13588840.27705  -5431043.54701       981.578  
  24601913.203    24601920.086     -621864.51109   -198730.57209     -1527.516  
  24561713.203    24561719.215    25215003.58409  19670392.01509      3590.703  
  22616636.617    22616642.582   -10517539.18509  -8029114.93909     -2281.656  
  22379844.906    22379850.438    -4090819.92309  -3020630.92709      2886.063  
  20464297.438    20464301.328   -17917282.81805 -13785554.75001       599.375  
 98 11 22 11 19 25.0000000  0  8G26G13G10G17G18G02G19G27
  23142526.773    23142531.355    -5152885.08409  -3852712.34709     -2762.484  
  20601353.141    20601355.520   -14845638.53706  -9645982.51009      1031.578  
  20741402.328    20741406.957   -13583927.36004  -5427215.30102       983.266  
  24600460.016    24600466.191     -629497.85409   -204678.60309     -1526.141  
  24565128.820    24565134.234    25232955.47509  19684380.45809      3589.688  
  22614466.094    22614471.953   -10528945.65009  -8038003.09109     -2281.266  
  22382590.742    22382596.508    -4076389.52909  -3009386.46709      2885.750  
  20464868.211    20464872.043   -17914283.18104 -13783217.37201       600.141  
 98 11 22 11 19 30.0000000  0  8G26G13G10G17G18G02G19G27
  23139898.398    23139902.945    -5166699.60309  -3863476.89009     -2763.109  
  20602334.969    20602337.348   -14840479.51606  -9641962.49608      1032.219  
  20742338.617    20742343.246   -13579006.63804  -5423380.97302       985.203  
  24599009.234    24599016.469     -637124.92109   -210621.80409     -1524.484  
  24568543.773    24568550.031    25250901.57409  19698364.42109      3588.938  
  22612295.781    22612301.441   -10540350.62909  -8046890.07709     -2280.547  
  22385336.336    22385341.973    -4061961.35109  -2998143.73409      2885.719  
  20465439.586    20465443.477   -17911280.34203 -13780877.49701       601.188  
 98 11 22 11 19 35.0000000  0  8G26G13G10G17G18G02G19G27
  23137269.398    23137274.660    -5180514.89209  -3874242.03909     -2763.031  
  20603317.719    20603320.086   -14835314.86006  -9637938.09508      1033.594  
  20743277.344    20743282.148   -13574073.97004  -5419537.33902       987.813  
  24597560.203    24597568.879     -644741.30809   -216556.62309     -1522.109  
  24571958.539    24571966.242    25268846.29709  19712347.30709      3588.922  
  22610126.602    22610132.309   -10551749.58209  -8055772.37609     -2279.063  
  22388082.258    22388088.258    -4047530.94909  -2986899.26509      2886.422  
  20466012.602    20466016.480   -17908269.96502 -13778531.74901       602.922  
 98 11 22 11 19 40.0000000  0  8G26G13G10G17G18G02G19G27
  23134640.477    23134645.844    -5194329.75609  -3885006.86409     -2763.016  
  20604301.805    20604304.207   -14830143.31506  -9633908.32209      1034.922  
  20744218.492    20744223.367   -13569128.28802  -5415683.56403       990.359  
  24596113.086    24596119.824     -652345.90509   -222482.31009     -1519.813  
  24575373.438    24575381.398    25286790.88209  19726330.07209      3588.797  
  22607958.867    22607964.551   -10563141.27409  -8064649.01209     -2277.688  
  22390829.328    22390835.012    -4033096.98009  -2975652.01709      2887.063  
  20466586.977    20466590.902   -17905250.89302 -13776179.22401       604.609  
 98 11 22 11 19 45.0000000  0  8G26G13G10G17G18G02G19G27
  23132011.695    23132017.871    -5208144.35809  -3895771.47909     -2763.000  
  20605287.305    20605289.719   -14824965.05006  -9629873.31008      1036.188  
  20745162.289    20745167.094   -13564169.55303  -5411819.62002       992.922  
  24594667.930    24594675.563     -659938.56909   -228398.70909     -1517.453  
  24578787.789    24578795.328    25304735.11209  19740312.59309      3588.688  
  22605792.406    22605798.055   -10574525.77409  -8073520.04409     -2276.328  
  22393576.672    22393582.227    -4018659.49109  -2964402.02609      2887.719  
  20467163.313    20467167.402   -17902223.13002 -13773819.93401       606.281  
 98 11 22 11 19 50.0000000  0  8G26G13G10G17G18G02G19G27
  23129382.711    23129388.688    -5221961.71109  -3906538.22909     -2763.531  
  20606273.273    20606275.758   -14819783.21406  -9625835.52008      1036.938  
  20746107.688    20746112.375   -13559200.67503  -5407947.76802       995.016  
  24593225.242    24593232.102     -667522.32409   -234308.12309     -1515.656  
  24582202.008    24582208.938    25322675.97809  19754292.43009      3588.047  
  22603626.945    22603632.711   -10585906.31509  -8082387.99009     -2275.484  
  22396323.891    22396329.270    -4004221.60209  -2953151.72409      2887.813  
  20467740.453    20467744.613   -17899189.86502 -13771456.35301       607.406  
 98 11 22 11 19 55.0000000  0  8G26G13G10G17G18G02G19G27
  23126752.602    23126758.906    -5235778.69609  -3917304.69609     -2763.109  
  20607260.492    20607262.977   -14814594.70905  -9621792.53408      1038.609  
  20747055.836    20747060.664   -13554218.55303  -5404065.59502       997.984  
  24591783.641    24591790.922     -675094.10309   -240208.18109     -1512.906  
  24585616.555    24585625.629    25340616.54109  19768272.07409      3588.297  
  22601462.414    22601468.086   -10597279.66909  -8091250.33909     -2273.719  
  22399072.031    22399077.938    -3989780.45309  -2941898.88709      2888.766  
  20468319.234    20468323.477   -17896148.06502 -13769086.12201       609.453  
 98 11 22 11 20  0.0000000  0  8G26G13G10G17G18G02G19G27
  23124123.383    23124128.973    -5249596.76709  -3928072.01209     -2763.734  
  20608249.008    20608251.504   -14809401.08806  -9617745.56309      1039.203  
  20748006.023    20748010.758   -13549224.71204  -5400174.29102       999.906  
  24590345.523    24590350.563     -682655.26509   -246099.96709     -1511.188  
  24589029.297    24589037.293    25358555.30309  19782250.29209      3587.563  
  22599299.219    22599304.656   -10608647.50009  -8100108.38309     -2273.063  
  22401820.422    22401826.270    -3975337.85509  -2930644.91509      2888.609  
  20468899.594    20468903.918   -17893099.20902 -13766710.39001       610.453  
 98 11 22 11 20  5.0000000  0  8G26G13G10G17G18G02G19G27
  23121493.250    23121498.102    -5263416.50609  -3938840.63609     -2763.969  
  20609237.930    20609240.391   -14804203.25906  -9613695.30908      1040.125  
  20748958.328    20748962.922   -13544219.92704  -5396274.45902      1002.203  
  24588907.938    24588914.844     -690206.45409   -251984.00609     -1509.109  
  24592442.984    24592449.781    25376491.70309  19796226.69309      3587.219  
  22597136.664    22597142.160   -10620010.75609  -8108962.86409     -2272.078  
  22404568.852    22404574.465    -3960894.73109  -2919390.53809      2888.828  
  20469481.055    20469485.262   -17890043.97402 -13764329.68801       611.828  
 98 11 22 11 20 10.0000000  0  8G26G13G10G17G18G02G19G27
  23118863.273    23118868.266    -5277237.39909  -3949610.15209     -2763.875  
  20610228.188    20610230.578   -14799000.33506  -9609641.08508      1041.547  
  20749912.961    20749917.637   -13539203.40704  -5392365.48403      1004.891  
  24587473.844    24587481.512     -697747.09509   -257859.79809     -1506.672  
  24595855.813    24595863.855    25394426.41409  19810201.74609      3587.156  
  22594975.477    22594981.207   -10631368.99609  -8117813.43609     -2270.750  
  22407317.422    22407323.035    -3946450.32009  -2908135.15309      2889.422  
  20470063.602    20470067.727   -17886981.73302 -13761943.52601       613.563  
 98 11 22 11 20 15.0000000  0  8G26G13G10G17G18G02G19G27
  23116232.992    23116238.383    -5291058.29709  -3960379.66809     -2764.203  
  20611219.477    20611221.785   -14793790.90006  -9605581.78709      1042.547  
  20750869.953    20750874.547   -13534174.08205  -5388446.53303      1007.125  
  24586040.008    24586048.449     -705276.11609   -263726.55909     -1504.641  
  24599269.156    24599278.172    25412360.27409  19824176.16509      3586.656  
  22592815.234    22592821.258   -10642721.33309  -8126659.39809     -2269.906  
  22410066.531    22410072.262    -3932003.52409  -2896877.91009      2889.609  
  20470647.867    20470652.016   -17883911.61502 -13759551.22501       614.813  
 98 11 22 11 20 20.0000000  0  8G26G13G10G17G18G02G19G27
  23113603.492    23113609.082    -5304878.01209  -3971148.26409     -2763.813  
  20612212.367    20612214.734   -14788573.55207  -9601516.32309      1044.266  
  20751829.750    20751834.320   -13529130.97305  -5384516.84103      1010.000  
  24584609.234    24584615.375     -712792.25709   -269583.26209     -1501.938  
  24602681.266    24602689.262    25430294.30209  19838150.71809      3586.844  
  22590656.328    22590662.117   -10654066.82209  -8135500.02409     -2268.438  
  22412816.523    22412822.172    -3917553.12509  -2885617.85709      2890.438  
  20471233.789    20471237.879   -17880832.30702 -13757151.76601       616.781  
 98 11 22 11 20 25.0000000  0  8G26G13G10G17G18G02G19G27
  23110973.477    23110978.152    -5318697.84609  -3981916.94109     -2763.984  
  20613206.250    20613208.547   -14783349.99107  -9597446.01909      1045.313  
  20752791.563    20752796.273   -13524075.69504  -5380577.66402      1012.266  
  24583182.297    24583187.207     -720297.17809   -275431.28009     -1499.875  
  24606094.164    24606101.316    25448226.87709  19852124.11209      3586.375  
  22588498.172    22588504.031   -10665407.17809  -8144336.65709     -2267.563  
  22415566.672    22415571.945    -3903100.84509  -2874356.34809      2890.641  
  20471821.289    20471825.426   -17877745.41302 -13754746.39401       618.109  
 98 11 22 11 20 30.0000000  0  8G26G13G10G17G18G02G19G27
  23108344.594    23108349.914    -5332514.80109  -3992683.39009     -2763.234  
  20614201.930    20614204.285   -14778117.44306  -9593368.71309      1047.266  
  20753756.633    20753761.473   -13519005.34705  -5376626.74702      1015.453  
  24581756.742    24581762.719     -727787.97809   -281268.27209     -1496.891  
  24609506.563    24609512.949    25466161.00909  19866098.76009      3586.875  
  22586341.664    22586347.500   -10676739.40309  -8153166.95609     -2265.781  
  22418317.625    22418322.898    -3888643.78409  -2863091.10809      2891.750  
  20472410.742    20472414.914   -17874648.14203 -13752332.93801       620.391  
 98 11 22 11 20 35.0000000  0  8G26G13G10G17G18G02G19G27
  23105715.367    23105721.004    -5346331.33509  -4003449.50709     -2763.281  
  20615198.930    20615201.367   -14772878.38407  -9589286.33109      1048.469  
  20754724.016    20754728.785   -13513922.19904  -5372665.85502      1017.922  
  24580333.406    24580340.215     -735266.85309   -287095.95909     -1494.563  
  24612919.242    24612926.195    25484094.40509  19880072.82309      3586.609  
  22584186.125    22584192.090   -10688066.03709  -8161992.89709     -2264.766  
  22421069.180    22421074.359    -3874184.40209  -2851824.05309      2892.109  
  20473001.500    20473005.684   -17871542.54703 -13749912.99701       621.969  
 98 11 22 11 20 40.0000000  0  8G26G13G10G17G18G02G19G27
  23103086.008    23103091.445    -5360148.12609  -4014215.81109     -2763.063  
  20616197.094    20616199.508   -14767633.28907  -9585199.24409      1049.969  
  20755693.539    20755698.320   -13508826.75404  -5368695.37702      1020.656  
  24578912.781    24578918.137     -742734.18909   -292914.65009     -1491.969  
  24616331.445    24616339.629    25502026.38409  19894045.73309      3586.578  
  22582031.867    22582037.855   -10699387.58009  -8170814.86109     -2263.438  
  22423820.922    22423826.031    -3859723.23009  -2840555.60809      2892.750  
  20473594.008    20473598.051   -17868429.05202 -13747486.89701       623.844  
 98 11 22 11 20 45.0000000  0  8G26G13G10G17G18G02G19G27
  23100456.844    23100462.281    -5373964.67609  -4024981.93409     -2763.219  
  20617196.398    20617198.801   -14762381.55707  -9581106.98908      1051.078  
  20756665.852    20756670.727   -13503718.36405  -5364714.81403      1023.047  
  24577494.172    24577499.961     -750189.19209   -298723.71609     -1489.672  
  24619743.641    24619752.082    25519957.31809  19908017.84509      3586.156  
  22579878.930    22579884.613   -10710703.24009  -8179632.25109     -2262.484  
  22426573.484    22426578.652    -3845259.88609  -2829285.46609      2892.938  
  20474188.047    20474192.090   -17865306.88602 -13745054.04001       625.375  
 98 11 22 11 20 50.0000000  0  8G26G13G10G17G18G02G19G27
  23097827.563    23097833.117    -5387780.43109  -4035747.43209     -2763.375  
  20618197.172    20618199.539   -14757122.84707  -9577009.29508      1052.141  
  20757640.398    20757645.168   -13498596.62405  -5360723.84903      1025.406  
  24576077.477    24576084.570     -757631.26009   -304522.70109     -1487.391  
  24623155.258    24623163.219    25537887.72809  19921989.58109      3585.703  
  22577726.391    22577732.180   -10722012.76709  -8188444.86209     -2261.594  
  22429326.328    22429331.754    -3830794.27309  -2818013.56609      2893.016  
  20474783.969    20474788.082   -17862175.53504 -13742614.02701       626.922  
 98 11 22 11 20 55.0000000  0  8G26G13G10G17G18G02G19G27
  23095197.891    23095203.480    -5401596.34209  -4046513.05409     -2763.063  
  20619199.133    20619201.453   -14751858.02507  -9572906.83709      1053.734  
  20758617.258    20758621.934   -13493462.29004  -5356723.07103      1028.266  
  24574662.938    24574668.691     -765061.21209   -310312.26409     -1484.641  
  24626567.031    24626575.180    25555816.53809  19935960.07209      3585.750  
  22575575.461    22575581.262   -10733317.12409  -8197253.44009     -2260.203  
  22432079.188    22432084.918    -3816327.52809  -2806740.78309      2893.609  
  20475381.492    20475385.676   -17859035.88704 -13740167.54901       628.891  
 98 11 22 11 21  0.0000000  0  8G26G13G10G17G18G02G19G27
  23092569.180    23092574.641    -5415412.44109  -4057278.82409     -2762.859  
  20620202.070    20620204.449   -14746587.01408  -9568799.55508      1055.188  
  20759596.680    20759601.238   -13488315.53104  -5352712.61203      1030.984  
  24573251.992    24573258.957     -772479.17309   -316092.50209     -1482.016  
  24629978.266    24629986.367    25573743.63109  19949929.22009      3585.641  
  22573425.180    22573430.594   -10744616.41609  -8206058.07209     -2258.969  
  22434832.125    22434837.633    -3801859.74709  -2795467.19309      2894.047  
  20475980.492    20475984.465   -17855888.18004 -13737714.79101       630.719  
 98 11 22 11 21  5.0000000  0  8G26G13G10G17G18G02G19G27
  23089939.828    23089945.160    -5429228.25509  -4068044.37209     -2763.609  
  20621206.211    20621208.508   -14741309.44808  -9564687.17009      1055.672  
  20760578.430    20760583.094   -13483155.78505  -5348692.03103      1032.750  
  24571842.555    24571849.258     -779884.83109   -321863.13109     -1480.391  
  24633390.813    24633397.234    25591669.43709  19963897.34309      3584.531  
  22571276.055    22571281.586   -10755910.20909  -8214858.42109     -2258.703  
  22437585.625    22437591.086    -3787390.48009  -2784192.43909      2893.484  
  20476581.047    20476585.031   -17852732.07704 -13735255.49001       631.547  
 98 11 22 11 21 10.0000000  0  8G26G13G10G17G18G02G19G27
  23087310.516    23087316.047    -5443048.50809  -4078813.38209     -2764.391  
  20622211.008    20622213.316   -14736030.21106  -9560573.47809      1056.109  
  20761561.828    20761566.516   -13477987.93504  -5344665.14203      1034.469  
  24570434.516    24570439.871     -787283.18509   -327628.07009     -1478.859  
  24636800.578    24636807.754    25609589.08209  19977860.67209      3583.406  
  22569126.930    22569132.801   -10767203.33509  -8223658.24409     -2258.453  
  22440338.391    22440343.371    -3772924.64509  -2772920.35709      2892.922  
  20477182.336    20477186.309   -17849572.68703 -13732793.62701       632.313  
 98 11 22 11 21 15.0000000  0  8G26G13G10G17G18G02G19G27
  23084680.500    23084685.891    -5456867.49309  -4089581.39109     -2763.750  
  20623217.039    20623219.371   -14730743.72807  -9556454.14409      1057.953  
  20762547.938    20762552.590   -13472806.35304  -5340627.54502      1037.625  
  24569028.617    24569034.945     -794668.88609   -333383.14709     -1475.938  
  24640209.969    24640218.762    25627508.13109  19991823.53509      3583.672  
  22566979.258    22566985.270   -10778490.28109  -8232453.25309     -2256.844  
  22443091.250    22443096.746    -3758456.62209  -2761646.57509      2893.750  
  20477785.273    20477789.305   -17846404.30003 -13730324.75101       634.500  
 98 11 22 11 21 20.0000000  0  8G26G13G10G17G18G02G19G27
  23082051.477    23082057.570    -5470685.08909  -4100348.32809     -2763.078  
  20624224.391    20624226.664   -14725449.84106  -9552329.04009      1059.828  
  20763536.609    20763541.285   -13467610.81903  -5336579.07902      1040.828  
  24567626.367    24567633.578     -802041.77209   -339128.25709     -1473.000  
  24643619.766    24643629.039    25645426.66109  20005786.01009      3584.000  
  22564832.484    22564838.414   -10789771.00609  -8241243.41309     -2255.219  
  22445845.000    22445850.332    -3743986.32409  -2750371.02409      2894.594  
  20478390.000    20478393.996   -17843226.86902 -13727848.83201       636.703  
 98 11 22 11 21 25.0000000  0  8G26G13G10G17G18G02G19G27
  23079421.852    23079427.570    -5484501.69409  -4111114.49809     -2763.203  
  20625233.055    20625235.316   -14720148.80406  -9548198.36409      1060.953  
  20764527.852    20764532.656   -13462401.45004  -5332519.83502      1043.281  
  24566224.906    24566231.977     -809402.11809   -344863.53509     -1470.813  
  24647029.375    24647036.469    25663344.48709  20019747.95409      3583.531  
  22562686.953    22562692.777   -10801045.78709  -8250028.94409     -2254.328  
  22448599.203    22448604.945    -3729513.87609  -2739093.79009      2894.750  
  20478996.109    20479000.094   -17840040.68703 -13725366.09401       638.125  
 98 11 22 11 21 30.0000000  0  8G26G13G10G17G18G02G19G27
  23076792.508    23076798.988    -5498318.06009  -4121880.49209     -2763.250  
  20626243.078    20626245.398   -14714841.33807  -9544062.67809      1062.109  
  20765521.820    20765526.613   -13457178.82203  -5328450.25902      1045.844  
  24564827.484    24564833.238     -816750.58809   -350589.64209     -1468.531  
  24650438.672    24650446.199    25681260.99109  20033708.86509      3583.141  
  22560542.406    22560548.336   -10812315.24609  -8258810.32809     -2253.391  
  22451353.750    22451359.563    -3715039.78409  -2727815.28309      2894.953  
  20479604.195    20479608.121   -17836846.43604 -13722877.06601       639.625  
 98 11 22 11 21 35.0000000  0  8G26G13G10G17G18G02G19G27
  23074163.641    23074169.570    -5512135.22909  -4132647.09809     -2763.469  
  20627254.023    20627256.449   -14709528.67507  -9539922.94509      1063.109  
  20766518.211    20766522.887   -13451944.05704  -5324371.22202      1048.203  
  24563430.711    24563436.793     -824088.27109   -356307.35009     -1466.406  
  24653847.773    24653856.086    25699175.07009  20047667.83409      3582.641  
  22558398.531    22558404.355   -10823580.52309  -8267588.44909     -2252.578  
  22454108.063    22454113.582    -3700565.41209  -2716536.55609      2894.922  
  20480213.172    20480217.238   -17833645.29003 -13720382.66501       640.984  
 98 11 22 11 21 40.0000000  0  8G26G13G10G17G18G02G19G27
  23071534.211    23071540.012    -5525954.10309  -4143415.03709     -2763.438  
  20628265.938    20628268.293   -14704211.65606  -9535779.81409      1064.344  
  20767516.148    20767520.836   -13446698.32804  -5320283.64702      1050.734  
  24562036.305    24562042.598     -831415.96109   -362017.25109     -1464.031  
  24657255.570    24657264.012    25717085.80409  20061624.20409      3582.328  
  22556255.484    22556261.297   -10834842.50209  -8276363.99709     -2251.578  
  22456862.125    22456867.527    -3686091.71009  -2705258.34309      2895.172  
  20480823.586    20480827.547   -17830438.07603 -13717883.53801       642.547  
 98 11 22 11 21 45.0000000  0  8G26G13G10G17G18G02G19G27
  23068904.406    23068910.031    -5539770.97809  -4154181.41609     -2763.297  
  20629279.281    20629281.625   -14698886.48106  -9531630.32609      1065.719  
  20768517.273    20768522.020   -13441438.06302  -5316184.74302      1053.375  
  24560644.859    24560651.813     -838729.91109   -367716.43709     -1461.563  
  24660663.578    24660672.582    25734996.93409  20075580.92309      3582.125  
  22554113.828    22554119.617   -10846097.43909  -8285134.05909     -2250.422  
  22459617.023    22459622.848    -3671614.85809  -2693977.67809      2895.531  
  20481435.508    20481439.434   -17827221.02304 -13715376.74201       644.250  
 98 11 22 11 21 50.0000000  0  8G26G13G10G17G18G02G19G27
  23066275.320    23066280.992    -5553588.25309  -4164948.09909     -2763.703  
  20630293.742    20630296.168   -14693555.44407  -9527476.27409      1066.625  
  20769520.555    20769525.395   -13436165.72204  -5312076.42401      1055.484  
  24559255.516    24559262.914     -846032.69309   -373406.90109     -1459.641  
  24664071.945    24664082.098    25752905.92609  20089535.95309      3581.391  
  22551972.852    22551978.758   -10857348.01509  -8293900.73009     -2249.906  
  22462371.781    22462377.453    -3657137.44309  -2682696.57909      2895.344  
  20482049.086    20482053.082   -17823996.75204 -13712864.32001       645.344  
 98 11 22 11 21 55.0000000  0  8G26G13G10G17G18G02G19G27
  23063645.883    23063650.793    -5567405.82709  -4175715.01809     -2763.516  
  20631309.273    20631311.711   -14688218.13908  -9523317.33309      1068.109  
  20770526.266    20770531.000   -13430881.22104  -5307958.63102      1058.141  
  24557867.836    24557875.375     -853324.39509   -379088.70509     -1457.219  
  24667479.570    24667491.141    25770812.80409  20103489.29809      3581.172  
  22549832.656    22549838.691   -10868594.29809  -8302664.05209     -2248.813  
  22465126.969    22465132.781    -3642658.97709  -2671414.65809      2895.828  
  20482664.250    20482668.164   -17820765.43104 -13710346.40701       647.000  
 98 11 22 11 22  0.0000000  0  8G26G13G10G17G18G02G19G27
  23061016.797    23061022.258    -5581223.22709  -4186481.80009     -2763.281  
  20632326.203    20632328.523   -14682874.08307  -9519153.13309      1069.672  
  20771534.023    20771538.863   -13425584.00704  -5303830.93302      1060.906  
  24556482.078    24556490.379     -860604.72909   -384761.69309     -1454.734  
  24670886.781    24670896.383    25788717.84109  20117441.22009      3580.984  
  22547693.508    22547699.484   -10879835.97609  -8311423.78409     -2247.688  
  22467882.484    22467888.121    -3628179.02109  -2660131.58009      2896.344  
  20483280.484    20483284.352   -17817526.66903 -13707822.69301       648.688  
 98 11 22 11 22  5.0000000  0  8G26G13G10G17G18G02G19G27
  23058387.117    23058392.508    -5595042.97509  -4197250.41509     -2764.172  
  20633343.852    20633346.242   -14677526.04907  -9514985.83609      1069.984  
  20772544.063    20772548.797   -13420276.78402  -5299695.43702      1062.406  
  24555098.680    24555106.430     -867876.26109   -390427.83309     -1453.438  
  24674294.172    24674302.941    25806618.19809  20131389.55709      3579.563  
  22545554.664    22545560.652   -10891075.82609  -8320182.08609     -2247.844  
  22470637.727    22470643.211    -3613700.19709  -2648849.37809      2895.609  
  20483897.695    20483901.691   -17814283.31002 -13705295.39901       649.094  
 98 11 22 11 22 10.0000000  0  8G26G13G10G17G18G02G19G27
  23055756.547    23055762.125    -5608863.60309  -4208019.71709     -2763.969  
  20634362.656    20634365.012   -14672172.73107  -9510814.42209      1071.469  
  20773556.016    20773560.680   -13414958.55303  -5295551.36401      1065.000  
  24553716.516    24553724.535     -875137.74509   -396086.14509     -1451.031  
  24677698.453    24677706.742    25824515.31109  20145335.38409      3579.328  
  22543416.289    22543421.891   -10902312.60709  -8328938.00109     -2246.766  
  22473393.383    22473398.844    -3599221.26409  -2637567.09909      2896.047  
  20484516.016    20484520.129   -17811034.05602 -13702763.51501       650.703  
 98 11 22 11 22 15.0000000  0  8G26G13G10G17G18G02G19G27
  23053127.242    23053132.551    -5622682.11909  -4218787.38409     -2763.875  
  20635382.859    20635385.168   -14666810.99908  -9506636.45109      1072.813  
  20774570.469    20774575.109   -13409626.52802  -5291396.54401      1067.406  
  24552337.734    24552345.871     -882386.18409   -401734.27709     -1448.750  
  24681105.094    24681112.539    25842412.13909  20159280.93609      3578.953  
