     2.11           OBSERVATION DATA    M (MIXED)           RINEX VERSION / TYPE
MAKERINEX 2.0.38030 NTRIPS13_238B30     2018-07-04 15:01    PGM / RUN BY / DATE
KARL                                                        MARKER NAME
14216M001                                                   MARKER NUMBER
GREFOP              BKG/AL/G3                               OBSERVER / AGENCY
02042               JAVAD TRE_3 DELTA   3.7.2 AUG,31,2017   REC # / TYPE / VERS
725092              LEIAR25.R4      LEIT                    ANT # / TYPE
  4146524.6600   613137.8250  4791516.9620                  APPROX POSITION XYZ
         .0450         .0000         .0000                  ANTENNA: DELTA H/E/N
     1     1                                                WAVELENGTH FACT L1/2
    14    C1    C2    C5    P1    P2    L1    L2    L5    D1# / TYPES OF OBSERV
          D2    D5    S1    S2    S5                        # / TYPES OF OBSERV
    30.000                                                  INTERVAL
  2018     7     4    14     0    0.0000000     GPS         TIME OF FIRST OBS
  2018     7     4    14    59   30.0000000     GPS         TIME OF LAST OBS
    18                                                      LEAP SECONDS
     0                                                      RCV CLOCK OFFS APPL
                                                            END OF HEADER
 18  7  4 14  0  0.0000000  0 29G04G07G08G10G13G15G16G18G20G21G26G27
                                G30R01R07R08R13R14R15R17R22R23R24S20
                                S23S25S27S28S36
  23831169.558    23831170.024                    23831169.294    23831170.508
 125233640.731 5  97584655.849 5                     -3713.010       -2893.269
                        34.000          34.000
  24493497.731    24493497.453                    24493496.430    24493496.883
 128714209.262 4 100296789.065 4                       382.183         297.872
                        27.000          27.000
  22871666.154    22871668.903    22871666.098    22871666.561    22871668.430
 120191437.199 6  93655671.846 6  89753360.390 8      3028.918        2360.201
      2261.855          36.000          36.000          51.000
  21640367.694    21640369.478    21640366.596    21640367.725    21640369.472
 113720939.772 7  88613729.927 7  84921505.999 9      2456.016        1913.772
      1834.024          44.000          44.000          55.000
  25332270.461                                    25332269.049    25332268.492
 133121974.554 3 103731409.054 3                        66.963          52.414
                        19.000          19.000
  24542520.908    24542520.458                    24542522.099    24542521.460
 128971828.522 5 100497531.046 5                       827.304         644.699
                        31.000          31.000
  21123715.665                                    21123715.124    21123714.035
 111005892.897 7  86498103.094 7                     -1908.574       -1487.222
                        42.000          42.000
  25202513.659                                    25202513.838    25202515.360
 132440095.103 1 103200074.725 1                      3874.916        3019.441
                         9.000           9.000
  20908010.640                                    20908009.772    20908009.237
 109872392.648 7  85614864.002 7                       469.427         365.799
                        42.000          42.000
  22594804.929                                    22594804.781    22594804.291
 118736542.034 6  92521989.869 6                     -2071.381       -1614.082
                        37.000          37.000
  22779724.559    22779727.590    22779725.235    22779724.121    22779727.605
 119708272.982 6  93279176.006 6  89392545.619 8     -3226.921       -2514.397
     -2409.650          37.000          37.000          52.000
  20436857.809    20436858.870    20436856.438    20436857.423    20436858.630
 107396439.546 7  83685545.109 7  80198658.410 9      1345.772        1048.660
      1004.971          46.000          46.000          57.000
  25476062.621    25476066.589    25476064.791    25476061.367    25476064.812
 133877610.366 3 104320217.077 3  99973544.982 8      1709.588        1332.199
      1276.697          23.000          23.000          48.000
  23284788.852    23284795.402                    23284790.700    23284794.889
 124470558.106 7  96810451.344 6                      4547.608        3537.030
                        43.000          36.000
  21772640.661    21772642.617                    21772640.745    21772642.157
 116550683.474 8  90650551.549 7                     -1212.174        -942.797
                        52.000          47.000
  21175386.366    21175387.932                    21175385.677    21175387.046
 113393315.291 8  88194781.452 7                      2553.018        1985.694
                        53.000          47.000
  22346060.704    22346063.694                    22346061.072    22346064.062
 119326746.418 7  92809676.718 6                     -3922.586       -3050.911
                        43.000          38.000
  20888915.311    20888916.392                    20888915.019    20888917.278
 111349989.877 8  86605346.556 7                      -789.760        -614.239
                        53.000          47.000
  22163487.917    22163492.895                    22163488.543    22163491.463
 118434960.277 7  92116085.151 6                      2305.774        1793.401
                        47.000          38.000
  24546581.258    24546580.852                    24546577.865    24546581.735
 131353735.104 6 102163991.334 5                      3556.198        2765.968
                        40.000          34.000
  23130146.854    23130149.478                    23130147.271    23130150.307
 123470305.175 8  96032466.641 7                     -3095.546       -2407.625
                        48.000          43.000
  19601913.297    19601916.925                    19601913.424    19601917.188
 104857065.607 9  81555504.916 7                      -608.364        -473.185
                        54.000          43.000
  20682531.469    20682535.806                    20682532.303    20682531.939
 110598789.931 8  86021306.581 6                      2331.516        1813.406
                        48.000          36.000
  38496483.597
 202300311.644 7                                       227.704
                        43.000
  38686613.534                    38686621.443
 203299491.379 7                 151814549.013 7       136.938
       102.284          46.000                          44.000
  38479112.647
 202208875.202 7                                       258.275
                        43.000
  39734834.217                    39734834.891
 208808009.798 6                 155928035.481 7       147.072
       109.891          37.000                          43.000
  41583590.813                    41583600.253
 218523233.44516                 163182948.945 6       138.888
       103.711          37.000                          38.000
  38327100.962                    38327106.364
 201410348.668 7                 150403784.205 7       142.304
       106.286          47.000                          47.000
 18  7  4 14  0 30.0000000  0 29G04G07G08G10G13G15G16G18G20G21G26G27
                                G30R01R07R08R13R14R15R17R22R23R24S20
                                S23S25S27S28S36
  23852379.426    23852379.799                    23852378.960    23852379.216
 125345095.935 5  97671503.993 5                     -3717.644       -2896.824
                        34.000          34.000
  24491368.630    24491369.115                    24491368.084    24491367.997
 128703021.091 4 100288071.005 4                       363.601         283.347
                        29.000          29.000
  22854388.940    22854391.271    22854388.775    22854388.896    22854391.139
 120100644.581 6  93584924.374 6  89685560.735 8      3023.677        2356.108
      2257.916          37.000          37.000          51.000
  21626390.096    21626391.755    21626389.001    21626389.818    21626392.075
 113647487.622 7  88556494.522 7  84866655.402 9      2440.607        1901.804
      1822.562          42.000          42.000          55.000
  25331940.030                                    25331940.500    25331939.714
 133120242.224 3 103730059.183 3                        48.093          37.518
                        19.000          19.000
  24537849.780    24537849.965                    24537849.757    24537849.202
 128947279.953 5 100478402.345 5                       809.003         630.422
                        30.000          30.000
  21134659.457                                    21134659.315    21134658.004
 111063404.043 7  86542916.957 7                     -1925.655       -1500.507
                        42.000          42.000
  25180397.547                                    25180396.606    25180398.608
 132323877.960 2 103109515.958 2                      3872.617        3017.630
                        12.000          12.000
  20905388.491                                    20905387.691    20905386.945
 109858613.407 7  85604126.945 7                       449.027         349.913
                        43.000          43.000
  22606645.109                                    22606644.400    22606643.818
 118798759.804 6  92570471.233 6                     -2076.827       -1618.287
                        37.000          37.000
  22798171.081    22798173.393    22798171.555    22798170.561    22798173.799
 119805208.294 6  93354709.974 6  89464932.322 8     -3235.751       -2521.319
     -2416.269          38.000          38.000          53.000
  20429210.394    20429211.546    20429209.177    20429210.228    20429211.376
 107356253.164 7  83654231.050 7  80168649.105 9      1333.025        1038.708
       995.433          47.000          47.000          57.000
  25466349.065    25466350.596    25466351.175    25466347.547    25466352.625
 133826564.166 4 104280440.789 4  99935426.073 8      1693.208        1319.466
      1264.422          25.000          25.000          48.000
  23259279.164    23259284.617                    23259279.169    23259284.417
 124334186.143 7  96704384.306 6                      4543.662        3533.943
                        43.000          36.000
  21779506.460    21779507.946                    21779506.379    21779507.655
 116587436.178 8  90679136.982 7                     -1238.283        -963.102
                        52.000          47.000
  21161145.369    21161147.140                    21161145.146    21161147.224
 113317058.446 8  88135470.607 7                      2530.505        1968.178
                        53.000          47.000
  22368126.067    22368132.715                    22368127.278    22368129.444
 119444577.789 7  92901323.277 6                     -3932.999       -3059.027
                        43.000          38.000
  20893436.347    20893438.699                    20893436.301    20893438.436
 111374089.985 8  86624091.068 7                      -817.141        -635.555
                        53.000          47.000
  22150610.511    22150613.675                    22150610.819    22150613.643
 118366144.227 8  92062561.568 6                      2281.743        1774.698
                        48.000          38.000
  24526643.307    24526646.325                    24526643.260    24526646.173
 131247056.853 6 102081019.425 6                      3555.525        2765.364
                        41.000          36.000
  23147551.380    23147555.699                    23147551.030    23147554.037
 123563211.032 7  96104726.698 7                     -3098.437       -2409.886
                        47.000          43.000
  19605360.112    19605362.511                    19605360.125    19605363.241
 104875502.970 9  81569845.083 7                      -621.018        -483.037
                        54.000          43.000
  20669479.353    20669483.610                    20669478.760    20669477.310
 110528983.911 8  85967013.021 6                      2321.946        1805.954
                        48.000          36.000
  38495180.951
 202293478.068 7                                       227.585
                        43.000
  38685830.656                    38685839.659
 203295382.303 7                 151811480.512 7       136.691
       102.082          46.000                          44.000
  38477708.878
 202201133.989 7                                       257.662
                        43.000
  39733996.770                    39733996.855
 208803605.547 6                 155924746.526 7       146.467
       109.379          38.000                          43.000
  41582801.109                    41582808.881
 218519072.278 6                 163179842.116 6       138.408
       103.328          38.000                          40.000
  38326290.802                    38326295.314
 201406089.347 7                 150400602.258 7       141.598
       105.719          47.000                          47.000
 18  7  4 14  1  0.0000000  0 28G04G07G08G10G13G15G16G18G20G21G26G27
                                G30R01R07R08R13R14R15R17R22R23R24S23
                                S25S27S28S36
  23873614.205    23873615.274                    23873614.668    23873614.836
 125456689.959 5  97758460.307 5                     -3721.851       -2900.131
                        34.000          34.000
  24489345.458    24489345.654                    24489345.553    24489345.600
 128692391.410 4 100279788.117 4                       345.335         269.036
                        29.000          29.000
  22837143.127    22837145.149    22837142.605    22837142.568    22837144.832
 120010015.861 6  93514304.634 6  89617883.487 8      3018.540        2352.108
      2254.071          36.000          36.000          52.000
  21612502.190    21612503.811    21612500.774    21612502.258    21612503.658
 113574505.331 7  88499625.236 7  84812155.683 9      2425.199        1889.745
      1811.014          43.000          43.000          55.000
  25331719.419                                    25331718.707    25331719.573
 133119081.950 2 103729155.136 2                        29.364          22.885
                        17.000          17.000
  24533283.086    24533283.698                    24533283.752    24533283.062
 128923284.615 5 100459704.694 5                       790.878         616.233
                        31.000          31.000
  21145701.811                                    21145701.229    21145700.172
 111121430.325 7  86588132.232 7                     -1942.486       -1513.609
                        43.000          43.000
  25158295.553                                    25158294.833    25158296.288
 132207732.801 3 103019013.261 3                      3870.681        3016.035
                        20.000          20.000
  20902882.966                                    20902882.259    20902881.474
 109845446.149 7  85593866.744 7                       428.997         334.257
                        43.000          43.000
  22618517.041                                    22618516.212    22618515.092
 118861145.579 6  92619083.498 6                     -2082.049       -1622.371
                        37.000          37.000
  22816668.556    22816670.895    22816668.788    22816668.290    22816671.338
 119902413.138 6  93430453.964 6  89537520.300 8     -3244.369       -2528.101
     -2422.736          40.000          40.000          52.000
  20421636.328    20421637.334    20421634.998    20421635.986    20421637.016
 107316450.358 7  83623215.881 7  80138926.232 9      1320.636        1029.073
       986.199          47.000          47.000          57.000
  25456727.185    25456731.081    25456730.769    25456728.252    25456731.270
 133776010.059 4 104241048.038 4  99897674.656 8      1677.314        1306.978
      1252.526          25.000          25.000          50.000
  23233791.371    23233795.945                    23233791.877    23233796.109
 124197939.097 7  96598414.436 6                      4539.747        3530.853
                        44.000          37.000
  21786518.863    21786520.018                    21786518.945    21786520.006
 116624973.291 8  90708332.524 7                     -1263.963        -983.095
                        53.000          47.000
  21147031.168    21147033.762                    21147031.482    21147033.289
 113241481.032 8  88076688.216 8                      2508.227        1950.854
                        53.000          48.000
  22390252.938    22390256.912                    22390252.360    22390254.727
 119562722.212 7  92993213.286 6                     -3942.990       -3066.794
                        44.000          39.000
  20898112.025    20898114.772                    20898112.041    20898114.066
 111399013.921 8  86643476.341 7                      -844.248        -656.626
                        53.000          47.000
  22137867.808    22137871.979                    22137868.237    22137871.407
 118298051.470 8  92009600.551 6                      2258.019        1756.256
                        48.000          38.000
  24506711.956    24506715.845                    24506711.528    24506715.338
 131140401.055 7 101998064.971 6                      3555.076        2765.061
                        43.000          37.000
  23164973.270    23164976.096                    23164972.981    23164976.160
 123656207.493 8  96177057.224 7                     -3101.086       -2411.963
                        48.000          45.000
  19608878.495    19608881.579                    19608878.709    19608882.029
 104894324.839 9  81584484.316 7                      -633.481        -492.695
                        54.000          43.000
  20656477.898    20656477.950                    20656478.530    20656478.064
 110459470.153 7  85912946.777 6                      2312.578        1798.615
                        47.000          36.000
  38685050.950                    38685060.294
 203291285.670 7                 151808421.315 7       136.603
       102.007          47.000                          44.000
  38476309.790
 202193409.522 7                                       257.290
                        43.000
  39733160.598                    39733161.025
 208799214.607 6                 155921467.124 7       146.360
       109.336          38.000                          43.000
  41582010.042                    41582019.110
 218514922.159 6                 163176742.961 6       138.618
       103.626          36.000                          39.000
  38325481.676                    38325486.775
 201401844.560 7                 150397430.444 7       141.650
       105.875          47.000                          46.000
 18  7  4 14  1 30.0000000  0 28G04G07G08G10G13G15G16G18G20G21G26G27
                                G30R01R07R08R13R14R15R17R22R23R24S23
                                S25S27S28S36
  23894873.913    23894874.653                    23894873.761    23894874.162
 125568408.728 5  97845513.854 5                     -3725.783       -2903.248
                        33.000          33.000
  24487426.846    24487427.028                    24487426.828    24487427.617
 128682308.205 4 100271931.101 4                       327.307         255.066
                        27.000          27.000
  22819926.386    22819928.578    22819925.848    22819925.829    22819927.842
 119919540.588 6  93443804.434 6  89550320.802 8      3013.560        2348.199
      2250.368          37.000          37.000          52.000
  21598701.376    21598702.942    21598700.305    21598701.371    21598703.179
 113501983.167 7  88443114.487 7  84757999.552 9      2409.990        1877.906
      1799.672          42.000          42.000          55.000
  25331605.240                                    25331603.828    25331604.382
 133118481.938 3 103728687.558 3                        10.780           8.461
                        18.000          18.000
  24528820.383    24528820.831                    24528821.837    24528820.384
 128899831.896 5 100441429.860 5                       772.968         602.356
                        30.000          30.000
  21156839.223                                    21156838.633    21156837.757
 111179958.320 7  86633738.446 7                     -1958.969       -1526.438
                        42.000          42.000
  25136206.335                                    25136205.549    25136205.634
 132091649.025 3 102928558.462 3                      3868.886        3014.641
                        19.000          19.000
  20900491.261                                    20900490.699    20900490.124
 109832879.488 7  85584074.551 7                       409.140         318.863
                        42.000          42.000
  22630418.402                                    22630417.374    22630416.281
 118923686.482 6  92667816.651 6                     -2086.977       -1626.238
                        38.000          38.000
  22835214.983    22835216.976    22835215.094    22835214.398    22835217.187
 119999873.129 6  93506396.781 6  89610298.826 8     -3252.604       -2534.472
     -2428.879          39.000          39.000          53.000
  20414133.059    20414133.674    20414131.748    20414132.704    20414133.908
 107277020.459 7  83592491.290 7  80109481.835 9      1308.377        1019.534
       977.059          47.000          47.000          57.000
  25447200.945    25447202.388    25447202.452    25447199.578    25447202.523
 133725937.891 3 104202030.766 3  99860283.103 8      1661.334        1294.589
      1240.654          23.000          23.000          48.000
  23208326.290    23208328.731                    23208325.457    23208330.673
 124061809.095 7  96492535.597 6                      4535.972        3527.999
                        43.000          38.000
  21793674.745    21793676.981                    21793674.601    21793676.230
 116663280.921 8  90738127.350 7                     -1289.416       -1002.864
                        53.000          47.000
  21133043.139    21133045.682                    21133043.445    21133045.460
 113166573.927 8  88018427.170 7                      2485.950        1933.515
                        53.000          47.000
  22412433.358    22412435.161                    22412433.064    22412435.731
 119681162.653 7  93085333.577 6                     -3952.591       -3074.249
                        45.000          39.000
  20902940.146    20902940.874                    20902939.769    20902941.758
 111424748.070 8  86663491.782 7                      -870.990        -677.450
                        53.000          46.000
  22125259.370    22125262.926                    22125259.492    22125261.529
 118230672.565 8  91957194.753 6                      2234.332        1737.889
                        48.000          38.000
  24486782.196    24486785.221                    24486782.040    24486787.284
 131033756.393 7 101915119.168 6                      3554.958        2764.915
                        42.000          36.000
  23182409.514    23182411.467                    23182408.881    23182412.074
 123749281.554 8  96249448.086 7                     -3103.501       -2413.817
                        48.000          45.000
  19612466.565    19612469.264                    19612466.913    19612470.019
 104913518.506 9  81599412.725 7                      -645.742        -502.227
                        54.000          43.000
  20643530.379    20643534.082                    20643530.863    20643531.660
 110390237.138 7  85859098.912 6                      2303.387        1791.548
                        44.000          36.000
  38684271.681                    38684280.275
 203287189.244 7                 151805362.365 7       136.873
       102.262          47.000                          44.000
  38474909.932
 202185689.225 7                                       257.328
                        43.000
  39732325.082                    39732325.177
 208794823.136 6                 155918187.883 7       146.580
       109.468          39.000                          43.000
  41581221.904                    41581229.351
 218510772.712 6                 163173643.964 6       138.511
       103.348          36.000                          38.000
  38324673.945                    38324678.976
 201397595.969 7                 150394252.490 7       141.903
       105.939          47.000                          47.000
 18  7  4 14  2  0.0000000  0 28G04G07G08G10G13G15G16G18G20G21G26G27
                                G30R01R07R08R13R14R15R17R22R23R24S23
                                S25S27S28S36
  23916154.995    23916155.930                    23916155.446    23916155.834
 125680242.343 5  97932656.823 5                     -3729.773       -2906.334
                        33.000          33.000
  24485610.996    24485610.994                    24485610.317    24485610.344
 128672764.127 4 100264494.159 4                       308.950         240.806
                        28.000          28.000
  22802737.074    22802739.579    22802736.872    22802736.653    22802738.616
 119829212.484 6  93373418.934 6  89482868.029 8      3008.254        2344.074
      2246.416          36.000          36.000          52.000
  21584988.018    21584988.812    21584986.217    21584988.141    21584989.236
 113429915.925 7  88386958.218 7  84704183.136 9      2394.532        1865.892
      1788.118          44.000          44.000          55.000
  25331596.778                                    25331595.578    25331596.015
 133118435.362 3 103728651.293 3                        -7.606          -5.978
                        20.000          20.000
  24524459.368    24524459.310                    24524460.209    24524459.034
 128876915.509 5 100423572.956 5                       754.820         588.171
                        30.000          30.000
  21168070.616                                    21168070.027    21168068.815
 111238978.869 7  86679728.459 7                     -1975.719       -1539.506
                        42.000          42.000
  25114125.650                                    25114123.842    25114128.415
 131975620.469 3 102838146.641 3                      3866.523        3012.862
                        19.000          19.000
  20898212.922                                    20898212.114    20898211.734
 109820906.106 7  85574744.651 7                       389.028         303.139
                        42.000          42.000
  22642347.058                                    22642346.422    22642345.573
 118986373.978 6  92716664.047 6                     -2092.159       -1630.266
                        38.000          38.000
  22853807.566    22853810.218    22853807.883    22853807.049    22853810.405
 120097578.508 6  93582530.799 6  89683260.580 8     -3261.043       -2541.015
     -2435.151          39.000          39.000          53.000
  20406699.336    20406700.211    20406698.204    20406699.415    20406700.279
 107237957.274 7  83562052.448 7  80080311.281 9      1295.840        1009.735
       967.657          47.000          47.000          57.000
  25437762.282    25437765.226    25437764.865    25437762.610    25437764.053
 133676341.969 4 104163384.592 4  99823247.182 8      1645.078        1281.834
      1228.472          25.000          25.000          50.000
  23182880.700    23182885.456                    23182881.113    23182886.169
 123925792.989 7  96386745.363 6                      4531.760        3524.754
                        43.000          37.000
  21800972.822    21800974.985                    21800972.962    21800974.803
 116702349.909 8  90768514.352 7                     -1315.109       -1022.875
                        52.000          47.000
  21119179.661    21119180.266                    21119179.462    21119181.100
 113092332.948 8  87960684.215 7                      2463.438        1916.015
                        53.000          47.000
  22434666.082    22434670.031                    22434665.740    22434668.908
 119799887.764 7  93177675.272 6                     -3962.376       -3081.787
                        45.000          38.000
  20907917.481    20907919.985                    20907917.927    20907919.596
 111451283.670 9  86684130.568 7                      -897.981        -698.433
                        54.000          47.000
  22112782.055    22112786.006                    22112782.890    22112785.718
 118164003.243 8  91905340.850 6                      2210.327        1719.115
                        48.000          38.000
  24466852.402    24466857.973                    24466854.295    24466857.705
 130927116.034 7 101832176.687 6                      3554.532        2764.583
                        44.000          37.000
  23199857.744    23199861.214                    23199857.794    23199861.177
 123842425.437 8  96321893.284 7                     -3106.070       -2415.794
                        49.000          45.000
  19616123.288    19616124.018                    19616123.053    19616126.841
 104933076.569 9  81614624.545 7                      -658.128        -511.842
                        54.000          43.000
  20630634.588    20630637.296                    20630635.467    20630636.542
 110321278.588 7  85805464.489 6                      2293.867        1784.119
                        47.000          37.000
  38683490.869                    38683499.284
 203283085.654 7                 151802298.019 7       136.796
       102.131          47.000                          44.000
  38473511.285
 202179350.048 7                                       257.057
                        43.000
  39731488.642                    39731488.364
 208790424.442 6                 155914903.724 7       146.554
       109.412          39.000                          43.000
  41580430.582                    41580438.116
 218506615.618 5                 163170544.086 6       138.650
       103.595          35.000                          38.000
  38323863.751                    38323869.167
 201393339.873 8                 150391083.658 7       141.766
       105.799          48.000                          47.000
 18  7  4 14  2 30.0000000  0 28G04G07G08G10G13G15G16G18G20G21G26G27
                                G30R01R07R08R13R14R15R17R22R23R24S23
                                S25S27S28S36
  23937459.426    23937459.613                    23937459.115    23937459.346
 125792193.995 5  98019891.846 5                     -3733.779       -2909.507
                        33.000          33.000
  24483898.566    24483898.034                    24483897.878    24483897.538
 128663764.714 4 100257481.630 4                       290.637         226.469
                        28.000          28.000
  22785577.520    22785579.687    22785577.425    22785577.029    22785580.004
 119739038.797 6  93303153.747 6  89415530.566 8      3003.008        2340.010
      2242.512          36.000          36.000          52.000
  21571361.881    21571363.280    21571360.319    21571361.813    21571363.516
 113358311.417 7  88331162.521 7  84650712.256 9      2378.893        1853.661
      1776.449          44.000          44.000          55.000
  25331694.127                                    25331694.124    25331693.984
 133118947.912 3 103729050.702 3                       -26.695         -20.730
                        21.000          21.000
  24520202.095    24520202.442                    24520202.689    24520202.521
 128854542.337 5 100406139.333 5                       736.561         573.936
                        30.000          30.000
  21179396.238                                    21179395.746    21179394.804
 111298495.941 7  86726105.384 7                     -1992.368       -1552.449
                        42.000          42.000
  25092058.576                                    25092056.540    25092059.142
 131859653.808 3 102747783.083 3                      3864.258        3011.161
                        19.000          19.000
  20896048.564                                    20896047.860    20896047.179
 109809531.828 6  85565881.591 6                       368.962         287.511
                        41.000          41.000
  22654304.445                                    22654303.848    22654303.208
 119049211.673 6  92765628.470 6                     -2097.284       -1634.226
                        38.000          38.000
  22872447.517    22872450.256    22872447.821    22872447.713    22872450.076
 120195532.476 6  93658858.517 6  89756407.978 8     -3269.463       -2547.610
     -2441.461          39.000          39.000          52.000
  20399336.878    20399338.069    20399335.786    20399336.882    20399337.725
 107199267.597 7  83531904.656 7  80051419.644 9      1283.262         999.973
       958.312          47.000          47.000          57.000
  25428416.783    25428419.186    25428419.102    25428415.931    25428419.777
 133627229.416 4 104125115.080 4  99786572.233 8      1628.732        1269.204
      1216.332          25.000          25.000          51.000
  23157459.890    23157463.947                    23157459.094    23157464.636
 123789900.908 7  96281051.593 6                      4527.415        3521.371
                        43.000          37.000
  21808414.383    21808415.483                    21808414.306    21808415.888
 116742183.709 8  90799496.206 7                     -1340.720       -1042.776
                        52.000          47.000
  21105441.550    21105443.074                    21105441.405    21105442.916
 113018767.227 8  87903466.472 7                      2440.715        1898.353
                        53.000          47.000
  22456953.170    22456954.185                    22456952.763    22456955.081
 119918898.043 7  93270238.761 6                     -3971.968       -3089.234
                        44.000          39.000
  20913047.128    20913048.584                    20913047.251    20913048.798
 111478624.500 8  86705395.644 7                      -924.952        -719.382
                        53.000          47.000
  22100439.818    22100443.462                    22100441.415    22100443.080
 118098051.757 8  91854045.271 6                      2186.180        1700.406
                        48.000          38.000
  24446928.486    24446931.865                    24446927.744    24446930.494
 130820485.882 7 101749242.156 6                      3554.046        2764.349
                        43.000          38.000
  23217321.903    23217325.060                    23217321.221    23217323.935
 123935644.231 8  96394396.720 7                     -3108.706       -2417.894
                        48.000          45.000
  19619848.098    19619850.608                    19619848.285    19619851.461
 104953004.217 9  81630123.831 7                      -670.553        -521.520
                        54.000          43.000
  20617792.026    20617793.186                    20617793.318    20617793.176
 110252600.855 7  85752048.493 6                      2284.482        1776.785
                        46.000          36.000
  38682709.616                    38682718.548
 203278980.674 7                 151799232.671 7       136.722
       102.076          47.000                          44.000
  38472112.459
 202171646.147 7                                       256.869
                        43.000
  39730650.825                    39730651.069
 208786023.781 6                 155911617.315 7       146.537
       109.429          38.000                          43.000
  41579637.833                    41579646.736
 218502456.505 5                 163167438.337 6       138.563
       103.310          35.000                          38.000
  38323053.357                    38323058.884
 201389082.808 7                 150387904.214 7       141.670
       105.822          47.000                          47.000
 18  7  4 14  3  0.0000000  0 28G04G07G08G10G13G15G16G18G20G21G26G27
                                G30R01R07R08R13R14R15R17R22R23R24S23
                                S25S27S28S36
  23958787.043    23958788.722                    23958787.225    23958788.492
 125904275.502 5  98107227.994 5                     -3738.024       -2912.777
                        35.000          35.000
  24482291.611    24482292.259                    24482291.599    24482291.530
 128655324.217 4 100250904.622 4                       272.135         212.088
                        27.000          27.000
  22768450.494    22768452.878    22768450.269    22768450.147    22768452.639
 119649035.490 6  93233021.315 6  89348320.333 8      2997.379        2335.723
      2238.338          37.000          37.000          52.000
  21557826.840    21557829.060    21557825.893    21557826.844    21557828.951
 113287186.145 7  88275740.244 7  84597599.245 9      2363.001        1841.336
      1764.611          44.000          44.000          55.000
  25331901.783                                    25331900.165    25331898.450
 133120034.077 3 103729897.037 3                       -45.751         -35.548
                        18.000          18.000
  24516050.742    24516050.395                    24516051.333    24516050.842
 128832728.265 5 100389141.364 5                       717.909         559.435
                        32.000          32.000
  21190818.354                                    21190818.352    21190817.124
 111358522.122 6  86772879.017 6                     -2009.186       -1565.560
                        41.000          41.000
  25070005.424                                    25070004.255    25070007.610
 131743764.944 3 102657480.136 3                      3861.790        3009.219
                        22.000          22.000
  20894000.782                                    20893999.942    20893999.775
 109798771.186 7  85557496.689 7                       348.624         271.671
                        42.000          42.000
  22666293.650                                    22666292.873    22666292.193
 119112213.748 6  92814720.993 6                     -2102.633       -1638.393
                        38.000          38.000
  22891136.946    22891139.988    22891137.655    22891136.266    22891139.408
 120293746.921 6  93735389.213 6  89829749.883 8     -3277.983       -2554.267
     -2447.840          38.000          38.000          53.000
  20392048.758    20392049.477    20392047.422    20392048.589    20392049.371
 107160967.025 7  83502060.050 7  80022818.568 9      1270.368         989.942
       948.683          47.000          47.000          57.000
  25419165.141    25419168.812    25419168.053    25419164.882    25419168.411
 133578615.922 4 104087234.430 4  99750269.954 8      1612.335        1256.369
      1204.023          25.000          25.000          49.000
  23132065.476    23132069.016                    23132064.247    23132068.446
 123654151.528 7  96175468.801 6                      4522.762        3517.704
                        44.000          37.000
  21816001.507    21816002.471                    21816001.009    21816002.634
 116782795.349 8  90831083.032 7                     -1366.491       -1062.843
                        52.000          47.000
  21091833.177    21091835.047                    21091833.004    21091834.407
 112945895.246 8  87846788.287 7                      2417.593        1880.381
                        53.000          47.000
  22479296.459    22479298.391                    22479293.832    22479297.671
 120038203.758 7  93363032.005 6                     -3981.488       -3096.750
                        43.000          39.000
  20918329.370    20918330.727                    20918329.851    20918331.143
 111506783.478 8  86727297.055 7                      -952.076        -740.502
                        53.000          47.000
  22088237.112    22088240.848                    22088236.878    22088239.211
 118032836.363 8  91803322.224 6                      2161.666        1681.266
                        48.000          38.000
  24427006.101    24427011.178                    24427006.390    24427009.565
 130713881.412 7 101666327.585 6                      3553.152        2763.704
                        42.000          37.000
  23234800.583    23234803.063                    23234801.050    23234803.686
 124028951.691 8  96466969.135 7                     -3111.531       -2420.062
                        49.000          44.000
  19623644.886    19623648.096                    19623645.453    19623648.402
 104973315.869 8  81645921.779 7                      -683.302        -531.458
                        53.000          43.000
  20605003.734    20605007.657                    20605004.562    20605004.986
 110184219.495 7  85698862.998 6                      2274.647        1769.171
                        47.000          36.000
  38681930.451                    38681939.840
 203274889.142 7                 151796177.496 7       136.262
       101.763          46.000                          44.000
  38470719.214
 202163954.307 7                                       256.353
                        42.000
  39729819.239                    39729816.058
 208781637.123 6                 155908341.102 7       146.213
       109.344          39.000                          43.000
  41578849.290                    41578857.847
 218498310.013 6                 163164338.341 6       137.902
       102.918          36.000                          39.000
  38322245.910                    38322251.177
 201384839.846 7                 150384728.622 7       141.430
       105.581          47.000                          47.000
 18  7  4 14  3 30.0000000  0 28G04G07G08G10G13G15G16G18G20G21G26G27
                                G30R01R07R08R13R14R15R17R22R23R24S23
                                S25S27S28S36
  23980137.014    23980138.227                    23980137.927    23980137.909
 126016468.536 5  98194651.059 5                     -3741.576       -2915.512
                        34.000          34.000
  24480789.793    24480788.893                    24480789.780    24480788.786
 128647426.588 4 100244750.626 4                       254.139         197.988
                        27.000          27.000
  22751353.084    22751355.979    22751352.910    22751352.489    22751355.123
 119559188.134 6  93163010.413 6  89281226.550 8      2992.291        2331.643
      2234.484          36.000          36.000          52.000
  21544380.348    21544382.472    21544379.797    21544380.684    21544382.620
 113216526.253 7  88220680.596 7  84544833.752 9      2347.500        1829.204
      1752.994          43.000          43.000          56.000
  25332214.613                                    25332213.251    25332213.777
 133121677.475 3 103731177.635 3                       -64.073         -49.934
                        20.000          20.000
  24512003.642    24512003.542                    24512003.672    24512002.167
 128811458.345 5 100372567.428 5                       699.932         545.486
                        31.000          31.000
  21202334.830                                    21202334.232    21202333.310
 111419039.592 7  86820035.473 7                     -2025.437       -1578.269
                        42.000          42.000
  25047964.963                                    25047963.036    25047965.686
 131627938.864 4 102567226.150 4                      3859.767        3007.627
                        24.000          24.000
  20892066.872                                    20892066.246    20892065.460
 109788608.225 7  85549577.518 7                       328.790         256.225
                        42.000          42.000
  22678310.104                                    22678310.133    22678308.814
 119175363.139 6  92863928.275 6                     -2107.470       -1642.155
                        38.000          38.000
  22909872.752    22909875.480    22909873.558    22909872.607    22909875.824
 120392203.345 6  93812108.465 6  89903272.484 8     -3285.887       -2560.416
     -2453.753          39.000          39.000          53.000
  20384831.512    20384832.495    20384830.351    20384831.367    20384832.345
 107123040.655 7  83472507.042 7  79994496.931 9      1257.990         980.239
       939.406          47.000          47.000          57.000
  25410007.276    25410010.361    25410009.377    25410006.512    25410010.880
 133530487.074 4 104049731.425 4  99714329.577 8      1596.227        1243.873
      1192.035          25.000          25.000          48.000
  23106693.647    23106701.381                    23106693.811    23106699.217
 123518533.127 7  96069987.910 6                      4518.396        3514.336
                        44.000          37.000
  21823729.566    21823730.679                    21823729.661    21823730.652
 116824166.259 8  90863260.416 7                     -1391.663       -1082.411
                        52.000          46.000
  21078352.077    21078353.395                    21078351.828    21078353.436
 112873703.892 8  87790639.478 7                      2394.992        1862.813
                        52.000          47.000
  22501689.854    22501690.473                    22501687.990    22501690.665
 120157784.340 7  93456039.044 6                     -3990.534       -3103.741
                        42.000          39.000
  20923762.748    20923763.889                    20923762.565    20923764.449
 111535742.841 8  86749820.998 7                      -978.683        -761.203
                        53.000          46.000
  22076167.088    22076170.646                    22076168.045    22076170.311
 117968343.190 8  91753160.887 6                      2137.767        1662.715
                        48.000          38.000
  24407085.822    24407088.834                    24407085.831    24407090.018
 130607286.840 7 101583420.750 6                      3552.992        2763.503
                        42.000          37.000
  23252294.412    23252297.597                    23252294.342    23252296.982
 124122331.354 8  96539597.702 7                     -3113.858       -2421.875
                        49.000          45.000
  19627511.530    19627512.834                    19627511.156    19627514.400
 104993994.453 8  81662005.116 7                      -695.465        -540.908
                        53.000          43.000
  20592270.474    20592270.717                    20592270.102    20592270.847
 110116119.137 7  85645896.059 6                      2265.288        1761.943
                        47.000          36.000
  38681151.820                    38681160.153
 203270793.662 7                 151793119.019 7       136.611
       101.990          47.000                          44.000
  38469325.737
 202157644.452 7                                       256.200
                        43.000
  39728981.163                    39728981.076
 208777247.781 6                 155905063.289 7       146.282
       109.242          39.000                          43.000
  41578060.066                    41578068.145
 218494160.710 6                 163161240.541 6       138.566
       103.481          36.000                          39.000
  38321437.825                    38321443.116
 201380591.759 7                 150381556.732 7       141.616
       105.734          47.000                          46.000
 18  7  4 14  4  0.0000000  0 28G04G07G08G10G13G15G16G18G20G21G26G27
                                G30R01R07R08R13R14R15R17R22R23R24S23
                                S25S27S28S36
  24001509.334    24001510.312                    24001509.416    24001509.314
 126128777.084 5  98282164.159 5                     -3745.590       -2918.625
                        34.000          34.000
  24479390.936    24479391.129                    24479390.915    24479390.623
 128640077.517 4 100239024.072 4                       235.673         183.674
                        29.000          29.000
  22734286.482    22734289.152    22734286.560    22734286.316    22734289.134
 119469504.351 6  93093126.973 6  89214254.925 8      2986.663        2327.228
      2230.269          36.000          36.000          52.000
  21531025.374    21531026.384    21531023.697    21531025.264    21531026.782
 113146340.159 7  88165990.151 7  84492422.078 9      2331.493        1816.712
      1741.018          43.000          43.000          55.000
  25332633.028                                    25332633.257    25332633.059
 133123884.792 2 103732897.675 2                       -83.100         -64.692
                        17.000          17.000
  24508061.380    24508060.911                    24508061.380    24508060.813
 128790739.804 5 100356423.123 5                       681.258         530.879
                        31.000          31.000
  21213945.182                                    21213944.955    21213943.844
 111480053.059 6  86867578.421 6                     -2042.184       -1591.284
                        41.000          41.000
  25025936.934                                    25025937.002    25025937.975
 131512183.200 3 102477026.945 3                      3857.165        3005.554
                        21.000          21.000
  20890247.948                                    20890247.165    20890246.462
 109779049.860 7  85542129.442 7                       308.397         240.295
                        42.000          42.000
  22690356.382                                    22690356.027    22690354.901
 119238664.632 6  92913254.117 6                     -2112.731       -1646.326
                        38.000          38.000
  22928654.766    22928657.605    22928655.854    22928654.382    22928657.569
 120490905.624 6  93889019.277 6  89976978.665 8     -3294.251       -2566.981
     -2459.992          37.000          37.000          52.000
  20377686.903    20377687.789    20377685.808    20377686.723    20377687.758
 107085496.056 7  83443251.510 7  79966460.386 9      1244.928         970.080
       929.657          46.000          46.000          57.000
  25400943.184    25400946.127    25400944.383    25400941.478    25400945.380
 133482850.674 4 104012612.180 4  99678756.948 8      1579.651        1230.827
      1179.548          26.000          26.000          48.000
  23081350.671    23081354.398                    23081350.328    23081355.106
 123383056.163 7  95964617.027 6                      4513.406        3510.333
                        44.000          37.000
  21831600.337    21831602.107                    21831600.211    21831601.838
 116866300.934 8  90896031.825 7                     -1417.336       -1102.383
                        52.000          47.000
  21064999.415    21065000.852                    21064999.590    21065000.883
 112802203.095 8  87735027.782 8                      2371.661        1844.636
                        52.000          48.000
  22524134.609    22524138.484                    22524133.987    22524137.147
 120277641.421 7  93549261.118 6                     -4000.028       -3111.161
                        43.000          39.000
  20929346.320    20929348.283                    20929346.476    20929347.907
 111565506.831 9  86772970.754 7                     -1005.664        -782.184
                        54.000          46.000
  22064235.102    22064239.363                    22064235.577    22064238.510
 117904580.775 7  91703567.924 6                      2113.084        1643.563
                        47.000          39.000
  24387168.566    24387174.200                    24387169.513    24387172.095
 130500708.721 7 101500526.666 6                      3552.280        2762.905
                        43.000          36.000
  23269801.113    23269804.157                    23269801.604    23269804.934
 124215788.693 8  96612286.691 7                     -3116.679       -2424.088
                        49.000          44.000
  19631445.028    19631450.099                    19631446.199    19631449.574
 105015046.240 8  81678378.732 7                      -708.080        -550.727
                        53.000          43.000
  20579588.145    20579590.264                    20579588.891    20579589.839
 110048306.903 7  85593153.223 6                      2255.464        1754.309
                        47.000          36.000
  38680372.865                    38680381.665
 203266702.193 7                 151790063.681 7       136.214
       101.774          46.000                          44.000
  38467934.386
 202149961.369 7                                       255.685
                        43.000
  39728145.924                    39728146.094
 208772861.263 6                 155901787.508 7       146.001
       108.992          37.000                          43.000
  41577271.921                    41577279.290
 218490014.090 6                 163158143.662 6       137.668
       102.824          36.000                          38.000
  38320630.405                    38320635.548
 201376349.160 7                 150378395.860 7       141.234
       105.432          47.000                          47.000
 18  7  4 14  4 30.0000000  0 28G04G07G08G10G13G15G16G18G20G21G26G27
                                G30R01R07R08R13R14R15R17R22R23R24S23
                                S25S27S28S36
  24022902.390    24022902.627                    24022902.140    24022902.207
 126241199.020 5  98369765.614 5                     -3749.229       -2921.451
                        34.000          34.000
  24478096.718    24478096.309                    24478096.922    24478095.350
 128633277.154 4 100233725.049 4                       217.579         169.610
                        26.000          26.000
  22717251.977    22717254.407    22717251.540    22717250.983    22717254.291
 119379985.615 6  93023372.119 6  89147406.536 8      2981.311        2323.062
      2226.284          38.000          38.000          52.000
  21517760.011    21517761.058    21517758.286    21517759.923    21517761.567
 113076630.174 7  88111670.693 7  84440365.937 9      2315.796        1804.535
      1729.340          44.000          44.000          55.000
  25333160.583                                    25333160.540    25333161.358
 133126656.003 3 103735057.056 3                      -101.561         -78.984
                        18.000          18.000
  24504224.030    24504223.217                    24504223.858    24504223.350
 128770574.618 5 100340710.006 5                       663.119         516.720
                        32.000          32.000
  21225650.060                                    21225649.422    21225648.648
 111541561.262 6  86915506.877 6                     -2058.372       -1603.904
                        41.000          41.000
  25003923.306                                    25003924.146    25003925.693
 131396499.542 4 102386883.915 4                      3855.082        3003.997
                        24.000          24.000
  20888544.168                                    20888543.463    20888542.797
 109770095.738 7  85535152.222 7                       288.609         224.930
                        42.000          42.000
  22702431.590                                    22702430.907    22702429.265
 119302118.091 6  92962698.338 6                     -2117.497       -1650.007
                        38.000          38.000
  22947483.577    22947486.512    22947484.942    22947483.620    22947486.537
 120589851.489 6  93966119.911 6  90050866.756 8     -3302.093       -2572.997
     -2465.829          37.000          37.000          53.000
  20370615.367    20370616.610    20370614.282    20370614.974    20370616.127
 107048334.542 7  83414294.493 7  79938709.909 9      1232.514         960.409
       920.399          46.000          46.000          58.000
  25391972.004    25391975.394    25391973.514    25391970.713    25391974.950
 133435708.432 4 103975877.921 4  99643553.324 8      1563.290        1218.146
      1167.404          27.000          27.000          48.000
  23056033.412    23056039.056                    23056034.312    23056038.324
 123247725.198 7  95859359.695 6                      4508.788        3506.843
                        45.000          37.000
  21839613.116    21839615.679                    21839613.048    21839615.274
 116909197.405 8  90929395.753 7                     -1442.409       -1121.879
                        51.000          46.000
  21051777.501    21051778.257                    21051777.105    21051778.521
 112731396.311 8  87679955.858 8                      2348.734        1826.816
                        53.000          48.000
  22546630.882    22546631.965                    22546630.834    22546633.383
 120397770.726 7  93642694.973 6                     -4008.708       -3117.868
                        44.000          39.000
  20935081.089    20935082.718                    20935080.709    20935081.745
 111596074.282 8  86796745.428 7                     -1032.170        -802.792
                        53.000          46.000
  22052440.107    22052442.974                    22052440.528    22052443.682
 117841552.901 7  91654546.264 6                      2088.762        1624.653
                        47.000          39.000
  24367256.196    24367262.288                    24367256.864    24367259.034
 130394147.995 7 101417646.120 6                      3551.900        2762.561
                        43.000          38.000
  23287324.563    23287325.991                    23287324.108    23287326.443
 124309323.332 8  96685035.808 7                     -3118.982       -2425.899
                        49.000          43.000
  19635450.866    19635454.025                    19635451.351    19635454.756
 105036471.442 8  81695042.785 7                      -720.294        -560.213
                        53.000          43.000
  20566962.200    20566963.192                    20566961.715    20566961.865
 109980784.157 7  85540635.539 6                      2245.996        1746.943
                        46.000          36.000
  38679595.082                    38679603.977
 203262614.046 7                 151787010.780 7       136.354
       101.878          46.000                          44.000
  38466544.469
 202142291.537 7                                       255.819
                        43.000
  39727313.497                    39727312.178
 208768478.999 6                 155898515.674 7       146.453
       109.373          36.000                          43.000
  41576483.119                    41576490.263
 218485870.376 5                 163155053.398 6       138.363
       103.295          34.000                          36.000
  38319823.352                    38319828.589
 201372109.167 7                 150375226.667 7       141.343
       105.633          46.000                          47.000
 18  7  4 14  5  0.0000000  0 28G04G07G08G10G13G15G16G18G20G21G26G27
                                G30R01R07R08R13R14R15R17R22R23R24S23
                                S25S27S28S36
  24044315.617    24044316.278                    24044314.668    24044316.444
 126353725.602 5  98457448.578 5                     -3752.478       -2923.974
                        33.000          33.000
  24476905.471    24476905.280                    24476904.686    24476906.002
 128627019.104 4 100228848.657 4                       199.640         155.575
                        26.000          26.000
