     2              OBSERVATION DATA    G (GPS)             RINEX VERSION / TYPE
TerraSat GeoGenius GPS+GLONASS Decoder  11-Jun-99 12:23:06  PGM / RUN BY / DATE
P001____                      P0013261                      MARKER NAME
                                                            OBSERVER / AGENCY
      8874          TRIMBLE              722 306            REC # / TYPE / VERS
00000000            EXT_COMP_L12_GP                         ANT # / TYPE
  4155077.6222   816409.8371  4754417.6170                  APPROX POSITION XYZ
        0.0000        0.0000        0.0000                  ANTENNA: DELTA H/E/N
     1     1     0                                          WAVELENGTH FACT L1/2
     5    C1    P2    L1    L2    D1                        # / TYPES OF OBSERV
     5                                                      INTERVAL
  1998    11    22    11    15   20.000000        GPS       TIME OF FIRST OBS
                                                            END OF HEADER
 98 11 22 11 15 20.0000000  0  8G02G27G10G13G17G18G19G26
  22826815.461                      -21167.40519         0.00000     -3020.688  
  20538782.828                        -164.65212         0.00000      -163.453  
  20796669.711                        2234.54919         0.00000       180.813  
  20655487.805                        1977.44219         0.00000       286.453  
  24766297.914                      -13974.15319         0.00000     -2325.688  
  24504003.563                       20377.48519         0.00000      2914.281  
  22350678.477                       15198.80819         0.00000      2174.594  
  23363535.852                      -55225.86219         0.00000     -3445.000  
 98 11 22 11 15 25.0000000  0  8G02G27G10G13G17G18G19G26
  22823943.656                      -36257.95809         0.00000     -3015.422  
  20538629.875                        -967.50503         0.00000      -157.516  
  20796845.023                        3155.17409         0.00000       187.609  
  20655762.906                        3423.50609         0.00000       292.141  
  24764087.766                      -25587.08609         0.00000     -2319.313  
  24506778.594                       34958.46709         0.00000      2918.328  
  22352749.734                       26082.86309         0.00000      2179.172  
  23360259.672                      -72440.95809         0.00000     -3440.891  
 98 11 22 11 15 30.0000000  0  8G02G27G10G13G17G18G19G26
  22821077.070                      -51322.88409         0.00000     -3010.422  
  20538482.344                       -1741.48001         0.00000      -151.891  
  20797026.461                        4108.71409         0.00000       194.016  
  20656043.367                        4897.27709         0.00000       297.547  
  24761883.633                      -37169.03409         0.00000     -2313.281  
  24509556.633                       49558.88509         0.00000      2922.078  
  22354825.055                       36988.80609         0.00000      2183.375  
  23356987.094                      -89636.59609         0.00000     -3437.156  
 98 11 22 11 15 35.0000000  0  8G02G27G10G13G17G18G19G26
  22818216.430                      -66356.61109         0.00000     -3003.141  
  20538341.609                       -2481.09801         0.00000      -144.047  
  20797215.375                        5100.60209         0.00000       202.656  
  20656330.211                        6404.42709         0.00000       305.250  
  24759686.195                      -48714.47309         0.00000     -2304.984  
  24512339.688                       64184.60409         0.00000      2928.141  
  22356905.586                       47922.22709         0.00000      2189.891  
  23353719.859                     -106807.08009         0.00000     -3431.125  
 98 11 22 11 15 40.0000000  0  8G02G27G10G13G17G18G19G26
  22815361.836                      -81357.44109         0.00000     -2997.219  
  20538207.734                       -3185.17405         0.00000      -137.609  
  20797411.063                        6132.39009         0.00000       210.000  
  20656623.656                        7946.44709         0.00000       311.547  
  24757497.313                      -60221.87109         0.00000     -2298.000  
  24515127.570                       78837.17509         0.00000      2932.859  
  22358991.750                       58884.96409         0.00000      2195.141  
  23350457.297    23350461.797     -123950.82509    -10683.88519     -3426.422  
 98 11 22 11 15 45.0000000  0  8G02G27G10G13G17G18G19G26
  22812512.547                      -96328.54909         0.00000     -2991.734  
  20538079.922                       -3856.92808         0.00000      -131.563  
  20797614.703                        7200.90809         0.00000       216.922  
  20656922.961                        9520.17509         0.00000       317.469  
  24755313.508                      -71694.20009         0.00000     -2291.406  
  24517921.422                       93513.49409         0.00000      2937.156  
  22361082.977                       69873.95809         0.00000      2199.969  
  23347199.711    23347203.648     -141071.18209    -24024.40109     -3422.234  
 98 11 22 11 15 50.0000000  0  8G02G27G10G13G17G18G19G26
  22809668.797    22809672.676     -111273.34209     -2324.82819     -2985.375  
  20537957.516                       -4499.52306         0.00000      -124.672  
  20797824.297    20797827.109        8303.01209       689.00619       224.719  
  20657227.891    20657228.816       11122.48209       501.36719       324.266  
  24753137.164                      -83134.53009         0.00000     -2283.906  
  24520714.898                      108210.28305         0.00000      2942.313  
  22363178.352                       80885.99409         0.00000      2205.641  
  23343945.555    23343949.305     -158171.62009    -37349.41009     -3417.156  
 98 11 22 11 15 55.0000000  0  8G02G27G10G13G17G18G19G26
  22806830.633    22806834.441     -126188.27809    -13946.85509     -2980.234  
  20537841.680    20537844.176       -5109.54006       -93.51519      -118.984  
  20798041.141    20798043.883        9442.10909      1576.62709       231.250  
  20657538.938    20657539.875       12756.55809      1774.67409       329.719  
  24750966.672                      -94539.21209         0.00000     -2277.609  
  24523519.250                      122930.93407         0.00000      2946.266  
  22365279.305    22365283.582       91924.52009      5160.75719      2210.125  
  23340696.266    23340701.070     -175248.53909    -50656.11209     -3413.281  
 98 11 22 11 16  0.0000000  0  8G02G27G10G13G17G18G19G26
  22803997.070    22804000.891     -141076.91909    -25548.38809     -2975.047  
  20537730.930    20537733.367       -5690.46104      -546.18109      -113.219  
  20798264.469    20798266.801       10614.33009      2490.06509       237.813  
  20657855.250    20657855.953       14418.52609      3069.72006       335.234  
  24748802.539                     -105911.94309         0.00000     -2271.297  
  24526325.148                      137671.63609         0.00000      2950.141  
  22367383.844    22367388.098      102985.88709     13779.99209      2214.641  
  23337450.258    23337454.898     -192305.54609    -63947.29009     -3409.328  
 98 11 22 11 16  5.0000000  0  8G02G27G10G13G17G18G19G26
  22801169.164    22801173.066     -155937.98009    -37128.43709     -2969.406  
  20537626.297    20537628.664       -6240.93406      -975.11809      -107.016  
  20798493.641    20798496.219       11820.89209      3430.24309       244.781  
  20658177.078    20658177.945       16109.81809      4387.61608       341.250  
  24746645.039                     -117251.33709         0.00000     -2264.469  
  24529132.906                      152433.77607         0.00000      2954.641  
  22369493.328    22369497.863      114071.72509     22418.30809      2219.688  
  23334208.508    23334213.301     -209340.79409    -77221.49309     -3404.813  
 98 11 22 11 16 10.0000000  0  8G02G27G10G13G17G18G19G26
  22798346.313    22798350.098     -170772.68709    -48687.93709     -2964.297  
  20537527.102    20537529.445       -6762.21603     -1381.30809      -101.344  
  20798729.797    20798732.715       13060.57009      4396.22809       251.234  
  20658504.281    20658505.184       17829.29409      5727.46709       346.703  
  24744493.117                     -128558.17109         0.00000     -2258.125  
  24531947.172                      167216.13109         0.00000      2958.516  
  22371607.523    22371611.918      125181.16409     31075.00209      2224.266  
  23330970.680    23330975.414     -226355.24309    -90479.48209     -3400.797  
 98 11 22 11 16 15.0000000  0  8G02G27G10G13G17G18G19G26
  22795528.195    22795531.992     -185581.75509    -60227.46509     -2959.672  
  20537433.266    20537435.621       -7255.24804     -1765.48709       -96.203  
  20798971.820    20798974.551       14332.51409      5387.35109       257.188  
  20658836.766    20658837.668       19576.23309      7088.71509       351.719  
  24742348.109    24742351.355     -139833.00709     -7024.89119     -2252.156  
  24534762.273    24534768.660      182017.81509      9225.43819      2961.844  
  22373726.063    22373730.293      136313.66009     39749.66109      2228.391  
  23327736.656    23327740.852     -243349.53009   -103721.76209     -3397.250  
 98 11 22 11 16 20.0000000  0  8G02G27G10G13G17G18G19G26
  22792714.305    22792718.336     -200366.79809    -71748.27009     -2954.688  
  20537344.500    20537346.844       -7721.75806     -2129.00309       -90.719  
  20799219.609    20799222.410       15634.93509      6402.21709       263.453  
  20659174.164    20659174.926       21349.09109      8470.15409       357.094  
  24740207.758    24740211.461     -151077.31909    -15786.69709     -2245.891  
  24537585.273    24537592.145      196837.23509     20772.99209      2965.578  
  22375848.836    22375852.785      147467.69509     48441.10309      2232.891  
  23324506.734    23324510.039     -260325.23509   -116949.57709     -3393.375  
 98 11 22 11 16 25.0000000  0  8G02G27G10G13G17G18G19G26
  22789905.773    22789909.793     -215128.10309    -83250.58309     -2949.703  
  20537260.945    20537263.266       -8161.72506     -2471.83809       -85.156  
  20799473.430    20799475.914       16967.81609      7440.82709       269.828  
  20659516.391    20659517.094       23147.64509      9871.62109       362.453  
  24738073.844    24738076.527     -162291.32409    -24524.86309     -2239.578  
  24540406.992    24540410.426      211674.21809     32334.21909      2969.297  
  22377975.344    22377979.199      158643.05109     57149.16409      2237.391  
  23321279.750    23321282.633     -277282.45209   -130162.98909     -3389.391  
 98 11 22 11 16 30.0000000  0  8G02G27G10G13G17G18G19G26
  22787102.281    22787106.582     -229861.01809    -94730.77309     -2944.188  
  20537183.086    20537185.488       -8570.41304     -2790.30009       -79.047  
  20799733.914    20799736.457       18335.90409      8506.88509       276.703  
  20659864.398    20659864.973       24976.64509     11296.81909       368.406  
  24735946.867    24735949.609     -173470.34909    -33235.78409     -2232.750  
  24543232.414    24543241.453      226533.40605     43912.81409      2973.672  
  22380106.492    22380110.441      169844.44309     65877.52009      2242.453  
  23318056.961    23318060.043     -294216.30409   -143358.18809     -3384.875  
 98 11 22 11 16 35.0000000  0  8G02G27G10G13G17G18G19G26
  22784302.836    22784306.914     -244571.39109   -106193.40109     -2939.594  
  20537110.242    20537112.738       -8953.51502     -3088.82709       -73.813  
  20799999.648    20800002.941       19733.50509      9595.91509       282.703  
  20660217.016    20660217.566       26830.22709     12741.17009       373.406  
  24733825.414    24733827.957     -184620.33009    -41924.06209     -2226.844  
  24546064.938    24546074.328      241408.80507     55503.97809      2976.859  
  22382242.047    22382246.219      181066.03709     74621.62309      2246.563  
  23314838.086    23314840.477     -311132.54209   -156539.66209     -3381.281  
 98 11 22 11 16 40.0000000  0  8G02G27G10G13G17G18G19G26
  22781508.219    22781512.133     -259256.71709   -117636.51609     -2935.109  
  20537042.656    20537045.105       -9308.30805     -3365.29209       -68.672  
  20800271.750    20800274.586       21163.25609     10709.99209       288.656  
  20660574.969    20660575.566       28710.87409     14206.60509       378.297  
  24731709.445    24731712.527     -195738.60709    -50587.64509     -2221.000  
  24548899.906    24548907.480      256302.89509     67109.73609      2980.172  
  22384381.758    22384385.730      192310.47809     83383.52509      2250.641  
  23311623.117    23311626.691     -328028.75809   -169705.53909     -3377.781  
 98 11 22 11 16 45.0000000  0  8G02G27G10G13G17G18G19G26
  22778718.031    22778722.602     -273919.59609   -129062.13409     -2930.609  
  20536980.008    20536982.434       -9637.24403     -3621.60709       -63.500  
  20800549.477    20800552.723       22622.81509     11847.31009       294.609  
  20660937.375    20660937.973       30615.92709     15691.05809       383.156  
  24729599.172    24729602.922     -206827.45909    -59228.30409     -2215.109  
  24551736.719    24551744.199      271213.30209     78728.24809      2983.438  
  22386525.539    22386529.629      203575.33609     92161.32309      2254.719  
  23308411.125    23308413.715     -344907.43909   -182857.75709     -3374.250  
 98 11 22 11 16 50.0000000  0  8G02G27G10G13G17G18G19G26
  22775931.758    22775936.539     -288560.30809   -140470.46909     -2926.031  
  20536922.320    20536924.676       -9940.87702     -3858.20509       -58.313  
  20800833.320    20800836.367       24111.71109     13007.49109       300.594  
  20661304.609    20661305.336       32544.88209     17194.14009       388.078  
  24727494.586    24727498.383     -217887.27509    -67846.34109     -2209.172  
  24554576.125    24554584.824      286139.72907     90359.23609      2986.797  
  22388672.984    22388676.980      214860.23609    100954.75109      2258.891  
  23305201.898    23305204.371     -361769.07409   -195996.67809     -3370.734  
 98 11 22 11 16 55.0000000  0  8G02G27G10G13G17G18G19G26
  22773150.055    22773154.742     -303179.45309   -151862.00209     -2921.406  
  20536869.102    20536871.434      -10219.77602     -4075.53209       -53.047  
  20801121.875    20801124.746       25629.44309     14190.13709       306.719  
  20661675.922    20661676.555       34497.19509     18715.42008       393.047  
  24725395.055    24725398.031     -228918.76409    -76442.29709     -2203.203  
  24557421.672    24557428.836      301081.54709    102002.13409      2990.125  
  22390823.945    22390827.648      226164.71109    109763.42209      2263.094  
  23301996.734    23301999.477     -378614.24009   -209122.78009     -3367.141  
 98 11 22 11 17  0.0000000  0  8G02G27G10G13G17G18G19G26
  22770372.656    22770377.016     -317776.80409   -163236.55209     -2917.375  
  20536820.984    20536823.410      -10473.47602     -4273.22109       -48.281  
  20801416.008    20801418.973       27176.40709     15395.56109       312.266  
  20662052.047    20662052.855       36473.15409     20255.12707       397.500  
  24723301.117    24723305.148     -239921.50509    -85015.85909     -2197.734  
  24560266.258    24560273.188      316039.17909    113657.40209      2993.063  
  22392978.742    22392982.492      237488.89809    118587.45409      2266.766  
  23298794.516    23298797.199     -395442.53309   -222235.72109     -3364.031  
 98 11 22 11 17  5.0000000  0  8G02G27G10G13G17G18G19G26
  22767598.430    22767603.117     -332353.03209   -174594.65109     -2913.297  
  20536777.273    20536779.723      -10702.34409     -4451.56009       -43.422  
  20801716.055    20801719.371       28752.22409     16623.47309       317.922  
  20662432.578    20662433.352       38472.47609     21813.04306       402.094  
  24721212.867    24721216.770     -250895.78009    -93567.23309     -2192.125  
  24563115.633    24563123.887      331012.53807    125324.94209      2996.094  
  22395137.625    22395141.352      248832.67909    127426.77409      2270.609  
  23295595.438    23295597.547     -412254.10309   -235335.63609     -3360.719  
 98 11 22 11 17 10.0000000  0  8G02G27G10G13G17G18G19G26
  22764828.453    22764833.270     -346909.34309   -185937.22609     -2909.047  
  20536738.047    20536740.555      -10907.33307     -4611.28809       -38.375  
  20802021.008    20802024.359       30356.06209     17873.20609       323.813  
  20662817.344    20662818.176       40494.18109     23388.40703       406.781  
  24719130.453    24719133.852     -261842.43009   -102097.07709     -2186.328  
  24565969.695    24565978.629      346000.82109    137004.15809      2999.391  
  22397300.266    22397303.605      260195.01609    136280.57309      2274.500  
  23292399.805    23292402.172     -429049.69209   -248423.09309     -3357.313  
 98 11 22 11 17 15.0000000  0  8G02G27G10G13G17G18G19G26
  22762062.359    22762067.070     -361444.61609   -197263.41409     -2905.109  
  20536703.773    20536706.457      -11087.13709     -4751.39409       -33.609  
  20802331.781    20802334.582       31989.33109     19145.88109       329.453  
  20663206.414    20663207.188       42539.39009     24982.07906       411.250  
  24717052.453    24717056.145     -272760.10409   -110604.35209     -2180.781  
  24568824.211    24568831.055      361005.26109    148695.93309      3002.344  
  22399466.211    22399469.680      271576.68609    145149.41709      2278.125  
  23289206.609    23289208.625     -445828.17009   -261497.21509     -3354.156  
 98 11 22 11 17 20.0000000  0  8G02G27G10G13G17G18G19G26
  22759300.352    22759304.840     -375960.11309   -208574.18409     -2901.047  
  20536674.281    20536676.883      -11243.10009     -4872.92609       -28.750  
  20802647.797    20802650.293       33650.67809     20440.43909       335.125  
  20663599.875    20663600.660       44606.94509     26593.15906       415.828  
  24714979.328    24714983.324     -283650.01809   -119089.98609     -2175.156  
  24571682.633    24571688.211      376024.69809    160399.34709      3005.469  
  22401635.211    22401638.551      282976.42809    154032.32509      2281.797  
  23286017.133    23286019.043     -462590.95409   -274559.11609     -3350.906  
 98 11 22 11 17 25.0000000  0  8G02G27G10G13G17G18G19G26
  22756542.523    22756547.047     -390453.36309   -219867.61709     -2896.563  
  20536649.586    20536652.258      -11373.08208     -4974.21109       -23.531  
  20802969.891    20802972.914       35342.09009     21758.41009       341.172  
  20663998.031    20663998.758       46698.94809     28223.29007       420.703  
  24712914.281    24712918.711     -294510.14509   -127552.39709     -2169.156  
  24574543.992    24574551.016      391061.24809    172116.04409      3008.906  
  22403808.461    22403811.883      294396.37901    162930.97809      2285.891  
  23282830.391    23282832.441     -479335.75509   -287607.00809     -3347.297  
 98 11 22 11 17 30.0000000  0  8G02G27G10G13G17G18G19G26
  22753788.195    22753792.180     -404926.95009   -231145.73409     -2892.719  
  20536629.398    20536632.023      -11479.70001     -5057.28305       -18.953  
  20803296.570    20803299.652       37060.88109     23097.72309       346.531  
  20664400.133    20664400.578       48812.63109     29870.31203       424.953  
  24710852.094    24710856.617     -305343.08609   -135993.65509     -2163.859  
  24577407.836    24577413.027      406112.17109    183844.02209      3011.656  
  22405985.000    22405987.777      305834.16701    171843.52309      2289.406  
  23279646.961    23279649.340     -496065.42709   -300643.10109     -3344.391  
 98 11 22 11 17 35.0000000  0  8G02G27G10G13G17G18G19G26
  22751038.063    22751042.082     -419379.66809   -242407.59409     -2888.516  
  20536613.758    20536616.559      -11561.82001     -5121.27504       -14.047  
  20803629.250    20803632.484       38808.25809     24459.31309       352.266  
  20664806.875    20664807.168       50949.20909     31535.17603       429.547  
  24708796.461    24708802.461     -316147.72909   -144412.83409     -2158.156  
  24580274.328    24580280.316      421178.62509    195584.09009      3014.781  
  22408165.234    22408167.824      317291.22701    180771.09709      2293.281  
  23276466.805    23276468.891     -512778.78809   -313666.48709     -3341.094  
 98 11 22 11 17 40.0000000  0  8G02G27G10G13G17G18G19G26
  22748291.086    22748295.352     -433815.48109   -253656.27709     -2885.281  
  20536601.797    20536604.691      -11623.72001     -5169.51603       -10.188  
  20803966.164    20803969.316       40580.18109     25840.03509       357.016  
  20665216.945    20665217.344       53104.52409     33214.63903       433.125  
  24706745.281    24706749.758     -326928.18609   -152813.19009     -2153.500  
  24583144.734    24583149.469      436256.33109    207332.93109      3016.813  
  22410348.914    22410351.434      328763.61801    189710.62109      2296.219  
  23273288.531    23273291.098     -529480.11109   -326680.50509     -3338.891  
 98 11 22 11 17 45.0000000  0  8G02G27G10G13G17G18G19G26
  22745547.672    22745552.031     -448232.56309   -264890.36009     -2881.078  
  20536594.188    20536597.035      -11663.68001     -5200.64601        -5.344  
  20804308.703    20804312.125       42378.29609     27241.16109       362.688  
  20665631.063    20665631.344       55280.17709     34909.95901       437.609  
  24704698.414    24704702.527     -337682.75709   -161193.38509     -2147.875  
  24586015.922    24586021.594      451346.73009    219091.60009      3019.797  
  22412534.984    22412537.164      340253.09401    198663.43709      2300.063  
  23270112.273    23270114.664     -546167.75609   -339683.85809     -3335.719  
 98 11 22 11 17 50.0000000  0  8G02G27G10G13G17G18G19G26
  22742808.492    22742812.746     -462627.94109   -276107.53609     -2876.859  
  20536591.242    20536593.984      -11678.96101     -5212.54601        -0.578  
  20804656.484    20804659.941       44205.31709     28664.81709       368.328  
  20666049.445    20666049.738       57478.68709     36623.07901       441.984  
  24702657.008    24702660.887     -348408.61609   -169551.19709     -2142.266  
  24588890.781    24588896.828      466452.72209    230862.51009      3022.844  
  22414725.055    22414727.281      351762.43501    207631.72309      2303.875  
  23266940.063    23266942.734     -562838.87109   -352674.32909     -3332.547  
 98 11 22 11 17 55.0000000  0  8G02G27G10G13G17G18G19G26
  22740073.133    22740077.211     -477001.87909   -287307.99909     -2872.484  
  20536593.055    20536595.797      -11670.24201     -5205.74501         4.297  
  20805009.438    20805012.742       46060.89709     30110.71809       374.125  
  20666472.070    20666472.223       59699.26309     38353.39601       446.469  
  24700620.688    24700624.074     -359106.30509   -177887.04909     -2136.578  
  24591767.484    24591775.082      481573.92309    242645.19109      3025.875  
  22416919.016    22416921.406      363291.07901    216615.06609      2307.797  
  23263770.758    23263773.957     -579493.88409   -365652.24009     -3329.250  
 98 11 22 11 18  0.0000000  0  8G02G27G10G13G17G18G19G26
  22737342.516    22737346.570     -491351.77309   -298489.72409     -2867.719  
  20536599.664    20536602.465      -11634.97401     -5178.25501         9.594  
  20805368.648    20805372.328       47947.65509     31580.90809       380.328  
  20666899.211    20666899.398       61944.26809     40102.75401       451.313  
  24698591.766    24698595.703     -369773.35109   -186199.01209     -2130.469  
  24594649.617    24594658.516      496712.78209    254441.67909      3029.391  
  22419116.922    22419119.371      374841.47301    225615.36709      2312.125  
  23260604.852    23260608.648     -596130.58909   -378615.88409     -3325.656  
 98 11 22 11 18  5.0000000  0  8G02G27G10G13G17G18G19G26
  22734616.141    22734620.090     -505678.56509   -309653.45309     -2863.000  
  20536611.273    20536614.086      -11573.80001     -5130.58601        14.828  
  20805733.078    20805736.184       49864.57109     33074.61409       386.406  
  20667330.852    20667330.945       64212.89209     41870.51001       456.109  
  24696566.977    24696571.102     -380410.56309   -194487.73409     -2124.438  
  24597532.891    24597538.785      511868.28609    266251.14309      3032.813  
  22421318.813    22421321.367      386412.73101    234631.92809      2316.375  
  23257442.633    23257446.313     -612749.92909   -391565.99409     -3322.078  
 98 11 22 11 18 10.0000000  0  8G02G27G10G13G17G18G19G26
  22731893.703    22731897.746     -519984.74909   -320801.12609     -2859.000  
  20536627.195    20536630.184      -11489.57901     -5064.96601        19.297  
  20806102.891    20806106.066       51809.00809     34589.76009       391.813  
  20667766.648    20667766.695       66502.52509     43654.64001       460.188  
  24694547.570    24694552.223     -391020.79609   -202755.44709     -2119.203  
  24600419.477    24600423.273      527037.77809    278071.47109      3035.469  
  22423524.266    22423526.797      398002.27601    243662.75109      2319.906  
  23254282.250    23254285.977     -629354.25709   -404504.40909     -3319.203  
 98 11 22 11 18 15.0000000  0  8G02G27G10G13G17G18G19G26
  22729175.797    22729179.840     -534266.65309   -331929.88109     -2854.266  
  20536648.586    20536651.457      -11378.86809     -4978.70101        24.500  
  20806479.438    20806482.543       53784.54709     36129.13709       397.938  
  20668207.188    20668207.164       68816.78009     45457.95101       465.031  
  24692535.328    24692541.633     -401600.72909   -210999.53009     -2113.266  
  24603309.859    24603314.887      542224.94909    289905.61809      3038.828  
  22425733.805    22425736.699      409613.73401    252710.64209      2324.203  
  23251125.867    23251129.488     -645939.84109   -417428.23009     -3315.547  
 98 11 22 11 18 20.0000000  0  8G02G27G10G13G17G18G19G26
  22726462.547    22726466.602     -548524.72809   -343040.06509     -2849.063  
  20536674.305    20536677.234      -11242.08801     -4872.12501        30.109  
  20806860.922    20806863.910       55790.93409     37692.56409       404.516  
  20668652.055    20668652.125       71155.53009     47280.35201       470.375  
  24690526.953    24690533.352     -412150.93609   -219220.43809     -2106.891  
  24606202.547    24606208.734      557429.55009    301753.35409      3042.844  
  22427947.602    22427950.063      421246.98101    261775.52209      2329.016  
  23247973.156    23247976.730     -662506.96409   -430337.65109     -3311.422  
 98 11 22 11 18 25.0000000  0  8G02G27G10G13G17G18G19G26
  22723754.055    22723758.273     -562758.18809   -354131.07009     -2843.984  
  20536705.609    20536708.551      -11078.61601     -4744.75201        35.594  
  20807248.984    20807251.973       57828.90409     39280.59309       411.000  
  20669101.953    20669102.070       73519.65605     49122.52701       475.594  
  24688523.891    24688530.938     -422670.69709   -227417.66209     -2100.688  
  24609100.313    24609102.691      572652.32509    313615.30609      3046.609  
  22430165.602    22430167.570      432902.74201    270857.94409      2333.625  
  23244824.477    23244827.828     -679054.99809   -443232.21209     -3307.484  
 98 11 22 11 18 30.0000000  0  8G02G27G10G13G17G18G19G26
  22721050.523    22721054.742     -576964.90209   -365201.23509     -2838.250  
  20536742.078    20536744.832      -10886.54604     -4595.09904        41.688  
  20807642.672    20807645.098       59900.42509     40894.76809       418.078  
  20669556.797    20669556.879       75910.96604     50985.88704       481.375  
  24686527.875    24686535.672     -433158.17409   -235589.73109     -2093.859  
  24612000.727    24612004.594      587895.12209    325492.78809      3050.984  
  22432388.109    22432389.855      444582.93301    279959.42709      2338.906  
  23241679.148    23241682.992     -695582.21009   -456110.53509     -3302.938  
 98 11 22 11 18 35.0000000  0  8G02G27G10G13G17G18G19G26
  22718352.352    22718356.828     -591144.54209   -376250.29709     -2833.031  
  20536784.195    20536786.785      -10665.48404     -4422.85308        47.313  
  20808043.445    20808046.281       62005.86009     42535.36409       424.672  
  20670017.367    20670017.285       78329.64101     52870.56906       486.656  
  24684537.977    24684546.383     -443613.30309   -243736.59609     -2087.625  
  24614905.047    24614911.117      603158.42009    337386.23509      3054.922  
  22434615.578    22434617.406      456287.82401    289080.15809      2343.641  
  23238538.656    23238542.066     -712088.36409   -468972.46109     -3298.938  
 98 11 22 11 18 40.0000000  0  8G02G27G10G13G17G18G19G26
  22715659.180    22715663.797     -605296.86509   -387278.07909     -2827.984  
  20536831.719    20536834.461      -10414.94401     -4227.62907        52.813  
  20808451.016    20808453.875       64145.49909     44202.61609       431.094  
  20670482.758    20670482.781       80775.96801     54776.79607       491.781  
  24682556.211    24682563.996     -454035.82909   -251858.03509     -2081.469  
  24617813.117    24617819.598      618442.61809    349295.96609      3058.641  
  22436847.625    22436850.027      468017.37101    298220.06509      2348.141  
  23235402.141    23235404.883     -728573.21509   -481817.79209     -3295.078  
 98 11 22 11 18 45.0000000  0  8G02G27G10G13G17G18G19G26
  22712971.078    22712975.613     -619422.75809   -398285.26709     -2822.000  
  20536885.125    20536887.785      -10135.67001     -4010.00804        59.266  
  20808864.250    20808867.273       66318.40809     45895.80109       438.453  
  20670953.523    20670953.641       83249.02301     56703.84607       497.813  
  24680579.180    24680585.883     -464426.60409   -259954.71309     -2074.438  
  24620725.141    24620730.531      633746.77909    361221.25509      3063.313  
  22439084.180    22439086.898      479770.68901    307378.48109      2353.563  
  23232268.578    23232270.852     -745037.75709   -494647.29909     -3290.375  
 98 11 22 11 18 50.0000000  0  8G02G27G10G13G17G18G19G26
  22710288.930    22710293.500     -633516.96409   -409267.76209     -2815.578  
  20536944.570    20536947.277       -9822.54201     -3766.00602        66.094  
  20809284.820    20809288.336       68529.81809     47618.96809       446.203  
  20671430.070    20671430.105       85753.96307     58655.74305       504.234  
  24678608.000    24678615.117     -474780.29309   -268022.53509     -2066.969  
  24623642.039    24623649.215      649076.00209    373166.03109      3068.469  
  22441326.281    22441328.895      491552.87101    316559.38409      2359.406  
  23229139.992    23229142.570     -761476.98809   -507457.08909     -3285.234  
 98 11 22 11 18 55.0000000  0  8G02G27G10G13G17G18G19G26
  22707612.953    22707617.512     -647579.46809   -420225.55209     -2809.500  
  20537010.445    20537013.234       -9475.54701     -3495.61601        72.625  
  20809713.500    20809716.805       70779.56409     49372.01709       453.609  
  20671912.844    20671912.891       88290.64801     60632.37806       510.359  
  24676644.008    24676651.359     -485097.02709   -276061.54209     -2059.797  
  24626563.844    24626569.129      664430.25909    385130.33609      3073.203  
  22443573.883    22443576.508      503363.98201    325762.83909      2364.969  
  23226017.070    23226020.188     -777890.96009   -520247.17909     -3280.422  
 98 11 22 11 19  0.0000000  0  8G02G27G10G13G17G18G19G26
  22704942.727    22704947.273     -661610.86109   -431159.09509     -2803.203  
  20537082.820    20537085.492       -9095.47409     -3199.44501        79.281  
  20810148.461    20810151.672       73066.84209     51154.30509       461.188  
  20672401.383    20672401.477       90858.57403     62633.35403       516.688  
  24674689.164    24674696.785     -495377.42109   -284072.23009     -2052.469  
  24629490.719    24629496.578      679808.97209    397113.76109      3078.203  
  22445826.719    22445829.531      515203.32109    334988.27509      2370.641  
  23222898.203    23222901.473     -794280.20909   -533018.00609     -3275.406  
 98 11 22 11 19  5.0000000  0  8G02G27G10G13G17G18G19G26
  22702279.273    22702283.855     -675609.76809   -442067.32709     -2796.438  
  20537161.609    20537164.328       -8681.04609     -2876.50301        86.391  
  20810591.023    20810594.246       75392.93809     52966.83309       469.156  
  20672896.422    20672896.457       93459.16601     64659.78103       523.484  
  24672737.664    24672744.676     -505620.25209   -292053.65809     -2044.766  
  24632422.492    24632427.238      695213.66709    409117.41209      3083.594  
  22448085.195    22448088.031      527072.03809    344236.61009      2376.781  
  23219784.266    23219787.875     -810643.31109   -545768.47609     -3269.922  
 98 11 22 11 19 10.0000000  0  8G02G27G10G13G17G18G19G26
  22699621.844    22699626.637     -689573.72709   -452948.32709     -2788.641  
  20537247.391    20537250.168       -8229.81009     -2524.89301        94.609  
  20811041.375    20811044.293       77760.22109     54811.46609       478.266  
  20673397.836    20673397.707       96095.03902     66713.70903       531.375  
  24670797.500    24670804.910     -515823.26509   -300004.05909     -2035.938  
  24635358.891    24635362.957      710646.68109    421143.13409      3090.094  
  22450349.945    22450353.016      538972.72009    353509.87909      2384.000  
  23216675.742    23216679.480     -826977.74209   -558496.59409     -3263.344  
 98 11 22 11 19 15.0000000  0  8G02G27G10G13G17G18G19G26
  22696971.992    22696976.809     -703498.78309   -463799.01709     -2781.438  
  20537341.156    20537343.980       -7737.65909     -2141.40601       102.203  
  20811500.680    20811503.633       80172.80709     56691.41309       486.750  
  20673907.141    20673907.070       98770.28801     68798.32203       538.688  
  24668864.984    24668870.645     -525982.33909   -307920.26609     -2027.703  
  24638302.047    24638308.598      726111.93209    433193.94609      3095.953  
  22452621.414    22452624.789      550909.38209    362811.17709      2390.594  
  23213573.461    23213576.930     -843279.46909   -571199.22709     -3257.375  
 98 11 22 11 19 20.0000000  0  8G02G27G10G13G17G18G19G26
  22694328.813    22694333.266     -717387.75409   -474621.58609     -2773.922  
  20537441.813    20537444.625       -7207.38209     -1728.19901       110.125  
  20811968.016    20811971.543       82628.01409     58604.56709       495.578  
  20674423.125    20674423.066      101482.15501     70911.46301       546.297  
  24666939.219    24666947.508     -536100.28509   -315804.36609     -2019.234  
  24641250.297    24641260.613      741606.52909    445267.61309      3102.094  
  22454898.898    22454902.402      562879.14509    372138.25309      2397.531  
  23210476.547    23210480.133     -859551.23509   -583878.52209     -3251.078  
 98 11 22 11 19 25.0000000  0  8G02G27G10G13G17G18G19G26
  22691693.383    22691698.117     -731238.00009   -485413.97509     -2766.031  
  20537550.672    20537553.426       -6636.51609     -1283.36501       118.359  
  20812443.797    20812447.559       85128.43009     60552.94509       504.750  
  20674946.742    20674946.672      104233.11901     73055.06601       554.203  
  24665022.898    24665028.758     -546174.50009   -323654.38509     -2010.344  
  24644204.703    24644213.438      757132.88309    457365.99509      3108.563  
  22457183.664    22457187.660      574884.50909    381493.08409      2404.719  
  23207385.891    23207390.086     -875790.44509   -596532.43009     -3244.453  
 98 11 22 11 19 30.0000000  0  8G02G27G10G13G17G18G19G26
  22689065.477    22689070.258     -745047.52009   -496174.63509     -2757.906  
  20537667.430    20537670.336       -6023.17509      -805.43301       126.828  
  20812928.266    20812932.121       87675.92109     62537.99209       514.109  
  20675477.781    20675477.699      107024.63905     75230.27301       562.266  
  24663113.594    24663119.793     -556203.19409   -331468.96709     -2001.266  
  24647165.547    24647175.781      772692.67909    469490.49209      3115.203  
  22459474.961    22459479.309      586926.92709    390876.78709      2412.094  
  23204302.109    23204307.969     -891995.42609   -609159.69809     -3237.656  
 98 11 22 11 19 35.0000000  0  8G02G27G10G13G17G18G19G26
  22686445.477    22686450.234     -758816.04109   -506903.34309     -2749.750  
  20537792.102    20537795.102       -5367.28509      -294.35401       135.250  
  20813422.016    20813425.027       90270.33509     64559.61109       523.391  
  20676016.664    20676016.465      109856.78602     77437.14001       570.344  
  24661214.164    24661220.281     -566186.23709   -339247.98209     -1992.219  
  24650133.281    24650138.285      788286.04209    481641.14609      3121.859  
  22461773.250    22461777.844      599006.56209    400289.48809      2419.516  
  23201224.219    23201230.676     -908166.13709   -621760.23809     -3230.875  
 98 11 22 11 19 40.0000000  0  8G02G27G10G13G17G18G19G26
  22683833.484    22683837.984     -772542.41509   -517599.20709     -2741.266  
  20537925.164    20537928.082       -4667.80609       250.69901       144.063  
  20813924.930    20813927.789       92912.64409     66618.54009       533.047  
  20676563.688    20676563.383      112730.70201     79676.54001       578.766  
  24659323.602    24659329.977     -576122.56709   -346990.56009     -1982.781  
  24653107.422    24653117.609      803914.16209    493818.88409      3128.891  
  22464079.117    22464084.250      611124.65709    409732.15209      2427.250  
  23198153.383    23198160.121     -924301.53309   -634333.27409     -3223.781  
 98 11 22 11 19 45.0000000  0  8G02G27G10G13G17G18G19G26
  22681229.320    22681233.867     -786226.74509   -528262.31009     -2732.453  
  20538066.664    20538069.676       -3924.73609       829.71901       153.188  
  20814436.922    20814439.758       95602.85309     68714.80309       543.063  
  20677118.445    20677117.895      115646.18701     81948.34401       587.484  
  24657442.141    24657448.492     -586012.07809   -354696.65309     -1973.000  
  24656087.359    24656100.770      819576.76409    506023.48609      3136.203  
  22466392.953    22466398.238      623281.14009    419204.74009      2435.359  
  23195089.883    23195096.656     -940401.79409   -646878.94309     -3216.281  
 98 11 22 11 19 50.0000000  0  8G02G27G10G13G17G18G19G26
  22678633.469    22678638.121     -799868.41909   -538892.17809     -2724.359  
  20538216.656    20538219.621       -3137.46009      1443.17801       161.563  
  20814958.023    20814961.059       98341.90709     70849.13909       552.391  
  20677681.250    20677680.816      118603.97003     84253.11801       595.469  
  24655569.859    24655576.516     -595853.99109   -362365.66809     -1963.922  
  24659074.852    24659085.051      835274.73209    518255.69409      3142.813  
  22468713.328    22468718.461      635476.74809    428707.81009      2442.688  
  23192033.063    23192038.828     -956466.09309   -659396.55809     -3209.563  
 98 11 22 11 19 55.0000000  0  8G02G27G10G13G17G18G19G26
  22676045.484    22676050.113     -813467.69509   -549489.00409     -2715.578  
  20538374.813    20538377.684       -2306.39609      2090.76101       170.656  
  20815489.063    20815492.039      101129.42009     73021.22309       562.406  
  20678252.180    20678251.863      121603.63401     86590.52201       604.172  
  24653704.789    24653712.223     -605648.71209   -369997.94309     -1954.172  
  24662069.094    24662072.434      851007.59209    530514.97609      3150.125  
  22471041.586    22471046.883      647710.83909    438240.86209      2450.719  
  23188982.945    23188988.184     -972494.75509   -671886.43709     -3202.109  
 98 11 22 11 20  0.0000000  0  8G02G27G10G13G17G18G19G26
  22673465.930    22673470.547     -827023.10309   -560051.65509     -2706.609  
  20538541.578    20538544.473       -1429.92909      2773.71801       179.953  
  20816028.266    20816031.957      103966.98209     75232.31309       572.609  
  20678831.016    20678830.652      124646.75109     88961.78601       613.063  
  24651850.781    24651857.238     -615394.43509   -377591.97809     -1944.141  
  24665069.672    24665075.637      866776.95909    542802.82507      3157.609  
  22473377.102    22473382.234      659984.72809    447804.93409      2458.828  
  23185939.438    23185946.035     -988486.13209   -684347.22809     -3194.469  
 98 11 22 11 20  5.0000000  0  8G02G27G10G13G17G18G19G26
  22670895.000    22670899.477     -840534.16909   -570579.74709     -2697.672  
  20538717.102    20538719.902        -507.26309      3492.68001       189.266  
  20816578.328    20816581.563      106855.29509     77482.95409       582.859  
  20679418.594    20679418.348      127733.87709     91367.33601       621.938  
  24650004.352    24650009.742     -625090.41509   -385147.30709     -1934.125  
  24668078.023    24668086.969      882583.74409    555119.79909      3165.219  
  22475720.305    22475725.930      672298.94409    457400.42909      2467.000  
  23182904.227    23182909.805    -1004439.38509   -696778.32309     -3186.703  
 98 11 22 11 20 10.0000000  0  8G02G27G10G13G17G18G19G26
  22668332.453    22668336.871     -854000.83909   -581073.24909     -2689.031  
  20538901.383    20538904.102         461.79009      4247.79009       198.313  
  20817137.844    20817140.668      109794.71609     79773.41409       592.859  
  20680014.594    20680014.266      130865.48309     93807.54501       630.672  
  24648170.258    24648177.809     -634736.45909   -392663.70109     -1924.328  
  24671092.758    24671098.465      898428.20909    567466.12809      3172.516  
  22478071.227    22478076.945      684653.85209    467027.64009      2474.922  
  23179875.922    23179882.660    -1020354.38909   -709179.59609     -3179.359  
 98 11 22 11 20 15.0000000  0  8G02G27G10G13G17G18G19G26
  22665777.977    22665782.184     -867424.47109   -591533.21109     -2680.750  
  20539094.539    20539097.211        1475.89109      5038.00809       207.016  
  20817705.813    20817709.129      112784.06409     82102.77109       602.516  
  20680618.844    20680618.680      134040.74007     96281.75901       639.141  
  24646344.297    24646350.109     -644333.69409   -400142.02409     -1914.891  
  24674113.625    24674121.680      914308.92809    579840.69009      3179.469  
  22480430.063    22480435.980      697048.28109    476685.63709      2482.547  
  23176854.531    23176860.215    -1036232.24909   -721551.95209     -3172.188  
 98 11 22 11 20 20.0000000  0  8G02G27G10G13G17G18G19G26
  22663231.875    22663235.848     -880805.68909   -601960.12209     -2672.094  
  20539295.789    20539298.227        2534.79809      5863.14009       216.203  
  20818285.375    20818288.445      115822.79509     84470.60809       612.625  
  20681231.344    20681231.074      137259.49909     98789.87001       648.031  
  24644526.836    24644532.543     -653882.51109   -407582.66809     -1904.969  
  24677142.727    24677150.969      930225.45209    592243.08009      3186.844  
  22482795.891    22482801.738      709481.92609    486374.19309      2490.578  
  23173840.523    23173846.488    -1052073.28409   -733895.60209     -3164.563  
 98 11 22 11 20 25.0000000  0  8G02G27G10G13G17G18G19G26
  22660693.242    22660696.992     -894145.40109   -612354.68809     -2663.469  
  20539505.922    20539508.301        3637.66309      6722.51009       225.266  
  20818872.352    20818875.281      118910.04409     86876.26309       622.609  
  20681851.727    20681851.398      140520.82509    101331.16101       656.813  
  24642718.680    24642725.078     -663383.72309   -414986.17509     -1895.172  
  24680178.461    24680185.449      946176.81509    604672.68909      3194.063  
  22485168.719    22485174.602      721953.81009    496092.54309      2498.516  
  23170833.164    23170839.258    -1067878.02209   -746210.97909     -3157.016  
 98 11 22 11 20 30.0000000  0  8G02G27G10G13G17G18G19G26
  22658162.711    22658166.391     -907442.59909   -622716.12509     -2655.781  
  20539724.148    20539726.563        4785.32701      7616.78901       233.469  
  20819469.070    20819471.953      122046.76809     89320.46009       631.734  
  20682480.609    20682480.270      143825.54809    103906.26901       664.703  
  24640920.195    24640925.223     -672836.37609   -422351.86409     -1886.250  
  24683220.898    24683225.785      962164.14909    617130.40507      3200.500  
  22487549.445    22487555.305      734464.88909    505841.43509      2505.563  
  23167833.016    23167839.766    -1083645.48809   -758497.33109     -3150.344  
 98 11 22 11 20 35.0000000  0  8G02G27G10G13G17G18G19G26
  22655639.641    22655643.461     -920699.89809   -633046.47309     -2647.453  
  20539950.938    20539953.480        5975.63809      8544.30201       242.344  
  20820074.656    20820077.598      125230.57309     91801.35009       641.484  
  20683117.352    20683117.129      147171.09009    106513.18501       673.203  
  24639130.391    24639136.168     -682242.82709   -429681.59709     -1876.656  
  24686269.391    24686273.832      978185.02609    629614.15505      3207.531  
  22489937.352    22489943.246      747012.61409    515618.89409      2513.203  
  23164838.641    23164844.289    -1099378.21309   -770756.60209     -3143.094  
 98 11 22 11 20 40.0000000  0  8G02G27G10G13G17G18G19G26
  22653124.688    22653128.473     -933917.85709   -643346.16809     -2639.531  
  20540184.961    20540187.480        7208.12909      9504.68601       250.828  
  20820689.516    20820693.043      128460.92609     94318.49709       650.828  
  20683761.617    20683761.582      150556.92509    109151.50101       681.313  
  24637348.336    24637353.352     -691603.44409   -436975.59409     -1867.406  
  24689323.961    24689331.559      994238.69509    642123.54609      3214.094  
  22492332.031    22492337.867      759596.38909    525424.42709      2520.469  
  23161852.141    23161857.063    -1115076.91209   -782989.34009     -3136.219  
 98 11 22 11 20 45.0000000  0  8G02G27G10G13G17G18G19G26
  22650616.961    22650620.852     -947096.58909   -653615.30109     -2632.297  
  20540427.930    20540430.449        8482.66201     10497.83709       258.656  
  20821313.453    20821317.473      131737.61909     96871.77909       659.500  
  20684413.531    20684413.754      153982.78207    111820.99201       688.719  
  24635575.523    24635579.520     -700918.34409   -444233.91209     -1858.844  
  24692386.438    24692394.105     1010324.77809    654658.13609      3219.984  
  22494733.711    22494739.570      772215.70109    535257.65909      2526.922  
  23158871.719    23158876.793    -1130741.97709   -795195.88609     -3130.109  
 98 11 22 11 20 50.0000000  0  8G02G27G10G13G17G18G19G26
  22648116.320    22648120.059     -960238.10009   -663855.42709     -2624.297  
  20540677.953    20540680.566        9797.49101     11522.39109       267.313  
  20821945.477    20821949.238      135058.73309     99459.66709       668.969  
  20685072.602    20685072.871      157446.68601    114520.12209       696.875  
  24633812.078    24633817.223     -710189.26309   -451457.98109     -1849.453  
  24695452.477    24695457.539     1026441.28809    667216.52709      3226.625  
  22497141.438    22497146.887      784868.39209    545116.91309      2534.141  
  23155896.375    23155901.109    -1146375.12209   -807377.55009     -3123.141  
 98 11 22 11 20 55.0000000  0  8G02G27G10G13G17G18G19G26
  22645622.336    22645626.039     -973342.07809   -674066.30609     -2617.438  
  20540936.047    20540938.625       11153.02001     12578.64901       274.766  
  20822585.484    20822588.742      138424.80009    102082.57709       677.297  
  20685739.141    20685739.387      160949.08201    117249.26009       703.953  
  24632056.367    24632059.930     -719415.64409   -458647.35509     -1841.219  
  24698524.844    24698531.820     1042588.61809    679798.83009      3232.141  
  22499555.484    22499560.734      797554.60409    555002.28709      2540.203  
  23152927.609    23152932.016    -1161976.05909   -819534.11009     -3117.375  
 98 11 22 11 21  0.0000000  0  8G02G27G10G13G17G18G19G26
  22643135.609    22643139.090     -986411.81309   -684250.50309     -2610.531  
  20541200.883    20541203.520       12545.80801     13663.93201       282.281  
  20823234.508    20823238.539      141832.45009    104737.87909       685.719  
  20686412.234    20686412.398      164486.84901    120005.96209       711.063  
  24630308.031    24630311.395     -728600.84109   -465804.66609     -1832.953  
  24701603.258    24701610.445     1058763.39909    692402.42105      3237.672  
  22501975.117    22501980.707      810271.03609    564911.19409      2546.313  
  23149964.445    23149968.781    -1177547.97509   -831668.06409     -3111.484  
 98 11 22 11 21  5.0000000  0  8G02G27G10G13G17G18G19G26
  22640654.742    22640658.504     -999448.69009   -694409.09109     -2604.203  
  20541472.742    20541475.461       13974.36301     14777.09401       289.156  
  20823890.570    20823894.402      145280.48009    107424.65609       693.500  
  20687091.891    20687092.125      168058.55301    122789.10809       717.609  
  24628566.883    24628572.895     -737746.38309   -472931.03409     -1825.266  
  24704685.586    24704693.359     1074964.24609    705026.42607      3242.656  
  22504400.398    22504406.012      823016.35409    574842.60309      2551.813  
  23147006.633    23147010.500    -1193092.19309   -843780.40409     -3106.188  
 98 11 22 11 21 10.0000000  0  8G02G27G10G13G17G18G19G26
  22638179.984    22638183.910    -1012452.91209   -704542.24109     -2597.688  
  20541751.406    20541754.055       15438.23001     15917.77501       296.203  
  20824554.609    20824558.289      148768.59009    110142.67009       701.547  
  20687777.898    20687778.238      171663.89101    125598.45809       724.328  
  24626834.305    24626840.035     -746852.60509   -480026.80509     -1817.453  
  24707774.422    24707783.801     1091190.90109    717670.52109      3247.875  
  22506831.656    22506837.340      835790.20609    584796.23809      2557.516  
  23144054.328    23144057.680    -1208608.87209   -855871.30809     -3100.672  
 98 11 22 11 21 15.0000000  0  8G02G27G10G13G17G18G19G26
  22635711.172    22635714.793    -1025425.91109   -714651.05609     -2591.406  
  20542036.398    20542039.012       16936.16201     17084.99301       303.063  
  20825225.227    20825228.590      152295.47809    112890.88209       709.328  
  20688470.336    20688470.758      175301.54901    128432.99709       730.859  
  24625108.750    24625110.555     -755921.11509   -487093.18409     -1809.844  
  24710867.148    24710875.133     1107442.02509    730333.78609      3252.750  
  22509267.734    22509273.031      848591.32909    594771.14709      2563.031  
  23141106.188    23141109.035    -1224099.18809   -867941.66109     -3095.359  
 98 11 22 11 21 20.0000000  0  8G02G27G10G13G17G18G19G26
  22633248.602    22633252.316    -1038366.99809   -724734.99909     -2585.250  
  20542328.211    20542330.766       18468.86607     18279.30501       309.781  
  20825903.922    20825906.945      155862.01109    115670.00709       717.078  
  20689168.711    20689169.168      178972.29901    131293.31809       737.234  
  24623390.922    24623393.945     -764951.10209   -494129.51409     -1802.359  
  24713964.539    24713967.996     1123718.31409    743016.63809      3257.563  
  22511709.211    22511714.414      861420.43909    604767.86209      2568.391  
  23138163.977    23138166.801    -1239562.41709   -879990.91409     -3090.172  
 98 11 22 11 21 25.0000000  0  8G02G27G10G13G17G18G19G26
  22630792.156    22630795.977    -1051276.07409   -734794.00809     -2578.641  
  20542626.305    20542628.754       20036.40909     19500.76501       316.953  
  20826590.164    20826593.164      159468.46209    118480.22609       725.234  
  20689873.680    20689874.230      182676.28601    134179.53209       744.078  
  24621679.922    24621685.453     -773942.46509   -501135.73709     -1794.453  
  24717065.805    24717070.152     1140019.94409    755719.19309      3262.828  
  22514155.688    22514160.820      874277.77509    614786.57309      2574.266  
  23135226.820    23135230.148    -1254998.52509   -892019.00909     -3084.563  
 98 11 22 11 21 30.0000000  0  8G02G27G10G13G17G18G19G26
  22628340.922    22628344.906    -1064156.47709   -744830.66909     -2573.156  
  20542930.570    20542933.043       21635.37804     20746.71701       322.984  
  20827283.586    20827286.844      163111.52109    121318.96909       732.328  
  20690583.945    20690584.473      186410.08001    137088.98109       749.781  
  24619974.891    24619978.219     -782898.58409   -508114.55309     -1787.641  
  24720172.883    24720179.609     1156343.59909    768438.83507      3266.984  
  22516607.039    22516611.961      887160.13109    624824.77409      2579.031  
  23132293.500    23132295.762    -1270411.01509   -904028.73609     -3080.063  
 98 11 22 11 21 35.0000000  0  8G02G27G10G13G17G18G19G26
  22625895.297    22625899.387    -1077008.23409   -754845.01209     -2567.594  
  20543240.992    20543243.512       23265.75204     22017.14101       329.109  
  20827983.188    20827986.070      166791.17109    124186.23109       739.469  
  20691300.375    20691300.809      190173.51701    140021.52809       755.547  
  24618277.469    24618278.910     -791819.44409   -515065.87009     -1780.734  
  24723283.500    24723288.422     1172689.26609    781175.72409      3271.219  
  22519063.398    22519067.875      900067.24809    634882.26409      2583.766  
  23129364.789    23129367.590    -1285799.82209   -916020.02309     -3075.500  
 98 11 22 11 21 40.0000000  0  8G02G27G10G13G17G18G19G26
  22623454.828    22623458.813    -1089832.85209   -764838.20509     -2562.641  
  20543557.094    20543559.578       24926.05808     23310.89001       334.609  
  20828690.758    20828694.180      170505.64509    127080.62209       745.922  
  20692021.523    20692022.180      193965.16601    142976.05709       760.719  
  24616587.313    24616594.840     -800706.45209   -521990.84109     -1774.453  
  24726397.156    24726405.223     1189055.42809    793928.57409      3274.844  
  22521524.297    22521528.504      912997.55709    644957.83009      2587.969  
  23126440.992    23126442.867    -1301166.50009   -927994.04509     -3071.531  
 98 11 22 11 21 45.0000000  0  8G02G27G10G13G17G18G19G26
  22621019.102    22621023.098    -1102632.74309   -774812.13209     -2557.500  
  20543878.063    20543880.441       26613.92409     24626.11101       340.344  
  20829403.266    20829406.043      174252.34609    130000.14409       752.594  
  20692748.078    20692748.582      197782.65509    145950.72809       766.094  
  24614901.234    24614903.906     -809562.00909   -528891.22609     -1767.953  
  24729515.344    24729520.301     1205439.70609    806695.55109      3278.656  
  22523988.883    22523993.125      925948.72009    655049.63709      2592.313  
  23123520.094    23123521.758    -1316513.42309   -939952.65909     -3067.375  
 98 11 22 11 21 50.0000000  0  8G02G27G10G13G17G18G19G26
  22618588.242    22618592.180    -1115407.20909   -784766.24509     -2552.359  
  20544204.641    20544207.055       28330.10009     25963.38301       346.047  
  20830122.602    20830125.250      178032.17709    132945.45109       759.313  
  20693479.789    20693480.504      201627.08309    148946.38709       771.625  
  24613223.242    24613229.758     -818385.32509   -535766.52607     -1761.422  
  24732637.227    24732644.320     1221842.87609    819477.12609      3282.531  
  22526457.070    22526461.324      938921.52409    665158.31509      2596.766  
  23120604.211    23120605.652    -1331839.65509   -951895.13909     -3063.172  
 98 11 22 11 21 55.0000000  0  8G02G27G10G13G17G18G19G26
  22616161.313    22616165.180    -1128159.24209   -794702.88309     -2548.031  
  20544535.883    20544538.168       30071.48909     27320.30501       350.922  
  20830847.461    20830851.152      181842.33409    135914.41309       765.188  
  20694215.883    20694216.703      205495.93501    151961.07409       776.328  
  24611548.938    24611553.707     -827179.40109   -542618.96209     -1755.750  
  24735761.461    24735765.586     1238262.06909    832271.27509      3285.563  
  22528929.664    22528933.824      951913.56309    675281.98309      2600.469  
  23117690.430    23117692.316    -1347148.01909   -963823.70909     -3059.750  
 98 11 22 11 22  0.0000000  0  8G02G27G10G13G17G18G19G26
  22613738.883    22613743.008    -1140890.02509   -804622.95709     -2543.797  
  20544872.234    20544874.566       31836.97501     28696.00102       355.734  
  20831578.273    20831581.941      185681.82809    138906.21509       771.078  
  20694956.406    20694957.027      209388.17201    154993.99301       781.031  
  24609880.883    24609884.984     -835945.47509   -549449.66909     -1750.156  
  24738888.125    24738893.820     1254696.03609    845077.00907      3288.484  
  22531405.320    22531409.469      964923.70809    685419.75109      2604.078  
  23114781.055    23114783.270    -1362439.56909   -975739.17909     -3056.391  
 98 11 22 11 22  5.0000000  0  8G02G27G10G13G17G18G19G26
  22611320.297    22611324.340    -1153598.43009   -814525.59609     -2539.422  
  20545212.977    20545215.215       33627.64201     30091.32404       360.719  
  20832314.711    20832317.852      189551.87609    141921.83309       777.109  
  20695701.805    20695702.590      213304.95801    158046.04209       785.875  
  24608218.727    24608224.492     -844682.16209   -556257.42809     -1744.328  
  24742019.820    24742029.480     1271145.91109    857895.13909      3291.625  
  22533885.078    22533888.910      977953.30209    695572.68209      2607.938  
  23111874.469    23111877.023    -1377712.87309   -987640.44909     -3052.734  
 98 11 22 11 22 10.0000000  0  8G02G27G10G13G17G18G19G26
  22608906.125    22608910.414    -1166284.66209   -824410.95609     -2535.438  
  20545558.359    20545560.621       35443.34001     31506.15405       365.219  
  20833056.516    20833060.148      193452.05309    144960.92109       782.594  
  20696451.680    20696452.570      217246.15201    161117.10309       790.250  
  24606559.703    24606565.176     -853389.68709   -563042.50009     -1739.000  
  24745153.023    24745158.402     1287611.60709    870725.50509      3294.281  
  22536368.086    22536371.871      991002.14509    705740.61209      2611.266  
  23108970.930    23108973.871    -1392967.91609   -999527.47509     -3049.625  
 98 11 22 11 22 15.0000000  0  8G02G27G10G13G17G18G19G26
  22606495.875    22606500.047    -1178951.28109   -834281.02909     -2531.313  
  20545908.164    20545910.379       37281.48501     32938.47804       369.953  
  20833804.188    20833806.766      197379.49309    148021.26409       788.297  
  20697205.859    20697206.855      221209.23009    164205.21201       794.891  
  24604908.086    24604914.086     -862070.68209   -569806.93209     -1733.453  
