% program   : RTKLIB ver.2.4.2
% inp file  : ZBKO175A.97O
% inp file  : ZBKO175A.97N
% inp file  : ZB00175A.97O
% inp file  : ZB00175A.97N
% obs start : 1997/06/24 14:48:58.0 GPST (week0911 226138.0s)
% obs end   : 1997/06/24 15:10:00.0 GPST (week0911 227400.0s)
% pos mode  : static
% freqs     : L1+L2
% solution  : forward
% elev mask : 15.0 deg
% dynamics  : off
% tidecorr  : off
% ionos opt : off
% tropo opt : off
% ephemeris : broadcast
% amb res   : continuous
% val thres : 3.0
% antenna1  :                       ( 0.0000  0.0000  0.0000)
% antenna2  :                       ( 0.0000  0.0000  0.0000)
% ref pos   :  4177121.5627   854990.8233  4728454.2569
%
% (x/y/z-ecef=WGS84,Q=1:fix,2:float,3:sbas,4:dgps,5:single,6:ppp,ns=# of satellites)
%  GPST                      x-ecef(m)      y-ecef(m)      z-ecef(m)   Q  ns   sdx(m)   sdy(m)   sdz(m)  sdxy(m)  sdyz(m)  sdzx(m) age(s)  ratio
1997/06/24 14:57:49.999   4177121.5616    854990.8231   4728454.2561   8   5  10.2406   5.9416   7.6960   6.7432   5.2923   8.2372   0.00   51.6
1997/06/24 14:57:51.999   4177121.5632    854990.8232   4728454.2570   8   5  10.2344   5.9407   7.6928   6.7400   5.2897   8.2324   0.00   63.2
1997/06/24 14:57:52.999   4177121.5635    854990.8236   4728454.2571   8   5  10.2312   5.9402   7.6913   6.7383   5.2884   8.2299   0.00   61.8
1997/06/24 14:57:53.999   4177121.5644    854990.8235   4728454.2581   8   5  10.2281   5.9397   7.6897   6.7367   5.2871   8.2275   0.00   71.6
1997/06/24 14:57:54.999   4177121.5635    854990.8234   4728454.2574   8   5  10.2249   5.9392   7.6881   6.7351   5.2858   8.2250   0.00   90.4
1997/06/24 14:57:55.999   4177121.5637    854990.8231   4728454.2573   8   5  10.2218   5.9388   7.6865   6.7335   5.2845   8.2226   0.00   96.1
1997/06/24 14:57:56.999   4177121.5633    854990.8228   4728454.2573   8   5  10.2186   5.9383   7.6849   6.7319   5.2832   8.2202   0.00   93.4
1997/06/24 14:57:57.999   4177121.5634    854990.8231   4728454.2572   8   5  10.2155   5.9378   7.6833   6.7302   5.2819   8.2177   0.00  107.6
1997/06/24 14:57:58.999   4177121.5631    854990.8232   4728454.2569   8   5  10.2124   5.9373   7.6817   6.7286   5.2806   8.2153   0.00  111.1
1997/06/24 14:57:59.999   4177121.5641    854990.8240   4728454.2579   8   5  10.2092   5.9368   7.6801   6.7270   5.2793   8.2128   0.00   99.9
1997/06/24 14:58:00.999   4177121.5639    854990.8235   4728454.2578   8   5  10.2061   5.9364   7.6785   6.7254   5.2780   8.2104   0.00   87.6
1997/06/24 14:58:01.999   4177121.5637    854990.8237   4728454.2576   8   5  10.2029   5.9359   7.6769   6.7238   5.2767   8.2079   0.00   89.4
1997/06/24 14:58:02.999   4177121.5633    854990.8231   4728454.2573   8   5  10.1998   5.9354   7.6754   6.7221   5.2754   8.2055   0.00   91.0
1997/06/24 14:58:03.999   4177121.5631    854990.8227   4728454.2576   8   5  10.1966   5.9349   7.6738   6.7205   5.2741   8.2031   0.00   78.5
1997/06/24 14:58:04.999   4177121.5631    854990.8226   4728454.2581   8   5  10.1935   5.9344   7.6722   6.7189   5.2728   8.2006   0.00   77.6
1997/06/24 14:58:05.999   4177121.5628    854990.8234   4728454.2575   8   5  10.1904   5.9340   7.6706   6.7173   5.2715   8.1982   0.00   79.3
1997/06/24 14:58:06.999   4177121.5639    854990.8229   4728454.2582   8   5  10.1872   5.9335   7.6690   6.7156   5.2702   8.1957   0.00   87.9
1997/06/24 14:58:07.999   4177121.5630    854990.8225   4728454.2574   8   5  10.1841   5.9330   7.6674   6.7140   5.2688   8.1933   0.00   87.5
1997/06/24 14:58:08.999   4177121.5623    854990.8227   4728454.2571   8   5  10.1809   5.9325   7.6658   6.7124   5.2675   8.1908   0.00   90.6
1997/06/24 14:58:09.999   4177121.5640    854990.8236   4728454.2580   8   5  10.1778   5.9320   7.6642   6.7107   5.2662   8.1884   0.00  104.9
1997/06/24 14:58:10.999   4177121.5632    854990.8232   4728454.2578   8   5  10.1746   5.9315   7.6626   6.7091   5.2649   8.1859   0.00  106.7
1997/06/24 14:58:11.999   4177121.5625    854990.8236   4728454.2573   8   5  10.1715   5.9311   7.6610   6.7075   5.2636   8.1835   0.00  103.2
1997/06/24 14:58:12.999   4177121.5624    854990.8230   4728454.2563   8   5  10.1683   5.9306   7.6594   6.7059   5.2623   8.1810   0.00  100.0
1997/06/24 14:58:13.999   4177121.5641    854990.8239   4728454.2574   8   5  10.1652   5.9301   7.6578   6.7042   5.2610   8.1786   0.00  109.4
1997/06/24 14:58:14.999   4177121.5620    854990.8231   4728454.2561   8   5  10.1620   5.9296   7.6562   6.7026   5.2597   8.1761   0.00  115.9
1997/06/24 14:58:17.999   4177121.5634    854990.8235   4728454.2564   8   5  10.1526   5.9281   7.6514   6.6977   5.2557   8.1688   0.00  125.2
1997/06/24 15:02:43.000   4177121.5627    854990.8238   4728454.2573   8   5   9.3216   5.7890   7.2246   6.2524   4.8908   7.5123   0.00  245.7
1997/06/24 15:02:44.000   4177121.5623    854990.8240   4728454.2568   8   5   9.3185   5.7885   7.2230   6.2507   4.8894   7.5099   0.00  355.8
1997/06/24 15:02:45.000   4177121.5615    854990.8229   4728454.2565   8   5   9.3154   5.7879   7.2214   6.2490   4.8880   7.5074   0.00  406.8
1997/06/24 15:02:46.000   4177121.5624    854990.8238   4728454.2574   8   5   9.3123   5.7874   7.2198   6.2473   4.8866   7.5049   0.00  469.3
1997/06/24 15:02:47.000   4177121.5613    854990.8227   4728454.2567   8   5   9.3093   5.7868   7.2182   6.2456   4.8851   7.5025   0.00  496.5
1997/06/24 15:02:48.000   4177121.5621    854990.8234   4728454.2574   8   5   9.3062   5.7863   7.2166   6.2439   4.8837   7.5000   0.00  601.2
1997/06/24 15:02:49.000   4177121.5612    854990.8229   4728454.2566   8   5   9.3031   5.7857   7.2150   6.2422   4.8823   7.4975   0.00  621.1
1997/06/24 15:02:50.000   4177121.5626    854990.8235   4728454.2579   8   5   9.3000   5.7852   7.2135   6.2405   4.8809   7.4951   0.00  685.7
1997/06/24 15:02:51.000   4177121.5612    854990.8233   4728454.2570   8   5   9.2969   5.7846   7.2119   6.2388   4.8795   7.4926   0.00  784.1
1997/06/24 15:02:52.000   4177121.5629    854990.8242   4728454.2571   8   5   9.2939   5.7841   7.2103   6.2371   4.8781   7.4901   0.00  892.3
1997/06/24 15:02:53.000   4177121.5622    854990.8233   4728454.2568   8   5   9.2908   5.7836   7.2087   6.2354   4.8767   7.4877   0.00  911.1
1997/06/24 15:02:54.000   4177121.5621    854990.8233   4728454.2574   8   5   9.2877   5.7830   7.2071   6.2337   4.8753   7.4852   0.00  999.9
1997/06/24 15:02:55.000   4177121.5620    854990.8227   4728454.2564   8   5   9.2846   5.7825   7.2055   6.2320   4.8738   7.4827   0.00  999.9
1997/06/24 15:02:56.000   4177121.5622    854990.8225   4728454.2564   8   5   9.2816   5.7819   7.2039   6.2303   4.8724   7.4803   0.00  999.9
1997/06/24 15:02:57.000   4177121.5621    854990.8225   4728454.2562   8   5   9.2785   5.7814   7.2023   6.2286   4.8710   7.4778   0.00  999.9
1997/06/24 15:02:58.000   4177121.5626    854990.8234   4728454.2568   8   5   9.2754   5.7808   7.2007   6.2269   4.8696   7.4753   0.00  999.9
1997/06/24 15:02:59.000   4177121.5628    854990.8237   4728454.2571   8   5   9.2723   5.7803   7.1991   6.2252   4.8682   7.4729   0.00  999.9
1997/06/24 15:03:00.000   4177121.5613    854990.8233   4728454.2559   8   5   9.2693   5.7797   7.1975   6.2235   4.8668   7.4704   0.00  999.9
1997/06/24 15:03:01.000   4177121.5626    854990.8233   4728454.2569   8   5   9.2662   5.7792   7.1959   6.2218   4.8653   7.4680   0.00  999.9
1997/06/24 15:03:02.000   4177121.5615    854990.8230   4728454.2561   8   5   9.2631   5.7786   7.1943   6.2201   4.8639   7.4655   0.00  999.9
1997/06/24 15:03:03.000   4177121.5616    854990.8228   4728454.2566   8   5   9.2600   5.7781   7.1927   6.2184   4.8625   7.4630   0.00  999.9
1997/06/24 15:03:04.000   4177121.5613    854990.8226   4728454.2561   8   5   9.2570   5.7775   7.1912   6.2167   4.8611   7.4606   0.00  999.9
1997/06/24 15:03:05.000   4177121.5632    854990.8233   4728454.2566   8   5   9.2539   5.7770   7.1896   6.2150   4.8597   7.4581   0.00  999.9
1997/06/24 15:03:06.000   4177121.5633    854990.8234   4728454.2565   8   5   9.2508   5.7764   7.1880   6.2133   4.8583   7.4556   0.00  999.9
1997/06/24 15:03:07.000   4177121.5641    854990.8236   4728454.2572   8   5   9.2478   5.7759   7.1864   6.2116   4.8569   7.4532   0.00  999.9
1997/06/24 15:03:08.000   4177121.5636    854990.8241   4728454.2571   8   5   9.2447   5.7753   7.1848   6.2099   4.8554   7.4507   0.00  999.9
1997/06/24 15:03:09.000   4177121.5633    854990.8237   4728454.2575   8   5   9.2416   5.7748   7.1832   6.2082   4.8540   7.4483   0.00  999.9
1997/06/24 15:03:10.000   4177121.5641    854990.8235   4728454.2582   8   5   9.2386   5.7742   7.1816   6.2065   4.8526   7.4458   0.00  999.9
1997/06/24 15:03:11.000   4177121.5635    854990.8235   4728454.2577   8   5   9.2355   5.7737   7.1800   6.2048   4.8512   7.4433   0.00  999.9
1997/06/24 15:03:12.000   4177121.5635    854990.8239   4728454.2570   8   5   9.2324   5.7731   7.1784   6.2031   4.8498   7.4409   0.00  999.9
1997/06/24 15:03:13.000   4177121.5635    854990.8240   4728454.2580   8   5   9.2294   5.7726   7.1769   6.2014   4.8484   7.4384   0.00  999.9
1997/06/24 15:03:14.000   4177121.5635    854990.8232   4728454.2584   8   5   9.2263   5.7720   7.1753   6.1997   4.8469   7.4360   0.00  999.9
1997/06/24 15:03:15.000   4177121.5643    854990.8236   4728454.2591   8   5   9.2232   5.7715   7.1737   6.1980   4.8455   7.4335   0.00  999.9
1997/06/24 15:03:16.000   4177121.5638    854990.8230   4728454.2589   8   5   9.2202   5.7709   7.1721   6.1964   4.8441   7.4310   0.00  999.9
1997/06/24 15:03:17.000   4177121.5624    854990.8223   4728454.2577   8   5   9.2171   5.7704   7.1705   6.1947   4.8427   7.4286   0.00  999.9
1997/06/24 15:03:18.000   4177121.5628    854990.8225   4728454.2569   8   5   9.2140   5.7698   7.1689   6.1930   4.8413   7.4261   0.00  999.9
1997/06/24 15:03:19.000   4177121.5627    854990.8229   4728454.2569   8   5   9.2110   5.7693   7.1673   6.1913   4.8399   7.4237   0.00  999.9
1997/06/24 15:03:20.000   4177121.5633    854990.8233   4728454.2572   8   5   9.2079   5.7687   7.1658   6.1896   4.8385   7.4212   0.00  999.9
1997/06/24 15:03:21.000   4177121.5628    854990.8231   4728454.2574   8   5   9.2049   5.7682   7.1642   6.1879   4.8370   7.4188   0.00  999.9
1997/06/24 15:03:22.000   4177121.5622    854990.8231   4728454.2565   8   5   9.2018   5.7676   7.1626   6.1862   4.8356   7.4163   0.00  999.9
1997/06/24 15:03:23.000   4177121.5630    854990.8231   4728454.2563   8   5   9.1988   5.7671   7.1610   6.1845   4.8342   7.4139   0.00  999.9
1997/06/24 15:03:24.000   4177121.5618    854990.8229   4728454.2564   8   5   9.1957   5.7665   7.1594   6.1828   4.8328   7.4114   0.00  999.9
1997/06/24 15:03:25.000   4177121.5625    854990.8227   4728454.2567   8   5   9.1926   5.7660   7.1578   6.1811   4.8314   7.4089   0.00  999.9
1997/06/24 15:03:26.000   4177121.5628    854990.8227   4728454.2570   8   5   9.1896   5.7654   7.1562   6.1794   4.8300   7.4065   0.00  999.9
1997/06/24 15:03:27.000   4177121.5624    854990.8230   4728454.2566   8   5   9.1865   5.7649   7.1547   6.1777   4.8285   7.4040   0.00  999.9
1997/06/24 15:03:28.000   4177121.5633    854990.8233   4728454.2571   8   5   9.1835   5.7643   7.1531   6.1760   4.8271   7.4016   0.00  999.9
1997/06/24 15:03:29.000   4177121.5615    854990.8222   4728454.2564   8   5   9.1804   5.7638   7.1515   6.1743   4.8257   7.3991   0.00  999.9
1997/06/24 15:03:30.000   4177121.5615    854990.8225   4728454.2566   8   5   9.1774   5.7632   7.1499   6.1726   4.8243   7.3967   0.00  999.9
1997/06/24 15:03:31.000   4177121.5621    854990.8230   4728454.2565   8   5   9.1743   5.7627   7.1483   6.1709   4.8229   7.3942   0.00  999.9
1997/06/24 15:03:32.000   4177121.5621    854990.8231   4728454.2569   8   5   9.1713   5.7621   7.1468   6.1692   4.8215   7.3918   0.00  999.9
1997/06/24 15:03:33.000   4177121.5628    854990.8230   4728454.2565   8   5   9.1682   5.7616   7.1452   6.1675   4.8200   7.3893   0.00  999.9
1997/06/24 15:03:34.000   4177121.5618    854990.8235   4728454.2562   8   5   9.1652   5.7610   7.1436   6.1658   4.8186   7.3869   0.00  999.9
1997/06/24 15:03:35.000   4177121.5637    854990.8238   4728454.2576   8   5   9.1621   5.7605   7.1420   6.1641   4.8172   7.3844   0.00  999.9
1997/06/24 15:03:36.000   4177121.5626    854990.8231   4728454.2567   8   5   9.1591   5.7599   7.1404   6.1624   4.8158   7.3820   0.00  999.9
1997/06/24 15:03:37.000   4177121.5623    854990.8235   4728454.2563   8   5   9.1560   5.7594   7.1389   6.1607   4.8144   7.3795   0.00  999.9
1997/06/24 15:03:38.000   4177121.5624    854990.8241   4728454.2561   8   5   9.1530   5.7589   7.1373   6.1590   4.8130   7.3771   0.00  999.9
1997/06/24 15:03:39.000   4177121.5633    854990.8239   4728454.2573   8   5   9.1499   5.7583   7.1357   6.1573   4.8115   7.3746   0.00  999.9
1997/06/24 15:03:40.000   4177121.5622    854990.8234   4728454.2562   8   5   9.1469   5.7578   7.1341   6.1556   4.8101   7.3722   0.00  999.9
1997/06/24 15:03:41.000   4177121.5637    854990.8239   4728454.2579   8   5   9.1438   5.7572   7.1325   6.1540   4.8087   7.3697   0.00  999.9
1997/06/24 15:03:42.000   4177121.5623    854990.8240   4728454.2564   8   5   9.1408   5.7567   7.1310   6.1523   4.8073   7.3673   0.00  999.9
1997/06/24 15:03:43.000   4177121.5635    854990.8239   4728454.2578   8   5   9.1378   5.7561   7.1294   6.1506   4.8059   7.3648   0.00  999.9
1997/06/24 15:03:44.000   4177121.5633    854990.8241   4728454.2573   8   5   9.1347   5.7556   7.1278   6.1489   4.8045   7.3624   0.00  999.9
1997/06/24 15:03:45.000   4177121.5628    854990.8235   4728454.2571   8   5   9.1317   5.7550   7.1262   6.1472   4.8030   7.3599   0.00  999.9
1997/06/24 15:03:46.000   4177121.5632    854990.8233   4728454.2567   8   5   9.1286   5.7545   7.1247   6.1455   4.8016   7.3575   0.00  999.9
1997/06/24 15:03:47.000   4177121.5627    854990.8234   4728454.2567   8   5   9.1256   5.7539   7.1231   6.1438   4.8002   7.3550   0.00  999.9
1997/06/24 15:03:48.000   4177121.5622    854990.8233   4728454.2564   8   5   9.1226   5.7534   7.1215   6.1421   4.7988   7.3526   0.00  999.9
1997/06/24 15:03:49.000   4177121.5628    854990.8232   4728454.2571   8   5   9.1195   5.7528   7.1199   6.1404   4.7974   7.3501   0.00  999.9
1997/06/24 15:03:50.000   4177121.5634    854990.8239   4728454.2567   8   5   9.1165   5.7523   7.1184   6.1387   4.7960   7.3477   0.00  999.9
1997/06/24 15:03:51.000   4177121.5640    854990.8242   4728454.2580   8   5   9.1134   5.7517   7.1168   6.1370   4.7945   7.3453   0.00  999.9
1997/06/24 15:03:52.000   4177121.5628    854990.8232   4728454.2569   8   5   9.1104   5.7512   7.1152   6.1353   4.7931   7.3428   0.00  999.9
1997/06/24 15:03:53.000   4177121.5622    854990.8236   4728454.2566   8   5   9.1074   5.7506   7.1136   6.1336   4.7917   7.3404   0.00  999.9
1997/06/24 15:03:54.000   4177121.5632    854990.8241   4728454.2570   8   5   9.1043   5.7501   7.1121   6.1319   4.7903   7.3379   0.00  999.9
1997/06/24 15:03:55.000   4177121.5628    854990.8236   4728454.2572   8   5   9.1013   5.7495   7.1105   6.1302   4.7889   7.3355   0.00  999.9
1997/06/24 15:03:56.000   4177121.5643    854990.8237   4728454.2582   8   5   9.0983   5.7490   7.1089   6.1286   4.7875   7.3330   0.00  999.9
1997/06/24 15:03:57.000   4177121.5642    854990.8237   4728454.2579   8   5   9.0953   5.7484   7.1074   6.1269   4.7860   7.3306   0.00  999.9
1997/06/24 15:03:58.000   4177121.5631    854990.8236   4728454.2572   8   5   9.0922   5.7479   7.1058   6.1252   4.7846   7.3282   0.00  999.9
1997/06/24 15:03:59.000   4177121.5622    854990.8227   4728454.2563   8   5   9.0892   5.7473   7.1042   6.1235   4.7832   7.3257   0.00  999.9
1997/06/24 15:04:00.000   4177121.5619    854990.8231   4728454.2565   8   5   9.0862   5.7468   7.1026   6.1218   4.7818   7.3233   0.00  999.9
1997/06/24 15:04:01.000   4177121.5622    854990.8231   4728454.2564   8   5   9.0831   5.7462   7.1011   6.1201   4.7804   7.3208   0.00  999.9
1997/06/24 15:04:02.000   4177121.5637    854990.8238   4728454.2579   8   5   9.0801   5.7457   7.0995   6.1184   4.7790   7.3184   0.00  999.9
1997/06/24 15:04:03.000   4177121.5638    854990.8236   4728454.2583   8   5   9.0771   5.7451   7.0979   6.1167   4.7775   7.3160   0.00  999.9
1997/06/24 15:04:04.000   4177121.5644    854990.8242   4728454.2582   8   5   9.0741   5.7446   7.0964   6.1150   4.7761   7.3135   0.00  999.9
1997/06/24 15:04:05.000   4177121.5639    854990.8235   4728454.2576   8   5   9.0710   5.7440   7.0948   6.1133   4.7747   7.3111   0.00  999.9
1997/06/24 15:04:06.000   4177121.5623    854990.8225   4728454.2565   8   5   9.0680   5.7435   7.0932   6.1116   4.7733   7.3087   0.00  999.9
1997/06/24 15:04:07.000   4177121.5635    854990.8231   4728454.2573   8   5   9.0650   5.7429   7.0917   6.1100   4.7719   7.3062   0.00  999.9
1997/06/24 15:04:08.000   4177121.5629    854990.8233   4728454.2567   8   5   9.0620   5.7424   7.0901   6.1083   4.7705   7.3038   0.00  999.9
1997/06/24 15:04:09.000   4177121.5649    854990.8239   4728454.2586   8   5   9.0589   5.7418   7.0885   6.1066   4.7691   7.3013   0.00  999.9
1997/06/24 15:04:10.000   4177121.5625    854990.8233   4728454.2566   8   5   9.0559   5.7413   7.0870   6.1049   4.7676   7.2989   0.00  999.9
1997/06/24 15:04:11.000   4177121.5632    854990.8233   4728454.2564   8   5   9.0529   5.7407   7.0854   6.1032   4.7662   7.2965   0.00  999.9
1997/06/24 15:04:12.000   4177121.5624    854990.8233   4728454.2563   8   5   9.0499   5.7402   7.0838   6.1015   4.7648   7.2940   0.00  999.9
1997/06/24 15:04:13.000   4177121.5623    854990.8229   4728454.2563   8   5   9.0469   5.7396   7.0823   6.0998   4.7634   7.2916   0.00  999.9
1997/06/24 15:04:14.000   4177121.5634    854990.8240   4728454.2571   8   5   9.0438   5.7391   7.0807   6.0981   4.7620   7.2892   0.00  999.9
1997/06/24 15:04:15.000   4177121.5632    854990.8237   4728454.2569   8   5   9.0408   5.7385   7.0791   6.0964   4.7606   7.2867   0.00  999.9
1997/06/24 15:04:16.000   4177121.5629    854990.8239   4728454.2562   8   5   9.0378   5.7380   7.0776   6.0948   4.7591   7.2843   0.00  999.9
1997/06/24 15:04:17.000   4177121.5630    854990.8235   4728454.2567   8   5   9.0348   5.7374   7.0760   6.0931   4.7577   7.2819   0.00  999.9
1997/06/24 15:04:18.000   4177121.5642    854990.8248   4728454.2579   8   5   9.0318   5.7369   7.0745   6.0914   4.7563   7.2794   0.00  999.9
1997/06/24 15:04:19.000   4177121.5636    854990.8243   4728454.2577   8   5   9.0288   5.7363   7.0729   6.0897   4.7549   7.2770   0.00  999.9
1997/06/24 15:04:20.000   4177121.5625    854990.8233   4728454.2570   8   5   9.0258   5.7358   7.0713   6.0880   4.7535   7.2746   0.00  999.9
1997/06/24 15:04:21.000   4177121.5622    854990.8238   4728454.2566   8   5   9.0228   5.7352   7.0698   6.0863   4.7521   7.2721   0.00  999.9
1997/06/24 15:04:22.000   4177121.5625    854990.8238   4728454.2563   8   5   9.0197   5.7347   7.0682   6.0846   4.7506   7.2697   0.00  999.9
1997/06/24 15:04:23.000   4177121.5628    854990.8238   4728454.2573   8   5   9.0167   5.7341   7.0666   6.0829   4.7492   7.2673   0.00  999.9
1997/06/24 15:04:24.000   4177121.5636    854990.8240   4728454.2576   8   5   9.0137   5.7336   7.0651   6.0813   4.7478   7.2649   0.00  999.9
1997/06/24 15:04:25.000   4177121.5628    854990.8239   4728454.2570   8   5   9.0107   5.7330   7.0635   6.0796   4.7464   7.2624   0.00  999.9
1997/06/24 15:04:26.000   4177121.5626    854990.8239   4728454.2566   8   5   9.0077   5.7325   7.0620   6.0779   4.7450   7.2600   0.00  999.9
1997/06/24 15:04:27.000   4177121.5625    854990.8238   4728454.2564   8   5   9.0047   5.7319   7.0604   6.0762   4.7436   7.2576   0.00  999.9
1997/06/24 15:04:28.000   4177121.5619    854990.8235   4728454.2563   8   5   9.0017   5.7314   7.0589   6.0745   4.7421   7.2551   0.00  999.9
1997/06/24 15:04:29.000   4177121.5625    854990.8235   4728454.2570   8   5   8.9987   5.7308   7.0573   6.0728   4.7407   7.2527   0.00  999.9
1997/06/24 15:04:30.000   4177121.5632    854990.8239   4728454.2569   8   5   8.9957   5.7303   7.0557   6.0711   4.7393   7.2503   0.00  999.9
1997/06/24 15:04:31.000   4177121.5640    854990.8241   4728454.2576   8   5   8.9927   5.7297   7.0542   6.0695   4.7379   7.2479   0.00  999.9
1997/06/24 15:04:32.000   4177121.5624    854990.8235   4728454.2563   8   5   8.9897   5.7292   7.0526   6.0678   4.7365   7.2454   0.00  999.9
1997/06/24 15:04:33.000   4177121.5636    854990.8241   4728454.2573   8   5   8.9867   5.7286   7.0511   6.0661   4.7351   7.2430   0.00  999.9
1997/06/24 15:04:34.000   4177121.5633    854990.8239   4728454.2573   8   5   8.9837   5.7281   7.0495   6.0644   4.7337   7.2406   0.00  999.9
1997/06/24 15:04:35.000   4177121.5622    854990.8230   4728454.2562   8   5   8.9807   5.7275   7.0480   6.0627   4.7322   7.2382   0.00  999.9
1997/06/24 15:04:36.000   4177121.5640    854990.8241   4728454.2583   8   5   8.9777   5.7270   7.0464   6.0610   4.7308   7.2357   0.00  999.9
1997/06/24 15:04:37.000   4177121.5640    854990.8244   4728454.2579   8   5   8.9747   5.7265   7.0448   6.0593   4.7294   7.2333   0.00  999.9
1997/06/24 15:04:38.000   4177121.5629    854990.8232   4728454.2566   8   5   8.9717   5.7259   7.0433   6.0577   4.7280   7.2309   0.00  999.9
1997/06/24 15:04:39.000   4177121.5621    854990.8236   4728454.2563   8   5   8.9687   5.7254   7.0417   6.0560   4.7266   7.2285   0.00  999.9
1997/06/24 15:04:40.000   4177121.5634    854990.8236   4728454.2573   8   5   8.9657   5.7248   7.0402   6.0543   4.7252   7.2261   0.00  999.9
1997/06/24 15:04:41.000   4177121.5632    854990.8233   4728454.2570   8   5   8.9627   5.7243   7.0386   6.0526   4.7238   7.2236   0.00  999.9
1997/06/24 15:04:42.000   4177121.5625    854990.8232   4728454.2566   8   5   8.9597   5.7237   7.0371   6.0509   4.7223   7.2212   0.00  999.9
1997/06/24 15:04:43.000   4177121.5642    854990.8233   4728454.2577   8   5   8.9567   5.7232   7.0355   6.0492   4.7209   7.2188   0.00  999.9
1997/06/24 15:04:44.000   4177121.5616    854990.8225   4728454.2558   8   5   8.9537   5.7226   7.0340   6.0476   4.7195   7.2164   0.00  999.9
1997/06/24 15:04:45.000   4177121.5627    854990.8239   4728454.2565   8   5   8.9508   5.7221   7.0324   6.0459   4.7181   7.2140   0.00  999.9
1997/06/24 15:04:46.000   4177121.5621    854990.8229   4728454.2563   8   5   8.9478   5.7215   7.0309   6.0442   4.7167   7.2115   0.00  999.9
1997/06/24 15:05:38.000   4177121.5632    854990.8242   4728454.2573   8   5   8.7936   5.6931   6.9510   5.9571   4.6433   7.0866   0.00  999.9
1997/06/24 15:05:39.000   4177121.5625    854990.8230   4728454.2573   8   5   8.7907   5.6926   6.9495   5.9555   4.6419   7.0842   0.00  999.9
1997/06/24 15:05:40.000   4177121.5620    854990.8224   4728454.2566   8   5   8.7877   5.6920   6.9479   5.9538   4.6405   7.0818   0.00  999.9
1997/06/24 15:05:41.000   4177121.5634    854990.8234   4728454.2577   8   5   8.7848   5.6915   6.9464   5.9521   4.6391   7.0794   0.00  999.9
1997/06/24 15:05:42.000   4177121.5639    854990.8235   4728454.2583   8   5   8.7819   5.6909   6.9449   5.9505   4.6377   7.0770   0.00  999.9
1997/06/24 15:05:43.000   4177121.5635    854990.8237   4728454.2578   8   5   8.7789   5.6904   6.9434   5.9488   4.6362   7.0746   0.00  999.9
1997/06/24 15:05:44.000   4177121.5617    854990.8225   4728454.2567   8   5   8.7760   5.6899   6.9418   5.9471   4.6348   7.0723   0.00  999.9
1997/06/24 15:05:45.000   4177121.5629    854990.8237   4728454.2583   8   5   8.7731   5.6893   6.9403   5.9455   4.6334   7.0699   0.00  999.9
1997/06/24 15:05:46.000   4177121.5621    854990.8227   4728454.2575   8   5   8.7701   5.6888   6.9388   5.9438   4.6320   7.0675   0.00  999.9
1997/06/24 15:05:47.000   4177121.5631    854990.8234   4728454.2575   8   5   8.7672   5.6882   6.9373   5.9421   4.6306   7.0651   0.00  999.9
1997/06/24 15:05:48.000   4177121.5612    854990.8226   4728454.2561   8   5   8.7643   5.6877   6.9358   5.9405   4.6292   7.0627   0.00  999.9
1997/06/24 15:05:49.000   4177121.5619    854990.8231   4728454.2565   8   5   8.7614   5.6871   6.9342   5.9388   4.6278   7.0603   0.00  999.9
1997/06/24 15:05:50.000   4177121.5623    854990.8234   4728454.2567   8   5   8.7584   5.6866   6.9327   5.9372   4.6264   7.0580   0.00  999.9
1997/06/24 15:05:51.000   4177121.5623    854990.8232   4728454.2562   8   5   8.7555   5.6861   6.9312   5.9355   4.6250   7.0556   0.00  999.9
1997/06/24 15:05:52.000   4177121.5625    854990.8232   4728454.2562   8   5   8.7526   5.6855   6.9297   5.9338   4.6236   7.0532   0.00  999.9
1997/06/24 15:05:53.000   4177121.5622    854990.8236   4728454.2563   8   5   8.7496   5.6850   6.9282   5.9322   4.6222   7.0508   0.00  999.9
1997/06/24 15:05:54.000   4177121.5626    854990.8236   4728454.2567   8   5   8.7467   5.6844   6.9267   5.9305   4.6208   7.0484   0.00  999.9
1997/06/24 15:05:55.000   4177121.5629    854990.8233   4728454.2574   8   5   8.7438   5.6839   6.9252   5.9288   4.6194   7.0461   0.00  999.9
1997/06/24 15:05:56.000   4177121.5622    854990.8231   4728454.2563   8   5   8.7409   5.6833   6.9236   5.9272   4.6180   7.0437   0.00  999.9
1997/06/24 15:05:57.000   4177121.5618    854990.8225   4728454.2561   8   5   8.7380   5.6828   6.9221   5.9255   4.6166   7.0413   0.00  999.9
1997/06/24 15:05:58.000   4177121.5620    854990.8230   4728454.2562   8   5   8.7350   5.6823   6.9206   5.9239   4.6152   7.0389   0.00  999.9
1997/06/24 15:05:59.000   4177121.5624    854990.8231   4728454.2567   8   5   8.7321   5.6817   6.9191   5.9222   4.6137   7.0366   0.00  999.9
1997/06/24 15:06:00.000   4177121.5612    854990.8232   4728454.2554   8   5   8.7292   5.6812   6.9176   5.9205   4.6123   7.0342   0.00  999.9
1997/06/24 15:06:01.000   4177121.5613    854990.8228   4728454.2553   8   5   8.7263   5.6806   6.9161   5.9189   4.6109   7.0318   0.00  999.9
1997/06/24 15:06:02.000   4177121.5634    854990.8234   4728454.2565   8   5   8.7234   5.6801   6.9146   5.9172   4.6095   7.0294   0.00  999.9
1997/06/24 15:06:03.000   4177121.5633    854990.8234   4728454.2571   8   5   8.7205   5.6795   6.9131   5.9156   4.6081   7.0271   0.00  999.9
1997/06/24 15:06:04.000   4177121.5628    854990.8230   4728454.2567   8   5   8.7175   5.6790   6.9115   5.9139   4.6067   7.0247   0.00  999.9
1997/06/24 15:06:05.000   4177121.5622    854990.8236   4728454.2566   8   5   8.7146   5.6785   6.9100   5.9122   4.6053   7.0223   0.00  999.9
1997/06/24 15:06:06.000   4177121.5625    854990.8237   4728454.2564   8   5   8.7117   5.6779   6.9085   5.9106   4.6039   7.0199   0.00  999.9
1997/06/24 15:06:07.000   4177121.5623    854990.8234   4728454.2565   8   5   8.7088   5.6774   6.9070   5.9089   4.6025   7.0176   0.00  999.9
1997/06/24 15:06:08.000   4177121.5622    854990.8234   4728454.2564   8   5   8.7059   5.6768   6.9055   5.9073   4.6011   7.0152   0.00  999.9
1997/06/24 15:06:09.000   4177121.5628    854990.8234   4728454.2568   8   5   8.7030   5.6763   6.9040   5.9056   4.5997   7.0128   0.00  999.9
1997/06/24 15:06:10.000   4177121.5624    854990.8239   4728454.2566   8   5   8.7001   5.6758   6.9025   5.9040   4.5983   7.0105   0.00  999.9
1997/06/24 15:06:11.000   4177121.5633    854990.8238   4728454.2573   8   5   8.6972   5.6752   6.9010   5.9023   4.5969   7.0081   0.00  999.9
1997/06/24 15:06:12.000   4177121.5622    854990.8237   4728454.2562   8   5   8.6943   5.6747   6.8995   5.9006   4.5955   7.0057   0.00  999.9
1997/06/24 15:06:13.000   4177121.5618    854990.8229   4728454.2558   8   5   8.6914   5.6741   6.8980   5.8990   4.5941   7.0034   0.00  999.9
1997/06/24 15:06:14.000   4177121.5624    854990.8228   4728454.2566   8   5   8.6885   5.6736   6.8965   5.8973   4.5927   7.0010   0.00  999.9
1997/06/24 15:06:15.000   4177121.5626    854990.8231   4728454.2564   8   5   8.6856   5.6731   6.8950   5.8957   4.5913   6.9986   0.00  999.9
1997/06/24 15:06:16.000   4177121.5639    854990.8234   4728454.2566   8   5   8.6827   5.6725   6.8935   5.8940   4.5899   6.9963   0.00  999.9
1997/06/24 15:06:17.000   4177121.5622    854990.8230   4728454.2556   8   5   8.6798   5.6720   6.8920   5.8924   4.5885   6.9939   0.00  999.9
1997/06/24 15:06:18.000   4177121.5629    854990.8240   4728454.2566   8   5   8.6769   5.6714   6.8905   5.8907   4.5871   6.9915   0.00  999.9
1997/06/24 15:06:19.000   4177121.5624    854990.8233   4728454.2565   8   5   8.6740   5.6709   6.8890   5.8891   4.5857   6.9892   0.00  999.9
1997/06/24 15:06:20.000   4177121.5626    854990.8232   4728454.2566   8   5   8.6711   5.6704   6.8875   5.8874   4.5843   6.9868   0.00  999.9
1997/06/24 15:06:21.000   4177121.5642    854990.8241   4728454.2581   8   5   8.6682   5.6698   6.8860   5.8858   4.5829   6.9845   0.00  999.9
1997/06/24 15:06:22.000   4177121.5627    854990.8236   4728454.2570   8   5   8.6653   5.6693   6.8845   5.8841   4.5815   6.9821   0.00  999.9
1997/06/24 15:06:23.000   4177121.5627    854990.8229   4728454.2568   8   5   8.6624   5.6687   6.8830   5.8825   4.5801   6.9797   0.00  999.9
1997/06/24 15:06:24.000   4177121.5617    854990.8235   4728454.2563   8   5   8.6595   5.6682   6.8815   5.8808   4.5787   6.9774   0.00  999.9
1997/06/24 15:06:25.000   4177121.5629    854990.8237   4728454.2571   8   5   8.6566   5.6677   6.8800   5.8792   4.5773   6.9750   0.00  999.9
1997/06/24 15:06:26.000   4177121.5632    854990.8234   4728454.2576   8   5   8.6537   5.6671   6.8785   5.8775   4.5759   6.9727   0.00  999.9
1997/06/24 15:06:27.000   4177121.5618    854990.8224   4728454.2570   8   5   8.6508   5.6666   6.8770   5.8758   4.5745   6.9703   0.00  999.9
1997/06/24 15:06:28.000   4177121.5628    854990.8234   4728454.2571   8   5   8.6479   5.6660   6.8755   5.8742   4.5731   6.9679   0.00  999.9
1997/06/24 15:06:29.000   4177121.5618    854990.8230   4728454.2567   8   5   8.6450   5.6655   6.8740   5.8725   4.5717   6.9656   0.00  999.9
1997/06/24 15:06:30.000   4177121.5629    854990.8234   4728454.2572   8   5   8.6421   5.6650   6.8725   5.8709   4.5703   6.9632   0.00  999.9
1997/06/24 15:06:31.000   4177121.5619    854990.8232   4728454.2562   8   5   8.6393   5.6644   6.8710   5.8693   4.5689   6.9609   0.00  999.9
1997/06/24 15:06:32.000   4177121.5631    854990.8233   4728454.2581   8   5   8.6364   5.6639   6.8695   5.8676   4.5675   6.9585   0.00  999.9
1997/06/24 15:06:33.000   4177121.5623    854990.8231   4728454.2572   8   5   8.6335   5.6633   6.8680   5.8660   4.5661   6.9562   0.00  999.9
1997/06/24 15:06:34.000   4177121.5621    854990.8225   4728454.2566   8   5   8.6306   5.6628   6.8665   5.8643   4.5647   6.9538   0.00  999.9
1997/06/24 15:06:35.000   4177121.5630    854990.8234   4728454.2575   8   5   8.6277   5.6623   6.8650   5.8627   4.5633   6.9515   0.00  999.9
1997/06/24 15:06:36.000   4177121.5640    854990.8237   4728454.2572   8   5   8.6248   5.6617   6.8635   5.8610   4.5619   6.9491   0.00  999.9
1997/06/24 15:06:37.000   4177121.5628    854990.8231   4728454.2570   8   5   8.6220   5.6612   6.8620   5.8594   4.5605   6.9467   0.00  999.9
1997/06/24 15:06:38.000   4177121.5622    854990.8231   4728454.2560   8   5   8.6191   5.6607   6.8606   5.8577   4.5591   6.9444   0.00  999.9
1997/06/24 15:06:39.000   4177121.5628    854990.8234   4728454.2564   8   5   8.6162   5.6601   6.8591   5.8561   4.5577   6.9420   0.00  999.9
1997/06/24 15:06:40.000   4177121.5629    854990.8234   4728454.2571   8   5   8.6133   5.6596   6.8576   5.8544   4.5563   6.9397   0.00  999.9
1997/06/24 15:06:41.000   4177121.5630    854990.8232   4728454.2566   8   5   8.6104   5.6590   6.8561   5.8528   4.5549   6.9373   0.00  999.9
1997/06/24 15:06:42.000   4177121.5628    854990.8235   4728454.2565   8   5   8.6076   5.6585   6.8546   5.8511   4.5535   6.9350   0.00  999.9
1997/06/24 15:06:43.000   4177121.5628    854990.8228   4728454.2564   8   5   8.6047   5.6580   6.8531   5.8495   4.5521   6.9327   0.00  999.9
1997/06/24 15:06:44.000   4177121.5624    854990.8230   4728454.2567   8   5   8.6018   5.6574   6.8516   5.8478   4.5507   6.9303   0.00  999.9
1997/06/24 15:06:45.000   4177121.5623    854990.8234   4728454.2566   8   5   8.5990   5.6569   6.8501   5.8462   4.5493   6.9280   0.00  999.9
1997/06/24 15:06:46.000   4177121.5624    854990.8230   4728454.2562   8   5   8.5961   5.6564   6.8487   5.8446   4.5479   6.9256   0.00  999.9
1997/06/24 15:06:47.000   4177121.5639    854990.8237   4728454.2580   8   5   8.5932   5.6558   6.8472   5.8429   4.5465   6.9233   0.00  999.9
1997/06/24 15:06:48.000   4177121.5629    854990.8235   4728454.2573   8   5   8.5903   5.6553   6.8457   5.8413   4.5451   6.9209   0.00  999.9
1997/06/24 15:06:49.000   4177121.5634    854990.8235   4728454.2579   8   5   8.5875   5.6547   6.8442   5.8396   4.5437   6.9186   0.00  999.9
1997/06/24 15:06:50.000   4177121.5638    854990.8232   4728454.2586   8   5   8.5846   5.6542   6.8427   5.8380   4.5423   6.9162   0.00  999.9
1997/06/24 15:06:51.000   4177121.5639    854990.8234   4728454.2581   8   5   8.5817   5.6537   6.8412   5.8363   4.5409   6.9139   0.00  999.9
1997/06/24 15:06:52.000   4177121.5632    854990.8228   4728454.2575   8   5   8.5789   5.6531   6.8397   5.8347   4.5395   6.9116   0.00  999.9
1997/06/24 15:06:53.000   4177121.5629    854990.8235   4728454.2577   8   5   8.5760   5.6526   6.8383   5.8331   4.5382   6.9092   0.00  999.9
1997/06/24 15:06:54.000   4177121.5625    854990.8229   4728454.2564   8   5   8.5732   5.6521   6.8368   5.8314   4.5368   6.9069   0.00  999.9
1997/06/24 15:06:55.000   4177121.5626    854990.8231   4728454.2572   8   5   8.5703   5.6515   6.8353   5.8298   4.5354   6.9045   0.00  999.9
1997/06/24 15:06:56.000   4177121.5621    854990.8233   4728454.2570   8   5   8.5674   5.6510   6.8338   5.8281   4.5340   6.9022   0.00  999.9
1997/06/24 15:06:57.000   4177121.5619    854990.8229   4728454.2567   8   5   8.5646   5.6505   6.8323   5.8265   4.5326   6.8999   0.00  999.9
1997/06/24 15:06:58.000   4177121.5628    854990.8234   4728454.2569   8   5   8.5617   5.6499   6.8309   5.8249   4.5312   6.8975   0.00  999.9
1997/06/24 15:06:59.000   4177121.5619    854990.8224   4728454.2571   8   5   8.5589   5.6494   6.8294   5.8232   4.5298   6.8952   0.00  999.9
1997/06/24 15:07:00.000   4177121.5626    854990.8236   4728454.2573   8   5   8.5560   5.6489   6.8279   5.8216   4.5284   6.8928   0.00  999.9
1997/06/24 15:07:01.000   4177121.5619    854990.8233   4728454.2571   8   5   8.5532   5.6483   6.8264   5.8200   4.5270   6.8905   0.00  999.9
1997/06/24 15:07:02.000   4177121.5624    854990.8234   4728454.2566   8   5   8.5503   5.6478   6.8250   5.8183   4.5256   6.8882   0.00  999.9
1997/06/24 15:07:03.000   4177121.5626    854990.8231   4728454.2576   8   5   8.5475   5.6473   6.8235   5.8167   4.5242   6.8858   0.00  999.9
1997/06/24 15:07:04.000   4177121.5633    854990.8234   4728454.2576   8   5   8.5446   5.6467   6.8220   5.8150   4.5228   6.8835   0.00  999.9
1997/06/24 15:07:05.000   4177121.5627    854990.8230   4728454.2573   8   5   8.5417   5.6462   6.8205   5.8134   4.5214   6.8812   0.00  999.9
1997/06/24 15:07:06.000   4177121.5630    854990.8229   4728454.2567   8   5   8.5389   5.6457   6.8191   5.8118   4.5200   6.8788   0.00  999.9
1997/06/24 15:07:07.000   4177121.5622    854990.8232   4728454.2564   8   5   8.5361   5.6451   6.8176   5.8101   4.5187   6.8765   0.00  999.9
1997/06/24 15:07:08.000   4177121.5625    854990.8235   4728454.2568   8   5   8.5332   5.6446   6.8161   5.8085   4.5173   6.8742   0.00  999.9
1997/06/24 15:07:09.000   4177121.5622    854990.8230   4728454.2569   8   5   8.5304   5.6441   6.8146   5.8069   4.5159   6.8719   0.00  999.9
1997/06/24 15:07:10.000   4177121.5623    854990.8233   4728454.2563   8   5   8.5275   5.6435   6.8132   5.8052   4.5145   6.8695   0.00  999.9
1997/06/24 15:07:11.000   4177121.5620    854990.8228   4728454.2564   8   5   8.5247   5.6430   6.8117   5.8036   4.5131   6.8672   0.00  999.9
1997/06/24 15:07:12.000   4177121.5642    854990.8237   4728454.2582   8   5   8.5218   5.6425   6.8102   5.8020   4.5117   6.8649   0.00  999.9
1997/06/24 15:07:13.000   4177121.5617    854990.8223   4728454.2567   8   5   8.5190   5.6419   6.8088   5.8003   4.5103   6.8625   0.00  999.9
1997/06/24 15:07:14.000   4177121.5624    854990.8232   4728454.2565   8   5   8.5161   5.6414   6.8073   5.7987   4.5089   6.8602   0.00  999.9
1997/06/24 15:07:15.000   4177121.5638    854990.8233   4728454.2578   8   5   8.5133   5.6409   6.8058   5.7971   4.5075   6.8579   0.00  999.9
1997/06/24 15:07:16.000   4177121.5644    854990.8239   4728454.2581   8   5   8.5105   5.6403   6.8044   5.7954   4.5061   6.8556   0.00  999.9
1997/06/24 15:07:17.000   4177121.5634    854990.8231   4728454.2573   8   5   8.5076   5.6398   6.8029   5.7938   4.5048   6.8532   0.00  999.9
1997/06/24 15:07:18.000   4177121.5641    854990.8237   4728454.2579   8   5   8.5048   5.6393   6.8014   5.7922   4.5034   6.8509   0.00  999.9
1997/06/24 15:07:19.000   4177121.5639    854990.8239   4728454.2575   8   5   8.5020   5.6387   6.8000   5.7905   4.5020   6.8486   0.00  999.9
1997/06/24 15:07:20.000   4177121.5633    854990.8240   4728454.2579   8   5   8.4991   5.6382   6.7985   5.7889   4.5006   6.8463   0.00  999.9
1997/06/24 15:07:21.000   4177121.5643    854990.8238   4728454.2584   8   5   8.4963   5.6377   6.7970   5.7873   4.4992   6.8440   0.00  999.9
1997/06/24 15:07:22.000   4177121.5638    854990.8235   4728454.2577   8   5   8.4935   5.6371   6.7956   5.7857   4.4978   6.8416   0.00  999.9
1997/06/24 15:07:23.000   4177121.5645    854990.8241   4728454.2582   8   5   8.4906   5.6366   6.7941   5.7840   4.4964   6.8393   0.00  999.9
1997/06/24 15:07:24.000   4177121.5631    854990.8236   4728454.2570   8   5   8.4878   5.6361   6.7926   5.7824   4.4950   6.8370   0.00  999.9
1997/06/24 15:07:25.000   4177121.5628    854990.8237   4728454.2573   8   5   8.4850   5.6355   6.7912   5.7808   4.4936   6.8347   0.00  999.9
1997/06/24 15:07:26.000   4177121.5631    854990.8234   4728454.2573   8   5   8.4821   5.6350   6.7897   5.7791   4.4923   6.8324   0.00  999.9
1997/06/24 15:07:27.000   4177121.5624    854990.8231   4728454.2566   8   5   8.4793   5.6345   6.7883   5.7775   4.4909   6.8300   0.00  999.9
1997/06/24 15:07:28.000   4177121.5618    854990.8232   4728454.2567   8   5   8.4765   5.6339   6.7868   5.7759   4.4895   6.8277   0.00  999.9
1997/06/24 15:07:29.000   4177121.5617    854990.8228   4728454.2564   8   5   8.4737   5.6334   6.7853   5.7743   4.4881   6.8254   0.00  999.9
1997/06/24 15:07:30.000   4177121.5624    854990.8232   4728454.2566   8   5   8.4709   5.6329   6.7839   5.7726   4.4867   6.8231   0.00  999.9
1997/06/24 15:07:31.000   4177121.5622    854990.8229   4728454.2560   8   5   8.4680   5.6324   6.7824   5.7710   4.4853   6.8208   0.00  999.9
1997/06/24 15:07:32.000   4177121.5635    854990.8241   4728454.2574   8   5   8.4652   5.6318   6.7810   5.7694   4.4839   6.8185   0.00  999.9
1997/06/24 15:07:33.000   4177121.5624    854990.8233   4728454.2568   8   5   8.4624   5.6313   6.7795   5.7678   4.4826   6.8162   0.00  999.9
1997/06/24 15:07:34.000   4177121.5632    854990.8237   4728454.2577   8   5   8.4596   5.6308   6.7780   5.7661   4.4812   6.8138   0.00  999.9
1997/06/24 15:07:35.000   4177121.5622    854990.8232   4728454.2566   8   5   8.4568   5.6302   6.7766   5.7645   4.4798   6.8115   0.00  999.9
1997/06/24 15:07:36.000   4177121.5622    854990.8233   4728454.2565   8   5   8.4539   5.6297   6.7751   5.7629   4.4784   6.8092   0.00  999.9
1997/06/24 15:07:37.000   4177121.5618    854990.8228   4728454.2559   8   5   8.4511   5.6292   6.7737   5.7613   4.4770   6.8069   0.00  999.9
1997/06/24 15:07:38.000   4177121.5611    854990.8227   4728454.2555   8   5   8.4483   5.6286   6.7722   5.7596   4.4756   6.8046   0.00  999.9
1997/06/24 15:07:39.000   4177121.5622    854990.8238   4728454.2563   8   5   8.4455   5.6281   6.7708   5.7580   4.4743   6.8023   0.00  999.9
1997/06/24 15:07:40.000   4177121.5626    854990.8235   4728454.2563   8   5   8.4427   5.6276   6.7693   5.7564   4.4729   6.8000   0.00  999.9
1997/06/24 15:07:41.000   4177121.5620    854990.8229   4728454.2560   8   5   8.4399   5.6271   6.7679   5.7548   4.4715   6.7977   0.00  999.9
1997/06/24 15:07:42.000   4177121.5621    854990.8230   4728454.2566   8   5   8.4371   5.6265   6.7664   5.7532   4.4701   6.7954   0.00  999.9
1997/06/24 15:07:43.000   4177121.5642    854990.8239   4728454.2579   8   5   8.4343   5.6260   6.7650   5.7515   4.4687   6.7931   0.00  999.9
1997/06/24 15:07:44.000   4177121.5627    854990.8236   4728454.2565   8   5   8.4314   5.6255   6.7635   5.7499   4.4673   6.7908   0.00  999.9
1997/06/24 15:07:45.000   4177121.5624    854990.8229   4728454.2564   8   5   8.4286   5.6249   6.7621   5.7483   4.4660   6.7885   0.00  999.9
1997/06/24 15:07:46.000   4177121.5625    854990.8227   4728454.2571   8   5   8.4258   5.6244   6.7606   5.7467   4.4646   6.7862   0.00  999.9
1997/06/24 15:07:46.999   4177121.5627    854990.8229   4728454.2576   8   5   8.4230   5.6239   6.7592   5.7451   4.4632   6.7839   0.00  999.9
1997/06/24 15:07:47.999   4177121.5632    854990.8230   4728454.2582   8   5   8.4202   5.6234   6.7577   5.7434   4.4618   6.7815   0.00  999.9
1997/06/24 15:07:48.999   4177121.5619    854990.8229   4728454.2563   8   5   8.4174   5.6228   6.7563   5.7418   4.4604   6.7792   0.00  999.9
1997/06/24 15:07:49.999   4177121.5623    854990.8233   4728454.2575   8   5   8.4146   5.6223   6.7548   5.7402   4.4591   6.7769   0.00  999.9
1997/06/24 15:07:50.999   4177121.5625    854990.8232   4728454.2575   8   5   8.4118   5.6218   6.7534   5.7386   4.4577   6.7746   0.00  999.9
1997/06/24 15:07:51.999   4177121.5630    854990.8231   4728454.2573   8   5   8.4090   5.6213   6.7519   5.7370   4.4563   6.7723   0.00  999.9
1997/06/24 15:07:52.999   4177121.5621    854990.8229   4728454.2572   8   5   8.4062   5.6207   6.7505   5.7354   4.4549   6.7701   0.00  999.9
