% program   : RTKLIB ver.2.4.2
% inp file  : 60011474.19o
% inp file  : 60011474.19n
% inp file  : Gesamt.19o
% obs start : 2019/05/27 09:51:40.0 GPST (week2055 121900.0s)
% obs end   : 2019/05/27 10:41:55.0 GPST (week2055 124915.0s)
% pos mode  : static
% freqs     : L1+L2
% solution  : forward
% elev mask : 15.0 deg
% dynamics  : off
% tidecorr  : off
% ionos opt : off
% tropo opt : off
% ephemeris : broadcast
% amb res   : continuous
% val thres : 3.0
% antenna1  :                       ( 0.0000  0.0000  0.0000)
% antenna2  :                       ( 0.0000  0.0000  0.0000)
% ref pos   :  4146524.6510   613137.8260  4791516.9660
%
% (x/y/z-ecef=WGS84,Q=1:fix,2:float,3:sbas,4:dgps,5:single,6:ppp,ns=# of satellites)
%  GPST                      x-ecef(m)      y-ecef(m)      z-ecef(m)   Q  ns   sdx(m)   sdy(m)   sdz(m)  sdxy(m)  sdyz(m)  sdzx(m) age(s)  ratio
2019/05/27 09:51:40.000   4146334.3471    611809.0391   4791825.4483   8   7   5.1763   2.7184   5.1064   2.8143   2.0488   4.0977   0.00    1.0
2019/05/27 09:51:45.000   4146334.3596    611809.0444   4791825.4544   8   8   4.5902   2.0865   5.0194   1.9378   1.5997   3.8133   0.00    1.1
2019/05/27 09:51:50.000   4146334.3618    611809.0544   4791825.4374   8   7   4.5887   2.0868   5.0190   1.9377   1.5975   3.8115   0.00    1.1
2019/05/27 09:51:55.000   4146334.4602    611809.0696   4791825.5080   8   7   4.6275   2.3350   5.0963   1.7652   1.2715   3.8801   0.00    1.3
2019/05/27 09:52:00.000   4146334.4035    611809.0756   4791825.4547   8   7   4.6259   2.3353   5.0956   1.7654   1.2694   3.8781   0.00    1.6
2019/05/27 09:52:05.000   4146334.3903    611809.0702   4791825.4532   8   7   4.6242   2.3356   5.0948   1.7656   1.2673   3.8761   0.00    1.7
2019/05/27 09:52:15.000   4146334.3740    611809.0568   4791825.4475   8   7   4.6209   2.3362   5.0933   1.7659   1.2631   3.8720   0.00    1.7
2019/05/27 09:52:20.000   4146334.3779    611809.0565   4791825.4481   8   6   4.6192   2.3364   5.0926   1.7661   1.2610   3.8700   0.00    1.7
2019/05/27 09:52:25.000   4146334.3960    611809.0724   4791825.4513   8   7   4.6175   2.3367   5.0918   1.7662   1.2588   3.8680   0.00    2.0
2019/05/27 09:52:30.000   4146334.3913    611809.0756   4791825.4520   8   7   4.6159   2.3370   5.0911   1.7664   1.2567   3.8659   0.00    2.1
2019/05/27 09:52:35.000   4146334.3812    611809.0741   4791825.4504   8   7   4.6142   2.3373   5.0903   1.7665   1.2545   3.8638   0.00    2.1
2019/05/27 09:52:40.000   4146334.3657    611809.0683   4791825.4383   8   7   4.6125   2.3376   5.0895   1.7667   1.2523   3.8618   0.00    2.1
2019/05/27 09:52:45.000   4146334.3654    611809.0624   4791825.4337   8   7   4.6108   2.3379   5.0887   1.7668   1.2501   3.8597   0.00    2.0
2019/05/27 09:52:50.000   4146334.3488    611809.0495   4791825.4398   8   7   4.6091   2.3382   5.0880   1.7669   1.2479   3.8576   0.00    2.0
2019/05/27 09:52:55.000   4146334.3599    611809.0533   4791825.4456   8   7   4.6074   2.3384   5.0872   1.7671   1.2456   3.8555   0.00    1.9
2019/05/27 09:53:00.000   4146334.3378    611809.0451   4791825.4489   8   7   4.6057   2.3387   5.0864   1.7672   1.2434   3.8534   0.00    1.8
2019/05/27 09:53:05.000   4146334.3519    611809.0415   4791825.4609   8   6   4.6039   2.3390   5.0856   1.7673   1.2411   3.8513   0.00    1.0
2019/05/27 09:53:10.000   4146334.3147    611809.0409   4791825.4545   8   7   4.6022   2.3393   5.0847   1.7674   1.2389   3.8491   0.00    1.2
2019/05/27 09:53:15.000   4146334.3142    611809.0357   4791825.4621   8   6   4.6005   2.3396   5.0839   1.7675   1.2366   3.8470   0.00    1.4
2019/05/27 09:53:20.000   4146334.3229    611809.0382   4791825.4590   8   7   4.5988   2.3399   5.0831   1.7677   1.2343   3.8448   0.00    1.2
2019/05/27 09:53:25.000   4146334.3185    611809.0433   4791825.4686   8   7   4.5970   2.3402   5.0823   1.7678   1.2320   3.8427   0.00    1.2
2019/05/27 09:53:30.000   4146334.3256    611809.0451   4791825.4614   8   6   4.5953   2.3405   5.0814   1.7679   1.2297   3.8405   0.00    1.6
2019/05/27 09:53:35.000   4146334.3152    611809.0496   4791825.4422   8   6   4.5935   2.3408   5.0806   1.7680   1.2273   3.8383   0.00    1.6
2019/05/27 09:53:40.000   4146334.3067    611809.0387   4791825.4504   8   8   3.9193   2.0634   4.9687   0.6933   0.5766   3.4913   0.00    1.2
2019/05/27 09:53:45.000   4146334.3125    611809.0413   4791825.4470   8   7   3.9193   2.0636   4.9690   0.6956   0.5766   3.4913   0.00    1.5
2019/05/27 09:53:50.000   4146334.3190    611809.0393   4791825.4554   8   7   3.9193   2.0637   4.9693   0.6979   0.5766   3.4912   0.00    1.2
2019/05/27 09:53:55.000   4146334.3587    611809.0529   4791825.4616   8   7   3.9193   2.0639   4.9696   0.7002   0.5766   3.4912   0.00    1.2
2019/05/27 09:54:00.000   4146334.3028    611809.0387   4791825.4516   8   7   5.7703   2.5541   5.4331  -2.4244  -1.7234   4.6352   0.00    1.8
2019/05/27 09:54:05.000   4146334.3510    611809.0377   4791825.4560   8   7   3.9193   2.0641   4.9702   0.7048   0.5765   3.4911   0.00    1.4
2019/05/27 09:54:10.000   4146334.3008    611809.0392   4791825.4474   8   7   5.7703   2.5513   5.4334  -2.4186  -1.7200   4.6349   0.00    1.4
2019/05/27 09:54:15.000   4146334.2911    611809.0401   4791825.4411   8   7   5.7702   2.5499   5.4336  -2.4157  -1.7183   4.6348   0.00    1.6
2019/05/27 09:54:20.000   4146334.2936    611809.0444   4791825.4452   8   7   5.7702   2.5485   5.4337  -2.4128  -1.7166   4.6346   0.00    1.6
2019/05/27 09:54:25.000   4146334.2988    611809.0428   4791825.4375   8   7   5.7702   2.5472   5.4338  -2.4099  -1.7148   4.6344   0.00    1.6
2019/05/27 09:54:30.000   4146334.2939    611809.0416   4791825.4327   8   7   5.7701   2.5458   5.4339  -2.4070  -1.7131   4.6342   0.00    1.5
2019/05/27 09:54:35.000   4146334.2982    611809.0404   4791825.4298   8   7   5.7701   2.5445   5.4340  -2.4041  -1.7114   4.6340   0.00    1.4
2019/05/27 09:54:40.000   4146334.3057    611809.0359   4791825.4403   8   7   5.7700   2.5431   5.4340  -2.4012  -1.7097   4.6338   0.00    1.4
2019/05/27 09:54:45.000   4146334.3009    611809.0372   4791825.4356   8   7   5.7700   2.5417   5.4341  -2.3983  -1.7080   4.6335   0.00    1.4
2019/05/27 09:54:50.000   4146334.2979    611809.0365   4791825.4399   8   8   3.9188   2.0655   4.9721   0.7247   0.5758   3.4902   0.00    1.0
2019/05/27 09:54:55.000   4146334.3156    611809.0385   4791825.4394   8   8   3.9187   2.0656   4.9723   0.7269   0.5757   3.4900   0.00    1.1
2019/05/27 09:55:00.000   4146334.3385    611809.0329   4791825.4504   8   7   3.9186   2.0658   4.9725   0.7290   0.5756   3.4898   0.00    1.1
2019/05/27 09:55:05.000   4146334.3140    611809.0290   4791825.4485   8   7   5.7697   2.5364   5.4342  -2.3868  -1.7011   4.6325   0.00    1.3
2019/05/27 09:55:10.000   4146334.3008    611809.0349   4791825.4386   8   7   5.7696   2.5350   5.4342  -2.3839  -1.6994   4.6322   0.00    1.3
2019/05/27 09:55:15.000   4146334.3013    611809.0299   4791825.4382   8   7   5.7696   2.5337   5.4342  -2.3810  -1.6977   4.6319   0.00    1.3
2019/05/27 09:55:20.000   4146334.3181    611809.0360   4791825.4373   8   7   5.7695   2.5324   5.4342  -2.3781  -1.6960   4.6316   0.00    1.3
2019/05/27 09:55:25.000   4146334.3368    611809.0417   4791825.4476   8   7   4.5538   2.3472   5.0608   1.7692   1.1723   3.7880   0.00    1.0
2019/05/27 09:55:30.000   4146334.4198    611809.0950   4791825.3792   8   6   3.9180   2.0667   4.9732   0.7418   0.5747   3.4886   0.00    1.0
2019/05/27 09:55:35.000   4146334.3099    611809.0304   4791825.4360   8   8   3.9178   2.0669   4.9733   0.7439   0.5745   3.4883   0.00    1.0
2019/05/27 09:55:40.000   4146334.3080    611809.0287   4791825.4417   8   8   3.9177   2.0670   4.9734   0.7459   0.5743   3.4881   0.00    1.0
2019/05/27 09:55:45.000   4146334.3139    611809.0248   4791825.4556   8   9   3.8623   1.8047   4.9019   1.1048   1.0849   3.4079   0.00    1.0
2019/05/27 09:55:50.000   4146334.3134    611809.0231   4791825.4415   8   9   3.8623   1.8049   4.9023   1.1058   1.0838   3.4079   0.00    1.0
2019/05/27 09:55:55.000   4146334.3187    611809.0277   4791825.4429   8   9   3.8623   1.8051   4.9027   1.1069   1.0828   3.4079   0.00    1.1
2019/05/27 09:56:00.000   4146334.3135    611809.0191   4791825.4490   8   9   3.8623   1.8054   4.9031   1.1079   1.0818   3.4079   0.00    1.2
2019/05/27 09:56:05.000   4146334.3190    611809.0301   4791825.4406   8   9   3.8622   1.8056   4.9034   1.1089   1.0808   3.4078   0.00    1.2
2019/05/27 09:56:10.000   4146334.3206    611809.0299   4791825.4422   8   9   3.8622   1.8059   4.9038   1.1099   1.0797   3.4078   0.00    1.1
2019/05/27 09:56:15.000   4146334.3182    611809.0347   4791825.4312   8   9   3.8622   1.8061   4.9041   1.1109   1.0787   3.4077   0.00    1.1
2019/05/27 09:56:20.000   4146334.3361    611809.0278   4791825.4560   8   8   3.8621   1.8063   4.9044   1.1119   1.0776   3.4076   0.00    1.1
2019/05/27 09:56:25.000   4146334.3106    611809.0198   4791825.4525   8   9   3.8621   1.8066   4.9047   1.1129   1.0766   3.4075   0.00    1.1
2019/05/27 09:56:30.000   4146334.3018    611809.0132   4791825.4482   8   9   3.8620   1.8068   4.9050   1.1139   1.0755   3.4074   0.00    1.2
2019/05/27 09:56:35.000   4146334.2932    611809.0142   4791825.4516   8   8   3.8620   1.8070   4.9053   1.1149   1.0744   3.4073   0.00    1.0
2019/05/27 09:56:40.000   4146334.3179    611809.0268   4791825.4510   8   8   3.8619   1.8073   4.9056   1.1159   1.0734   3.4072   0.00    1.0
2019/05/27 09:56:45.000   4146334.3103    611809.0352   4791825.4314   8   8   3.9156   2.0691   4.9736   0.7721   0.5713   3.4838   0.00    1.0
2019/05/27 09:56:50.000   4146334.3048    611809.0312   4791825.4388   8   8   3.8618   1.8078   4.9062   1.1179   1.0712   3.4069   0.00    1.1
2019/05/27 09:56:55.000   4146334.3291    611809.0285   4791825.4399   8   9   3.8617   1.8080   4.9064   1.1189   1.0701   3.4068   0.00    1.1
2019/05/27 09:57:00.000   4146334.2981    611809.0175   4791825.4433   8   9   3.8616   1.8083   4.9066   1.1199   1.0690   3.4066   0.00    1.2
2019/05/27 09:57:05.000   4146334.2989    611809.0163   4791825.4331   8   8   3.8615   1.8085   4.9069   1.1208   1.0679   3.4064   0.00    1.1
2019/05/27 09:57:10.000   4146334.3130    611809.0227   4791825.4556   8   9   3.8614   1.8088   4.9071   1.1218   1.0668   3.4062   0.00    1.2
2019/05/27 09:57:15.000   4146334.3046    611809.0243   4791825.4475   8   8   3.8613   1.8090   4.9073   1.1228   1.0657   3.4060   0.00    1.2
2019/05/27 09:57:20.000   4146334.3368    611809.0422   4791825.4566   8   8   3.9142   2.0703   4.9730   0.7856   0.5691   3.4808   0.00    1.1
2019/05/27 09:57:25.000   4146334.3303    611809.0367   4791825.4542   8   8   3.9139   2.0705   4.9728   0.7875   0.5688   3.4803   0.00    1.3
2019/05/27 09:57:30.000   4146334.3387    611809.0447   4791825.4554   8   8   3.9137   2.0707   4.9727   0.7894   0.5684   3.4798   0.00    1.4
2019/05/27 09:57:35.000   4146334.3334    611809.0373   4791825.4565   8   8   3.9134   2.0708   4.9726   0.7913   0.5681   3.4793   0.00    1.4
2019/05/27 09:57:40.000   4146334.3302    611809.0376   4791825.4530   8   8   3.9132   2.0710   4.9724   0.7931   0.5677   3.4788   0.00    1.5
2019/05/27 09:57:45.000   4146334.3460    611809.0537   4791825.4338   8   8   3.9130   2.0712   4.9722   0.7950   0.5673   3.4783   0.00    1.5
2019/05/27 09:57:50.000   4146334.3454    611809.0530   4791825.4294   8   7   3.9127   2.0713   4.9721   0.7968   0.5670   3.4777   0.00    1.5
2019/05/27 09:57:55.000   4146334.3551    611809.0613   4791825.4280   8   8   3.9124   2.0715   4.9719   0.7987   0.5666   3.4772   0.00    1.2
2019/05/27 09:58:00.000   4146334.3714    611809.0639   4791825.4364   8   8   3.9122   2.0717   4.9717   0.8005   0.5662   3.4766   0.00    1.4
2019/05/27 09:58:05.000   4146334.3389    611809.0488   4791825.4440   8   7   3.9119   2.0719   4.9715   0.8024   0.5658   3.4761   0.00    1.4
2019/05/27 09:58:10.000   4146334.3576    611809.0576   4791825.4671   8   7   3.9116   2.0720   4.9713   0.8042   0.5653   3.4755   0.00    1.2
2019/05/27 09:58:15.000   4146334.3708    611809.0694   4791825.4507   8   8   3.9114   2.0722   4.9711   0.8060   0.5649   3.4749   0.00    1.0
2019/05/27 09:58:20.000   4146334.3431    611809.0485   4791825.4521   8   8   3.9111   2.0724   4.9708   0.8078   0.5645   3.4743   0.00    1.0
2019/05/27 09:58:25.000   4146334.3550    611809.0516   4791825.4481   8   6   3.9882   2.3530   6.5828  -0.4642  -2.1190   3.9295   0.00    2.0
2019/05/27 09:58:30.000   4146334.3681    611809.0585   4791825.4501   8   6   3.9883   2.3534   6.5869  -0.4641  -2.1214   3.9308   0.00    2.1
2019/05/27 09:58:45.000   4146334.3263    611809.0431   4791825.4389   8   9   3.8586   1.8136   4.9093   1.1397   1.0445   3.4005   0.00    1.2
2019/05/27 09:58:50.000   4146334.3328    611809.0481   4791825.4409   8   8   3.8584   1.8139   4.9093   1.1407   1.0433   3.4001   0.00    1.4
2019/05/27 09:58:55.000   4146334.3612    611809.0617   4791825.4548   8   8   3.9090   2.0736   4.9689   0.8202   0.5612   3.4699   0.00    1.5
2019/05/27 09:59:00.000   4146334.3225    611809.0645   4791825.4113   8   6   4.0154   2.6426   6.6263   0.5797  -2.2579   3.9118   0.00    1.9
2019/05/27 09:59:05.000   4146334.3336    611809.0678   4791825.4181   8   6   4.0155   2.6431   6.6301   0.5799  -2.2596   3.9131   0.00    2.0
2019/05/27 09:59:10.000   4146334.3397    611809.0610   4791825.4323   8   6   4.0156   2.6436   6.6339   0.5801  -2.2613   3.9144   0.00    2.0
2019/05/27 09:59:15.000   4146334.3653    611809.0629   4791825.4393   8   6   4.0157   2.6440   6.6377   0.5803  -2.2630   3.9157   0.00    2.1
2019/05/27 09:59:20.000   4146334.3337    611809.0594   4791825.4219   8   5   6.8814   3.5592   8.6179  -3.6021  -4.2674   6.7846   0.00    1.9
2019/05/27 09:59:25.000   4146334.3118    611809.0439   4791825.4442   8   6   5.8129   2.6566   5.4230  -2.0595  -1.5317   4.6217   0.00    1.4
2019/05/27 09:59:30.000   4146334.3411    611809.0561   4791825.4429   8   6   5.8126   2.6557   5.4224  -2.0562  -1.5293   4.6209   0.00    1.4
2019/05/27 09:59:35.000   4146334.3265    611808.9525   4791825.5763   8   6   3.9465   2.3217   4.9684   1.1319   0.6808   3.4761   0.00    1.3
2019/05/27 09:59:40.000   4146334.2663    611808.9836   4791825.5908   8   7   3.9462   2.3221   4.9680   1.1333   0.6815   3.4754   0.00    1.2
2019/05/27 09:59:45.000   4146334.2941    611808.9657   4791825.5843   8   6   3.9055   2.0754   4.9654   0.8374   0.5558   3.4626   0.00    1.5
2019/05/27 09:59:50.000   4146334.2798    611808.9713   4791825.5825   8   7   3.9052   2.0756   4.9650   0.8391   0.5552   3.4618   0.00    1.5
2019/05/27 10:00:05.000   4146334.4786    611809.1164   4791825.3792   8   7   5.7587   2.4625   5.4114  -2.2120  -1.5961   4.5925   0.00    2.0
2019/05/27 10:00:10.000   4146334.3303    611809.1161   4791825.7031   8   7   5.7584   2.4614   5.4106  -2.2091  -1.5943   4.5915   0.00    2.5
2019/05/27 10:00:15.000   4146334.0023    611808.9769   4791825.5223   8   7   5.7581   2.4602   5.4099  -2.2062  -1.5926   4.5904   0.00    2.8
2019/05/27 10:00:20.000   4146334.3886    611809.0595   4791825.4586   8   7   5.7579   2.4591   5.4091  -2.2032  -1.5908   4.5893   0.00    2.6
2019/05/27 10:00:25.000   4146333.6739    611808.8970   4791825.6074   8   5  10.0530   3.0918   6.3076   3.0058   1.7062   6.9138   0.00    4.5
2019/05/27 10:00:30.000   4146334.9350    611809.3039   4791825.5380   2   5   0.0465   0.0257   0.0179   0.0239   0.0087   0.0176   0.00    1.4
2019/05/27 10:00:35.000   4146334.9233    611809.2983   4791825.5378   2   7   0.0462   0.0255   0.0177   0.0238   0.0087   0.0175   0.00    1.1
2019/05/27 10:00:40.000   4146334.4158    611809.0586   4791825.4667   8   7   5.0791   2.0940   5.1108   0.7188   0.8008   4.0262   0.00    1.1
2019/05/27 10:00:45.000   4146334.0494    611808.9759   4791825.5447   8   6   8.2731   2.9608   5.6041   3.7670   2.3351   5.5877   0.00    2.9
2019/05/27 10:00:50.000   4146334.0480    611808.9817   4791825.5382   1   6   0.0020   0.0006   0.0015   0.0005  -0.0003   0.0015   0.00    3.5
2019/05/27 10:00:55.000   4146334.0482    611808.9815   4791825.5387   1   6   0.0020   0.0006   0.0015   0.0005  -0.0003   0.0015   0.00    4.0
2019/05/27 10:01:00.000   4146334.6275    611809.1426   4791825.3298   8   5   9.9799   3.0977   6.2583   3.0258   1.6988   6.8365   0.00    5.3
2019/05/27 10:01:05.000   4146334.3367    611809.0502   4791825.4477   8   5   8.2524   2.9655   5.5904   3.7679   2.3227   5.5622   0.00    5.3
2019/05/27 10:01:15.000   4146334.3284    611809.0470   4791825.4535   8   5   9.9492   3.1003   6.2374   3.0342   1.6953   6.8036   0.00    5.2
2019/05/27 10:01:20.000   4146334.3366    611809.0378   4791825.4536   8   7   5.0836   2.0956   5.1114   0.7550   0.8017   4.0270   0.00    1.4
2019/05/27 10:01:25.000   4146334.3417    611809.0361   4791825.4692   8   7   5.0842   2.0958   5.1114   0.7594   0.8018   4.0271   0.00    1.8
2019/05/27 10:01:30.000   4146334.3374    611809.0430   4791825.4532   8   7   5.0847   2.0960   5.1114   0.7638   0.8020   4.0271   0.00    2.1
2019/05/27 10:01:35.000   4146334.3281    611809.0475   4791825.4527   8   7   5.0852   2.0963   5.1114   0.7682   0.8021   4.0272   0.00    2.5
2019/05/27 10:01:40.000   4146334.3315    611809.0448   4791825.4457   8   8   4.9969   1.8935   5.0961  -0.5052   0.5363   3.9804   0.00    1.4
2019/05/27 10:01:45.000   4146334.3436    611809.0515   4791825.4401   8   8   4.9974   1.8934   5.0959  -0.4994   0.5351   3.9802   0.00    1.8
2019/05/27 10:01:50.000   4146334.2954    611809.0386   4791825.4341   8   7   5.7522   2.4396   5.3928  -2.1505  -1.5590   4.5680   0.00    2.2
2019/05/27 10:01:55.000   4146334.3367    611809.0304   4791825.4517   8   8   4.9983   1.8932   5.0956  -0.4877   0.5326   3.9798   0.00    1.3
2019/05/27 10:02:00.000   4146334.3142    611809.0267   4791825.4450   8   7   4.9988   1.8931   5.0954  -0.4817   0.5314   3.9796   0.00    1.7
2019/05/27 10:02:05.000   4146334.3435    611809.0374   4791825.4518   8   7   4.9993   1.8931   5.0952  -0.4756   0.5301   3.9794   0.00    2.1
2019/05/27 10:02:10.000   4146334.3263    611809.0249   4791825.4372   8   8   4.9997   1.8930   5.0950  -0.4694   0.5289   3.9791   0.00    1.4
2019/05/27 10:02:15.000   4146334.3393    611809.0366   4791825.4556   8   8   5.0002   1.8929   5.0948  -0.4632   0.5276   3.9789   0.00    1.9
2019/05/27 10:02:20.000   4146334.2530    611809.0868   4791825.6675   8   8   5.0006   1.8928   5.0946  -0.4569   0.5263   3.9786   0.00    2.2
2019/05/27 10:02:25.000   4146334.3271    611809.0386   4791825.4406   8   8   5.0011   1.8928   5.0943  -0.4505   0.5250   3.9783   0.00    2.5
2019/05/27 10:02:30.000   4146334.3257    611809.0413   4791825.4439   8   8   5.0015   1.8927   5.0941  -0.4440   0.5238   3.9780   0.00    2.9
2019/05/27 10:02:35.000   4146334.3173    611809.0377   4791825.4455   8   8   5.0019   1.8926   5.0938  -0.4374   0.5225   3.9777   0.00    3.4
2019/05/27 10:02:40.000   4146334.3299    611809.0467   4791825.4524   8   8   3.8440   1.8272   4.8987   1.1801   0.9796   3.3693   0.00    3.8
2019/05/27 10:02:45.000   4146334.3413    611809.0408   4791825.4488   8   9   3.8436   1.8276   4.8982   1.1809   0.9780   3.3684   0.00    1.1
2019/05/27 10:02:50.000   4146334.3344    611809.0435   4791825.4538   8   9   3.8431   1.8279   4.8977   1.1817   0.9765   3.3675   0.00    1.3
2019/05/27 10:02:55.000   4146334.3303    611809.0417   4791825.4471   8   8   5.0036   1.8924   5.0927  -0.4099   0.5173   3.9763   0.00    2.6
2019/05/27 10:03:00.000   4146334.3274    611809.0416   4791825.4439   8   8   5.0040   1.8923   5.0923  -0.4028   0.5159   3.9759   0.00    3.2
2019/05/27 10:03:05.000   4146334.3108    611809.0404   4791825.4453   8   8   5.0044   1.8923   5.0920  -0.3955   0.5146   3.9755   0.00    3.7
2019/05/27 10:03:10.000   4146334.3074    611809.0336   4791825.4426   8   8   5.0048   1.8922   5.0916  -0.3881   0.5133   3.9751   0.00    4.0
2019/05/27 10:03:15.000   4146334.3025    611809.0384   4791825.4404   8   8   5.0052   1.8922   5.0913  -0.3805   0.5120   3.9747   0.00    4.0
2019/05/27 10:03:20.000   4146334.3048    611809.0429   4791825.4463   8   8   5.0056   1.8921   5.0909  -0.3728   0.5106   3.9743   0.00    4.1
2019/05/27 10:03:25.000   4146334.0278    611808.9727   4791825.5355   1   8   0.0014   0.0005   0.0011   0.0003  -0.0002   0.0011   0.00    4.1
2019/05/27 10:03:30.000   4146334.3061    611809.0399   4791825.4436   8   8   5.0064   1.8920   5.0901  -0.3568   0.5079   3.9734   0.00    4.1
2019/05/27 10:03:35.000   4146334.3056    611809.0383   4791825.4428   8   8   5.0067   1.8920   5.0897  -0.3486   0.5066   3.9729   0.00    4.2
2019/05/27 10:03:40.000   4146334.3118    611809.0441   4791825.4439   8   8   5.0071   1.8920   5.0893  -0.3401   0.5052   3.9724   0.00    4.3
2019/05/27 10:03:45.000   4146334.3195    611809.0452   4791825.4567   8   7   5.0075   1.8919   5.0889  -0.3314   0.5038   3.9719   0.00    3.6
2019/05/27 10:03:50.000   4146334.3285    611809.0430   4791825.4675   8   8   5.0078   1.8919   5.0884  -0.3225   0.5025   3.9714   0.00    1.3
2019/05/27 10:03:55.000   4146334.3112    611809.0450   4791825.4553   8   9   3.8372   1.8320   4.8907   1.1919   0.9556   3.3544   0.00    1.1
2019/05/27 10:04:00.000   4146334.3216    611809.0446   4791825.4612   8   9   3.8367   1.8324   4.8901   1.1927   0.9540   3.3533   0.00    1.3
2019/05/27 10:04:05.000   4146334.3452    611809.0480   4791825.4606   8   8   5.0088   1.8918   5.0870  -0.2942   0.4983   3.9698   0.00    2.1
2019/05/27 10:04:10.000   4146334.3398    611809.0413   4791825.4622   8   8   5.0092   1.8918   5.0865  -0.2841   0.4969   3.9692   0.00    2.3
2019/05/27 10:04:15.000   4146334.3239    611809.0482   4791825.4511   8   7   5.7417   2.4104   5.3584  -2.0654  -1.5080   4.5257   0.00    2.7
2019/05/27 10:04:20.000   4146334.3117    611809.0939   4791825.3568   8   7   5.7413   2.4095   5.3571  -2.0625  -1.5063   4.5241   0.00    3.0
2019/05/27 10:04:25.000   4146334.3560    611809.0447   4791825.4597   8   7   5.7409   2.4085   5.3557  -2.0595  -1.5046   4.5225   0.00    3.2
2019/05/27 10:04:30.000   4146334.3591    611809.0545   4791825.1472   8   8   3.8337   1.8344   4.8862   1.1973   0.9439   3.3466   0.00    1.1
2019/05/27 10:04:35.000   4146334.3071    611809.0448   4791825.4463   8   9   3.8331   1.8347   4.8855   1.1981   0.9422   3.3455   0.00    1.1
2019/05/27 10:04:40.000   4146334.3312    611809.0525   4791825.4392   8   8   3.8326   1.8350   4.8848   1.1988   0.9405   3.3443   0.00    1.1
2019/05/27 10:04:45.000   4146334.3172    611809.0364   4791825.4406   8   8   3.8321   1.8354   4.8842   1.1996   0.9388   3.3431   0.00    1.2
2019/05/27 10:04:50.000   4146334.3208    611809.0592   4791825.4499   8   8   3.8316   1.8357   4.8834   1.2003   0.9371   3.3420   0.00    1.2
2019/05/27 10:04:55.000   4146334.3119    611809.0471   4791825.4715   8   8   3.8813   2.0757   4.8921   1.4303   1.0810   3.3689   0.00    1.1
2019/05/27 10:05:00.000   4146334.3164    611809.0479   4791825.4609   8   8   3.8808   2.0763   4.8915   1.4310   1.0802   3.3679   0.00    1.2
2019/05/27 10:05:05.000   4146334.3155    611809.0453   4791825.4647   8   8   3.8300   1.8367   4.8813   1.2026   0.9318   3.3384   0.00    1.3
2019/05/27 10:05:10.000   4146334.3197    611809.0435   4791825.4620   8   9   3.8294   1.8371   4.8805   1.2034   0.9301   3.3371   0.00    1.3
2019/05/27 10:05:15.000   4146334.3284    611809.0487   4791825.4512   8   9   3.8289   1.8374   4.8798   1.2041   0.9283   3.3359   0.00    1.2
2019/05/27 10:05:20.000   4146334.3373    611809.0519   4791825.4602   8   9   3.8283   1.8378   4.8790   1.2049   0.9266   3.3347   0.00    1.3
2019/05/27 10:05:25.000   4146334.3447    611809.0511   4791825.4715   8   9   3.8277   1.8381   4.8783   1.2056   0.9248   3.3334   0.00    1.5
2019/05/27 10:05:30.000   4146334.3406    611809.0444   4791825.4572   8   9   3.8272   1.8385   4.8775   1.2064   0.9230   3.3322   0.00    1.6
2019/05/27 10:05:35.000   4146334.3321    611809.0493   4791825.4594   8   8   3.8266   1.8388   4.8767   1.2071   0.9212   3.3309   0.00    1.2
2019/05/27 10:05:40.000   4146334.3463    611809.0458   4791825.4715   8   9   3.8261   1.8392   4.8759   1.2078   0.9194   3.3296   0.00    1.1
2019/05/27 10:05:45.000   4146334.3485    611809.0544   4791825.4562   8   9   3.8255   1.8395   4.8751   1.2086   0.9176   3.3283   0.00    1.1
2019/05/27 10:05:50.000   4146334.3411    611809.0469   4791825.4582   8   9   3.8249   1.8399   4.8743   1.2093   0.9158   3.3270   0.00    1.2
2019/05/27 10:05:55.000   4146334.3383    611809.0443   4791825.4556   8   9   3.8243   1.8402   4.8735   1.2101   0.9139   3.3257   0.00    1.4
2019/05/27 10:06:00.000   4146334.3502    611809.0522   4791825.4733   8   9   3.8237   1.8406   4.8727   1.2108   0.9121   3.3244   0.00    1.5
2019/05/27 10:06:05.000   4146334.3484    611809.0417   4791825.4679   8   9   3.8232   1.8409   4.8718   1.2115   0.9103   3.3231   0.00    1.6
2019/05/27 10:06:10.000   4146334.3346    611809.0464   4791825.4571   8   9   3.8226   1.8413   4.8710   1.2123   0.9084   3.3217   0.00    1.8
2019/05/27 10:06:15.000   4146334.3411    611809.0478   4791825.4587   8   9   3.8220   1.8416   4.8701   1.2130   0.9066   3.3204   0.00    1.9
2019/05/27 10:06:20.000   4146334.3449    611809.0499   4791825.4595   8   9   3.8214   1.8420   4.8692   1.2137   0.9047   3.3190   0.00    2.0
2019/05/27 10:06:25.000   4146334.3440    611809.0470   4791825.4586   8   9   3.8208   1.8424   4.8684   1.2145   0.9028   3.3177   0.00    2.2
2019/05/27 10:06:30.000   4146334.3530    611809.0432   4791825.4525   8   9   3.8202   1.8427   4.8675   1.2152   0.9009   3.3163   0.00    2.3
2019/05/27 10:06:35.000   4146334.3608    611809.0567   4791825.4550   8   9   3.8196   1.8431   4.8666   1.2159   0.8991   3.3149   0.00    2.5
2019/05/27 10:06:40.000   4146334.3580    611809.0564   4791825.4577   8   9   3.8189   1.8434   4.8657   1.2167   0.8972   3.3135   0.00    2.6
2019/05/27 10:06:45.000   4146334.3606    611809.0511   4791825.4636   8   9   3.8183   1.8438   4.8648   1.2174   0.8953   3.3121   0.00    2.8
2019/05/27 10:06:50.000   4146334.3556    611809.0557   4791825.4633   8   9   3.8177   1.8442   4.8639   1.2181   0.8933   3.3107   0.00    2.9
2019/05/27 10:06:55.000   4146334.3541    611809.0527   4791825.4575   8   9   3.8171   1.8445   4.8630   1.2188   0.8914   3.3093   0.00    3.0
2019/05/27 10:07:00.000   4146334.3503    611809.0560   4791825.4519   8   9   3.8165   1.8449   4.8620   1.2196   0.8895   3.3078   0.00    3.2
2019/05/27 10:07:05.000   4146334.3529    611809.0586   4791825.4540   8   9   3.8158   1.8453   4.8611   1.2203   0.8875   3.3064   0.00    3.3
2019/05/27 10:07:10.000   4146334.3472    611809.0572   4791825.4569   8   9   3.8152   1.8456   4.8601   1.2210   0.8856   3.3049   0.00    3.4
2019/05/27 10:07:15.000   4146334.3501    611809.0648   4791825.4469   8   9   3.8146   1.8460   4.8592   1.2217   0.8836   3.3035   0.00    3.5
2019/05/27 10:07:20.000   4146334.3562    611809.0669   4791825.4357   8   9   3.8139   1.8464   4.8582   1.2224   0.8817   3.3020   0.00    3.6
2019/05/27 10:07:25.000   4146334.3299    611809.0507   4791825.4464   8   9   3.8133   1.8467   4.8572   1.2231   0.8797   3.3005   0.00    3.8
2019/05/27 10:07:30.000   4146334.3390    611809.0612   4791825.4408   8   9   3.8126   1.8471   4.8562   1.2239   0.8777   3.2990   0.00    3.9
2019/05/27 10:07:35.000   4146334.3235    611809.0485   4791825.4533   8   9   3.8120   1.8475   4.8553   1.2246   0.8757   3.2975   0.00    4.0
2019/05/27 10:07:40.000   4146334.3226    611809.0547   4791825.4392   8   9   3.8113   1.8479   4.8543   1.2253   0.8737   3.2960   0.00    1.1
2019/05/27 10:07:45.000   4146334.3213    611809.0535   4791825.4546   8   8   3.8107   1.8482   4.8533   1.2260   0.8717   3.2945   0.00    1.2
2019/05/27 10:07:50.000   4146334.3084    611809.0459   4791825.4493   8   9   3.8100   1.8486   4.8522   1.2267   0.8697   3.2930   0.00    1.1
2019/05/27 10:07:55.000   4146334.3084    611809.0430   4791825.4435   8   9   3.8094   1.8490   4.8512   1.2274   0.8677   3.2914   0.00    1.1
2019/05/27 10:08:00.000   4146334.3209    611809.0456   4791825.4494   8   9   3.8087   1.8494   4.8502   1.2281   0.8657   3.2899   0.00    1.3
2019/05/27 10:08:05.000   4146334.3184    611809.0370   4791825.4170   8   8   3.8080   1.8498   4.8491   1.2288   0.8636   3.2883   0.00    1.2
2019/05/27 10:08:10.000   4146334.3266    611809.0533   4791825.4589   8   9   3.8074   1.8501   4.8481   1.2295   0.8616   3.2868   0.00    1.2
2019/05/27 10:08:15.000   4146334.2929    611809.0337   4791825.4686   8   9   3.8067   1.8505   4.8470   1.2303   0.8595   3.2852   0.00    1.1
2019/05/27 10:08:20.000   4146334.3229    611809.0481   4791825.4584   8   8   3.8568   1.9691   6.4573   1.0469  -1.4604   3.6667   0.00    1.4
2019/05/27 10:08:25.000   4146334.3062    611809.0374   4791825.4488   8   8   3.8562   1.9698   6.4594   1.0472  -1.4640   3.6661   0.00    1.6
2019/05/27 10:08:30.000   4146334.3181    611809.0420   4791825.4185   8   8   3.8046   1.8517   4.8438   1.2324   0.8533   3.2804   0.00    1.1
2019/05/27 10:08:35.000   4146334.3136    611809.0423   4791825.4225   8   8   3.8039   1.8521   4.8427   1.2331   0.8512   3.2788   0.00    1.3
2019/05/27 10:08:40.000   4146334.2972    611809.0369   4791825.4406   8   9   3.8033   1.8525   4.8416   1.2338   0.8491   3.2772   0.00    1.2
2019/05/27 10:08:45.000   4146334.2934    611809.0304   4791825.4641   8   9   3.8026   1.8528   4.8405   1.2345   0.8470   3.2756   0.00    1.1
2019/05/27 10:08:50.000   4146334.3238    611809.0504   4791825.4623   8   9   3.8019   1.8532   4.8394   1.2352   0.8449   3.2739   0.00    1.2
2019/05/27 10:08:55.000   4146334.3187    611809.0386   4791825.4588   8   9   3.8012   1.8536   4.8383   1.2359   0.8428   3.2723   0.00    1.3
2019/05/27 10:09:00.000   4146334.3172    611809.0360   4791825.4447   8   9   3.8005   1.8540   4.8372   1.2366   0.8406   3.2706   0.00    1.1
2019/05/27 10:09:05.000   4146334.3305    611809.0403   4791825.4551   8   8   3.7998   1.8544   4.8360   1.2373   0.8385   3.2690   0.00    1.2
2019/05/27 10:09:10.000   4146334.3278    611809.0402   4791825.4518   8   9   3.7991   1.8548   4.8349   1.2380   0.8363   3.2673   0.00    1.1
2019/05/27 10:09:15.000   4146334.3271    611809.0479   4791825.4506   8   9   3.7983   1.8552   4.8338   1.2387   0.8341   3.2656   0.00    1.1
2019/05/27 10:09:20.000   4146334.3093    611809.0458   4791825.4562   8   9   3.7976   1.8556   4.8326   1.2393   0.8320   3.2640   0.00    1.2
2019/05/27 10:09:25.000   4146334.3201    611809.0475   4791825.4548   8   9   3.7969   1.8560   4.8314   1.2400   0.8298   3.2623   0.00    1.1
2019/05/27 10:09:30.000   4146334.3649    611809.0630   4791825.4698   8   7   3.7962   1.8564   4.8303   1.2407   0.8276   3.2606   0.00    1.2
2019/05/27 10:09:35.000   4146334.3373    611809.0344   4791825.4581   8   8   3.7955   1.8568   4.8291   1.2414   0.8254   3.2588   0.00    1.2
2019/05/27 10:09:40.000   4146334.3213    611809.0419   4791825.4587   8   8   3.7948   1.8572   4.8279   1.2421   0.8232   3.2571   0.00    1.2
2019/05/27 10:09:45.000   4146334.3230    611809.0419   4791825.4536   8   8   5.0218   1.8949   5.0278   0.5597   0.3836   3.9024   0.00    1.6
2019/05/27 10:09:50.000   4146334.3122    611809.1155   4791825.5094   2   8   0.0221   0.0115   0.0071   0.0122   0.0053   0.0090   0.00    1.8
2019/05/27 10:09:55.000   4146334.3596    611809.0546   4791825.4715   8   8   5.0219   1.8952   5.0253   0.5703   0.3794   3.8996   0.00    2.0
2019/05/27 10:10:00.000   4146334.3466    611809.0475   4791825.4664   8   8   3.7918   1.8588   4.8231   1.2449   0.8142   3.2501   0.00    2.2
2019/05/27 10:10:05.000   4146334.3436    611809.0463   4791825.4562   8   8   5.0220   1.8954   5.0228   0.5807   0.3752   3.8967   0.00    2.4
2019/05/27 10:10:10.000   4146334.3444    611809.0497   4791825.4607   8   8   5.0220   1.8956   5.0215   0.5858   0.3731   3.8952   0.00    2.6
2019/05/27 10:10:15.000   4146334.3486    611809.0492   4791825.4581   8   8   5.0221   1.8957   5.0202   0.5908   0.3709   3.8938   0.00    2.8
2019/05/27 10:10:20.000   4146334.3593    611809.0511   4791825.4627   8   8   5.0221   1.8958   5.0189   0.5959   0.3687   3.8923   0.00    2.9
2019/05/27 10:10:25.000   4146334.3645    611809.0563   4791825.4647   8   8   5.0222   1.8960   5.0176   0.6009   0.3666   3.8908   0.00    3.0
2019/05/27 10:10:30.000   4146334.3632    611809.0547   4791825.4781   8   8   3.7874   1.8613   4.8156   1.2490   0.8005   3.2394   0.00    3.1
2019/05/27 10:10:35.000   4146334.3440    611809.0538   4791825.4699   8   9   3.7866   1.8617   4.8144   1.2497   0.7982   3.2376   0.00    1.1
2019/05/27 10:10:40.000   4146334.3542    611809.0587   4791825.4626   8   9   3.7859   1.8621   4.8131   1.2504   0.7959   3.2358   0.00    1.2
2019/05/27 10:10:45.000   4146334.3695    611809.0580   4791825.4694   8   9   3.7851   1.8625   4.8118   1.2511   0.7935   3.2340   0.00    1.1
2019/05/27 10:10:50.000   4146334.3803    611809.0620   4791825.4708   8   9   3.7844   1.8629   4.8105   1.2517   0.7912   3.2321   0.00    1.2
2019/05/27 10:10:55.000   4146334.3653    611809.0577   4791825.4662   8   9   3.7836   1.8634   4.8092   1.2524   0.7888   3.2303   0.00    1.3
2019/05/27 10:11:00.000   4146334.3557    611809.0595   4791825.4665   8   9   3.7828   1.8638   4.8079   1.2531   0.7864   3.2284   0.00    1.4
2019/05/27 10:11:05.000   4146334.3673    611809.0616   4791825.4658   8   9   3.7821   1.8642   4.8066   1.2538   0.7841   3.2266   0.00    1.5
2019/05/27 10:11:10.000   4146334.3600    611809.0582   4791825.4644   8   9   3.7813   1.8646   4.8053   1.2545   0.7817   3.2247   0.00    1.6
2019/05/27 10:11:15.000   4146334.4139    611809.0303   4791825.2783   8   9   3.7805   1.8650   4.8040   1.2551   0.7793   3.2228   0.00    1.7
2019/05/27 10:11:20.000   4146334.3571    611809.0618   4791825.4610   8   9   3.7798   1.8655   4.8027   1.2558   0.7768   3.2209   0.00    1.8
2019/05/27 10:11:25.000   4146334.3550    611809.0555   4791825.4590   8   9   3.7790   1.8659   4.8013   1.2565   0.7744   3.2190   0.00    1.9
2019/05/27 10:11:30.000   4146334.3507    611809.0518   4791825.4574   8   9   3.7782   1.8663   4.8000   1.2572   0.7720   3.2171   0.00    2.0
2019/05/27 10:11:35.000   4146334.3668    611809.0631   4791825.4534   8   8   3.7774   1.8667   4.7986   1.2579   0.7695   3.2152   0.00    1.2
2019/05/27 10:11:40.000   4146334.3549    611809.0584   4791825.4733   8   9   3.7767   1.8672   4.7973   1.2585   0.7671   3.2133   0.00    1.1
2019/05/27 10:11:45.000   4146334.3464    611809.0519   4791825.4374   8   8   3.7759   1.8676   4.7959   1.2592   0.7646   3.2114   0.00    1.2
2019/05/27 10:11:50.000   4146334.3414    611809.0541   4791825.4503   8   9   3.7751   1.8680   4.7946   1.2599   0.7621   3.2095   0.00    1.1
2019/05/27 10:11:55.000   4146334.3360    611809.0525   4791825.4495   8   9   3.7743   1.8685   4.7932   1.2606   0.7596   3.2075   0.00    1.1
2019/05/27 10:12:00.000   4146334.3317    611809.0553   4791825.4408   8   8   3.7735   1.8689   4.7918   1.2613   0.7571   3.2056   0.00    1.2
2019/05/27 10:12:05.000   4146334.3214    611809.0502   4791825.4359   8   9   3.7727   1.8693   4.7904   1.2619   0.7546   3.2036   0.00    1.1
2019/05/27 10:12:10.000   4146334.3257    611809.0513   4791825.4378   8   9   3.7719   1.8698   4.7890   1.2626   0.7521   3.2016   0.00    1.1
2019/05/27 10:12:15.000   4146334.3401    611809.0574   4791825.4578   8   9   3.7711   1.8702   4.7876   1.2633   0.7495   3.1997   0.00    1.2
2019/05/27 10:12:20.000   4146334.3286    611809.0506   4791825.4460   8   9   3.7703   1.8706   4.7862   1.2640   0.7470   3.1977   0.00    1.3
2019/05/27 10:12:25.000   4146334.3370    611809.0622   4791825.4550   8   9   3.7695   1.8711   4.7848   1.2646   0.7444   3.1957   0.00    1.3
2019/05/27 10:12:30.000   4146334.3360    611809.0559   4791825.4471   8   9   3.7687   1.8715   4.7834   1.2653   0.7418   3.1937   0.00    1.4
2019/05/27 10:12:35.000   4146334.3472    611809.0592   4791825.4480   8   8   3.7679   1.8719   4.7820   1.2660   0.7393   3.1917   0.00    1.2
2019/05/27 10:12:40.000   4146334.3544    611809.0594   4791825.4595   8   9   3.7671   1.8724   4.7805   1.2667   0.7367   3.1897   0.00    1.1
2019/05/27 10:12:45.000   4146334.3496    611809.0679   4791825.4626   8   9   3.7663   1.8728   4.7791   1.2673   0.7340   3.1877   0.00    1.1
2019/05/27 10:12:50.000   4146334.3283    611809.0504   4791825.4437   8   9   3.7655   1.8733   4.7777   1.2680   0.7314   3.1857   0.00    1.2
2019/05/27 10:12:55.000   4146334.3550    611809.0574   4791825.4563   8   9   3.7647   1.8737   4.7762   1.2687   0.7288   3.1836   0.00    1.2
2019/05/27 10:13:00.000   4146334.3521    611809.0553   4791825.4561   8   9   3.7639   1.8742   4.7748   1.2694   0.7261   3.1816   0.00    1.3
2019/05/27 10:13:05.000   4146334.3508    611809.0595   4791825.4568   8   9   3.7631   1.8746   4.7733   1.2700   0.7235   3.1795   0.00    1.4
2019/05/27 10:13:10.000   4146334.3570    611809.0622   4791825.4580   8   9   3.7623   1.8751   4.7718   1.2707   0.7208   3.1775   0.00    1.4
2019/05/27 10:13:15.000   4146334.3526    611809.0550   4791825.4624   8   9   3.7615   1.8755   4.7704   1.2714   0.7181   3.1754   0.00    1.5
2019/05/27 10:13:20.000   4146334.3426    611809.0532   4791825.4484   8   9   3.7606   1.8760   4.7689   1.2721   0.7154   3.1734   0.00    1.2
2019/05/27 10:13:25.000   4146334.3646    611809.0641   4791825.4552   8   9   3.7598   1.8764   4.7674   1.2727   0.7127   3.1713   0.00    1.4
2019/05/27 10:13:30.000   4146334.3640    611809.0578   4791825.4465   8   9   3.7590   1.8769   4.7659   1.2734   0.7100   3.1692   0.00    1.6
2019/05/27 10:13:35.000   4146334.3656    611809.0602   4791825.4604   8   9   3.7582   1.8773   4.7644   1.2741   0.7072   3.1671   0.00    1.7
2019/05/27 10:13:40.000   4146334.3601    611809.0526   4791825.4519   8   9   3.7574   1.8778   4.7629   1.2748   0.7045   3.1650   0.00    1.7
2019/05/27 10:13:45.000   4146334.3698    611809.0613   4791825.4572   8   9   3.7565   1.8782   4.7614   1.2754   0.7017   3.1629   0.00    1.7
2019/05/27 10:13:50.000   4146334.3520    611809.0366   4791825.4418   8   9   3.7557   1.8787   4.7599   1.2761   0.6989   3.1608   0.00    1.7
2019/05/27 10:13:55.000   4146334.3490    611809.0452   4791825.4414   8   9   3.7549   1.8792   4.7584   1.2768   0.6961   3.1587   0.00    1.8
2019/05/27 10:14:00.000   4146334.3669    611809.0627   4791825.4610   8   9   3.7540   1.8796   4.7569   1.2775   0.6933   3.1566   0.00    1.8
2019/05/27 10:14:05.000   4146334.3630    611809.0614   4791825.4516   8   9   3.7532   1.8801   4.7554   1.2781   0.6905   3.1544   0.00    1.8
2019/05/27 10:14:10.000   4146334.3738    611809.0653   4791825.4560   8   9   3.7524   1.8805   4.7538   1.2788   0.6877   3.1523   0.00    1.8
2019/05/27 10:14:15.000   4146334.3833    611809.0354   4791825.3000   8   9   3.7516   1.8810   4.7523   1.2795   0.6848   3.1501   0.00    1.8
2019/05/27 10:14:20.000   4146334.3810    611809.0674   4791825.4539   8   9   3.7507   1.8815   4.7508   1.2802   0.6819   3.1480   0.00    1.8
2019/05/27 10:14:25.000   4146334.3611    611809.0656   4791825.4540   8   8   5.0212   1.9051   4.9446   0.8077   0.2320   3.8069   0.00    3.3
2019/05/27 10:14:30.000   4146334.3449    611809.0578   4791825.4470   8   8   5.0211   1.9053   4.9429   0.8115   0.2282   3.8049   0.00    3.4
2019/05/27 10:14:35.000   4146334.3583    611809.0604   4791825.4562   8   8   5.0210   1.9055   4.9412   0.8153   0.2243   3.8029   0.00    3.4
2019/05/27 10:14:40.000   4146334.3479    611809.0588   4791825.4584   8   9   3.7474   1.8833   4.7445   1.2828   0.6703   3.1393   0.00    1.1
2019/05/27 10:14:45.000   4146334.3462    611809.0501   4791825.4444   8   9   3.7465   1.8838   4.7430   1.2835   0.6674   3.1371   0.00    1.1
2019/05/27 10:14:50.000   4146334.3863    611809.0290   4791825.2893   8   9   3.7457   1.8843   4.7414   1.2842   0.6644   3.1349   0.00    1.1
2019/05/27 10:14:55.000   4146334.3544    611809.0586   4791825.4483   8   9   3.7448   1.8847   4.7398   1.2849   0.6614   3.1327   0.00    1.1
2019/05/27 10:15:00.000   4146334.3568    611809.0589   4791825.4466   8   9   3.7440   1.8852   4.7382   1.2855   0.6585   3.1305   0.00    1.2
2019/05/27 10:15:05.000   4146334.3554    611809.0633   4791825.4480   8   9   3.7432   1.8857   4.7366   1.2862   0.6554   3.1283   0.00    1.2
2019/05/27 10:15:10.000   4146334.3488    611809.0578   4791825.4408   8   9   3.7423   1.8862   4.7350   1.2869   0.6524   3.1261   0.00    1.3
2019/05/27 10:15:15.000   4146334.3387    611809.0563   4791825.4279   8   9   3.7415   1.8867   4.7334   1.2876   0.6494   3.1239   0.00    1.3
2019/05/27 10:15:20.000   4146334.3500    611809.0569   4791825.4445   8   9   3.7406   1.8871   4.7318   1.2882   0.6463   3.1216   0.00    1.3
2019/05/27 10:15:25.000   4146334.3398    611809.0538   4791825.4398   8   9   3.7398   1.8876   4.7302   1.2889   0.6433   3.1194   0.00    1.4
2019/05/27 10:15:30.000   4146334.3379    611809.0610   4791825.4475   8   9   3.7389   1.8881   4.7286   1.2896   0.6402   3.1172   0.00    1.1
2019/05/27 10:15:35.000   4146334.4024    611809.0344   4791825.2948   8   8   3.7381   1.8886   4.7270   1.2903   0.6371   3.1149   0.00    1.1
2019/05/27 10:15:40.000   4146334.3410    611809.0710   4791825.4458   8   9   3.7372   1.8891   4.7254   1.2909   0.6339   3.1127   0.00    1.1
2019/05/27 10:15:45.000   4146334.3439    611809.0602   4791825.4428   8   9   3.7364   1.8895   4.7238   1.2916   0.6308   3.1104   0.00    1.1
2019/05/27 10:15:50.000   4146334.3498    611809.0507   4791825.4408   8   8   3.7355   1.8900   4.7221   1.2923   0.6276   3.1081   0.00    1.1
2019/05/27 10:15:55.000   4146334.3405    611809.0630   4791825.4394   8   9   3.7346   1.8905   4.7205   1.2930   0.6244   3.1058   0.00    1.0
2019/05/27 10:16:00.000   4146334.3408    611809.0497   4791825.4396   8   8   5.0197   1.9101   4.9108   0.8778   0.1416   3.7674   0.00    3.9
2019/05/27 10:16:05.000   4146334.3377    611809.0478   4791825.4344   8   8   5.0197   1.9103   4.9089   0.8814   0.1350   3.7653   0.00    3.9
2019/05/27 10:16:10.000   4146334.3398    611809.0516   4791825.4313   8   8   5.0196   1.9106   4.9071   0.8849   0.1281   3.7631   0.00    3.9
2019/05/27 10:16:15.000   4146334.3521    611809.0567   4791825.4449   8   8   5.0195   1.9109   4.9052   0.8885   0.1208   3.7609   0.00    3.9
2019/05/27 10:16:20.000   4146334.3431    611809.0534   4791825.4363   8   8   5.0194   1.9112   4.9034   0.8920   0.1131   3.7587   0.00    3.9
2019/05/27 10:16:25.000   4146334.3267    611809.0540   4791825.4340   8   8   5.0193   1.9115   4.9015   0.8955   0.1047   3.7565   0.00    3.9
2019/05/27 10:16:30.000   4146334.3361    611809.0547   4791825.4424   8   8   5.0192   1.9118   4.8996   0.8990   0.0956   3.7543   0.00    3.9
2019/05/27 10:16:35.000   4146334.3193    611809.0459   4791825.4303   8   8   5.0191   1.9121   4.8977   0.9025   0.0856   3.7521   0.00    3.9
2019/05/27 10:16:40.000   4146334.1254    611809.0683   4791825.5111   2   9   0.0141   0.0072   0.0048   0.0070   0.0034   0.0061   0.00    1.1
2019/05/27 10:16:45.000   4146334.3101    611809.0542   4791825.4426   8   9   3.7261   1.8954   4.7039   1.2997   0.5915   3.0827   0.00    1.1
2019/05/27 10:16:50.000   4146334.3624    611809.0566   4791825.4563   8   9   3.7252   1.8959   4.7022   1.3004   0.5881   3.0804   0.00    1.1
2019/05/27 10:16:55.000   4146334.3079    611809.0510   4791825.4399   8   9   3.7243   1.8964   4.7005   1.3011   0.5847   3.0780   0.00    1.1
2019/05/27 10:17:00.000   4146334.3144    611809.0519   4791825.4392   8   9   3.7235   1.8969   4.6988   1.3018   0.5813   3.0757   0.00    1.2
2019/05/27 10:17:05.000   4146334.3139    611809.0469   4791825.4414   8   9   3.7226   1.8974   4.6971   1.3025   0.5778   3.0733   0.00    1.2
2019/05/27 10:17:10.000   4146334.3106    611809.0457   4791825.4400   8   9   3.7217   1.8979   4.6954   1.3031   0.5743   3.0710   0.00    1.2
2019/05/27 10:17:15.000   4146334.3083    611809.0562   4791825.4453   8   9   3.7209   1.8985   4.6937   1.3038   0.5708   3.0686   0.00    1.4
2019/05/27 10:17:20.000   4146334.0423    611808.9858   4791825.5502   8   8   5.0183   1.9149   4.8805   0.9336  -0.0962   3.7317   0.00    4.0
2019/05/27 10:17:25.000   4146334.3102    611809.0547   4791825.4512   8   9   3.7191   1.8995   4.6903   1.3052   0.5637   3.0638   0.00    1.1
2019/05/27 10:17:30.000   4146334.3023    611809.0557   4791825.4465   8   9   3.7183   1.9000   4.6886   1.3059   0.5601   3.0614   0.00    1.0
2019/05/27 10:17:35.000   4146334.3017    611809.0533   4791825.4466   8   9   3.7174   1.9005   4.6869   1.3065   0.5565   3.0590   0.00    1.1
2019/05/27 10:17:40.000   4146334.3093    611809.0502   4791825.4477   8   9   3.7165   1.9010   4.6851   1.3072   0.5528   3.0566   0.00    1.1
2019/05/27 10:17:45.000   4146334.3347    611809.0634   4791825.4484   8   9   3.7157   1.9015   4.6834   1.3079   0.5492   3.0542   0.00    1.1
2019/05/27 10:17:50.000   4146334.3332    611809.0576   4791825.4443   8   9   3.7148   1.9020   4.6817   1.3086   0.5455   3.0518   0.00    1.2
2019/05/27 10:17:55.000   4146334.3144    611809.0470   4791825.4375   8   9   3.7139   1.9025   4.6799   1.3093   0.5417   3.0494   0.00    1.0
2019/05/27 10:18:00.000   4146334.0365    611808.9795   4791825.5490   8   8   5.0176   1.9175   4.8647   0.9606  -0.1555   3.7130   0.00    4.2
2019/05/27 10:18:05.000   4146334.3243    611809.0554   4791825.4363   8   8   5.0175   1.9179   4.8627   0.9639  -0.1614   3.7107   0.00    4.3
2019/05/27 10:18:10.000   4146334.3216    611809.0500   4791825.4402   8   9   3.7113   1.9041   4.6747   1.3113   0.5304   3.0421   0.00    1.0
2019/05/27 10:18:15.000   4146334.3609    611809.0506   4791825.3232   8   9   3.7105   1.9046   4.6730   1.3120   0.5266   3.0397   0.00    1.0
2019/05/27 10:18:20.000   4146334.3423    611809.0667   4791825.4465   8   9   3.7096   1.9051   4.6712   1.3127   0.5227   3.0372   0.00    1.1
2019/05/27 10:18:25.000   4146334.3285    611809.0574   4791825.4494   8   9   3.7087   1.9056   4.6695   1.3134   0.5188   3.0348   0.00    1.1
2019/05/27 10:18:30.000   4146334.3277    611809.0576   4791825.4458   8   9   3.7078   1.9062   4.6677   1.3141   0.5149   3.0323   0.00    1.0
2019/05/27 10:18:35.000   4146334.3369    611809.0573   4791825.4450   8   9   3.7070   1.9067   4.6659   1.3148   0.5109   3.0299   0.00    1.1
2019/05/27 10:18:40.000   4146334.1890    611809.0153   4791825.4408   8   8   5.0169   1.9203   4.8487   0.9870  -0.1983   3.6938   0.00    5.0
2019/05/27 10:18:45.000   4146334.3274    611809.0465   4791825.4145   8   9   3.7052   1.9077   4.6624   1.3161   0.5029   3.0249   0.00    1.0
2019/05/27 10:18:50.000   4146334.3542    611809.0488   4791825.3324   8   9   3.7044   1.9083   4.6606   1.3168   0.4988   3.0224   0.00    1.0
2019/05/27 10:18:55.000   4146334.3412    611809.0529   4791825.4186   8   9   3.7035   1.9088   4.6589   1.3175   0.4947   3.0200   0.00    1.0
2019/05/27 10:19:00.000   4146334.1829    611809.0187   4791825.4559   8   8   5.0165   1.9217   4.8405   1.0000  -0.2167   3.6841   0.00    5.4
2019/05/27 10:19:05.000   4146334.0604    611808.9807   4791825.5552   8   8   5.0164   1.9221   4.8384   1.0033  -0.2210   3.6816   0.00    5.6
2019/05/27 10:19:10.000   4146334.1578    611809.0047   4791825.4694   8   8   5.0164   1.9225   4.8364   1.0065  -0.2253   3.6791   0.00    5.7
2019/05/27 10:19:15.000   4146334.3712    611809.0786   4791825.4398   8   7   5.1219   2.1855   4.8832   1.4473   0.8144   3.7724   0.00    5.0
2019/05/27 10:19:20.000   4146334.3821    611809.0870   4791825.4426   8   7   5.1219   2.1862   4.8813   1.4499   0.8143   3.7702   0.00    5.2
2019/05/27 10:19:25.000   4146334.3599    611809.0823   4791825.4360   8   8   3.7511   2.1851   4.6784   1.5526   0.8846   3.0600   0.00    1.0
2019/05/27 10:19:30.000   4146334.3629    611809.0856   4791825.4329   8   7   3.7503   2.1858   4.6768   1.5533   0.8832   3.0576   0.00    1.1
2019/05/27 10:19:35.000   4146334.3280    611809.0262   4791825.5828   8   9   3.6965   1.9131   4.6445   1.3231   0.4606   2.9999   0.00    1.1
2019/05/27 10:19:40.000   4146334.3633    611809.0769   4791825.4563   8   9   3.6957   1.9136   4.6427   1.3238   0.4561   2.9974   0.00    1.1
2019/05/27 10:19:45.000   4146334.3580    611809.0749   4791825.4544   8   8   5.0158   1.9251   4.8219   1.0290  -0.2536   3.6616   0.00    1.2
2019/05/27 10:19:50.000   4146334.0582    611808.9818   4791825.5508   8   8   5.0157   1.9255   4.8198   1.0321  -0.2574   3.6591   0.00    1.3
2019/05/27 10:19:55.000   4146334.0265    611809.0300   4791825.4942   2   8   0.0113   0.0059   0.0041   0.0052   0.0027   0.0050   0.00    1.4
2019/05/27 10:20:00.000   4146334.0590    611808.9838   4791825.5412   8   8   5.0155   1.9263   4.8156   1.0385  -0.2648   3.6540   0.00    1.5
2019/05/27 10:20:05.000   4146334.0563    611808.9813   4791825.5527   8   8   5.0155   1.9266   4.8135   1.0416  -0.2685   3.6515   0.00    1.6
2019/05/27 10:20:10.000   4146334.0602    611808.9816   4791825.5473   8   8   5.0154   1.9270   4.8114   1.0448  -0.2721   3.6489   0.00    1.6
2019/05/27 10:20:15.000   4146334.2887    611809.0603   4791825.4527   8   9   3.6896   1.9174   4.6301   1.3286   0.4235   2.9796   0.00    1.1
2019/05/27 10:20:25.000   4146334.0475    611808.9921   4791825.5402   8   9   3.6878   1.9185   4.6264   1.3300   0.4138   2.9744   0.00    1.2
2019/05/27 10:20:30.000   4146334.0538    611808.9892   4791825.5420   8   8   5.0151   1.9286   4.8029   1.0573  -0.2862   3.6386   0.00    1.5
2019/05/27 10:20:35.000   4146334.0108    611809.0203   4791825.4929   2   8   0.0110   0.0057   0.0040   0.0049   0.0026   0.0049   0.00    1.8
2019/05/27 10:20:40.000   4146334.0594    611808.9880   4791825.5477   8   8   3.6852   1.9202   4.6209   1.3321   0.3986   2.9667   0.00    2.0
2019/05/27 10:20:45.000   4146334.0395    611808.9908   4791825.5400   8   8   3.6844   1.9207   4.6191   1.3328   0.3934   2.9641   0.00    1.1
2019/05/27 10:20:50.000   4146334.0317    611808.9904   4791825.5435   8   9   3.6835   1.9213   4.6172   1.3336   0.3882   2.9615   0.00    1.1
2019/05/27 10:20:55.000   4146334.0278    611808.9878   4791825.5365   8   8   3.6826   1.9218   4.6154   1.3343   0.3828   2.9589   0.00    1.1
2019/05/27 10:21:00.000   4146334.0254    611808.9883   4791825.5393   8   7   3.6818   1.9224   4.6135   1.3350   0.3774   2.9563   0.00    1.1
2019/05/27 10:21:05.000   4146333.1934    611808.9757   4791825.3891   8   7   5.0146   1.9315   4.7879   1.0791  -0.3095   3.6203   0.00    1.5
2019/05/27 10:21:10.000   4146334.7374    611808.9060   4791825.6229   8   7   5.0145   1.9320   4.7857   1.0822  -0.3127   3.6177   0.00    1.4
2019/05/27 10:21:15.000   4146334.5614    611808.9452   4791825.6005   8   9   3.6792   1.9241   4.6080   1.3371   0.3607   2.9485   0.00    1.1
2019/05/27 10:21:25.000   4146334.0337    611808.9745   4791825.5440   8   8   3.9269   2.2862   4.6859   1.8681  -0.9757   2.7319   0.00    1.1
2019/05/27 10:21:30.000   4146334.0412    611808.9894   4791825.5446   8   7   3.9253   2.2871   4.6851   1.8682  -0.9814   2.7281   0.00    1.1
2019/05/27 10:21:40.000   4146334.0665    611808.9890   4791825.5507   8   7   5.9949   2.3309   4.7850   2.3417  -0.7447   3.4421   0.00    2.9
2019/05/27 10:21:45.000   4146334.0555    611808.9857   4791825.5507   8   7   3.9206   2.2901   4.6825   1.8685  -0.9985   2.7167   0.00    3.0
2019/05/27 10:21:50.000   4146334.0615    611808.9854   4791825.5470   8   7   5.9921   2.3336   4.7816   2.3457  -0.7596   3.4305   0.00    3.1
2019/05/27 10:21:55.000   4146334.3110    611809.0554   4791825.4545   8   8   5.0140   1.9358   4.7662   1.1097  -0.3404   3.5936   0.00    1.2
2019/05/27 10:22:00.000   4146334.0494    611808.9750   4791825.5480   8   8   5.0140   1.9363   4.7640   1.1128  -0.3433   3.5909   0.00    1.3
2019/05/27 10:22:05.000   4146334.0295    611808.9623   4791825.5399   8   8   5.0139   1.9367   4.7618   1.1158  -0.3463   3.5882   0.00    1.4
2019/05/27 10:22:10.000   4146334.0339    611808.9727   4791825.5449   8   8   5.0139   1.9372   4.7596   1.1188  -0.3492   3.5855   0.00    1.6
2019/05/27 10:22:15.000   4146334.0268    611808.9622   4791825.5386   8   8   5.0138   1.9376   4.7574   1.1218  -0.3521   3.5828   0.00    1.7
2019/05/27 10:22:20.000   4146334.0441    611808.9761   4791825.5503   1   7   0.0010   0.0005   0.0009   0.0005  -0.0002   0.0006   0.00    3.4
2019/05/27 10:22:25.000   4146334.0313    611808.9640   4791825.5404   8   7   5.9826   2.3431   4.7699   2.3596  -0.8098   3.3894   0.00    3.4
2019/05/27 10:22:30.000   4146334.0178    611808.9589   4791825.5341   8   7   5.9812   2.3444   4.7682   2.3616  -0.8168   3.3835   0.00    3.4
2019/05/27 10:22:35.000   4146334.0095    611808.9510   4791825.5352   8   7   5.0137   1.9395   4.7486   1.1339  -0.3635   3.5718   0.00    3.4
2019/05/27 10:22:40.000   4146334.0768    611808.9933   4791825.5548   8   7   5.9786   2.3472   4.7649   2.3656  -0.8306   3.3717   0.00    1.2
2019/05/27 10:22:45.000   4146334.0726    611808.9864   4791825.5607   8   7   5.9773   2.3486   4.7633   2.3676  -0.8374   3.3658   0.00    1.3
2019/05/27 10:22:50.000   4146334.0612    611808.9843   4791825.5557   8   7   5.9760   2.3500   4.7617   2.3696  -0.8442   3.3599   0.00    1.2
2019/05/27 10:22:55.000   4146333.1746    611808.9558   4791825.4014   8   7   5.9747   2.3514   4.7601   2.3716  -0.8509   3.3540   0.00    1.4
2019/05/27 10:23:00.000   4146334.0748    611808.9877   4791825.5609   8   7   5.9734   2.3528   4.7585   2.3737  -0.8576   3.3480   0.00    1.5
2019/05/27 10:23:10.000   4146334.0770    611808.9904   4791825.5576   8   7   5.9709   2.3556   4.7552   2.3777  -0.8708   3.3362   0.00    1.2
2019/05/27 10:23:15.000   4146334.0740    611808.9937   4791825.5546   8   7   5.9697   2.3570   4.7536   2.3798  -0.8774   3.3302   0.00    1.3
2019/05/27 10:23:20.000   4146334.0980    611809.0018   4791825.5630   8   7   5.9684   2.3584   4.7521   2.3818  -0.8839   3.3243   0.00    1.4
2019/05/27 10:23:25.000   4146334.0145    611808.9962   4791825.5014   2   7   0.0100   0.0051   0.0037   0.0041   0.0023   0.0045   0.00    1.6
2019/05/27 10:23:30.000   4146334.0931    611809.0016   4791825.5627   8   7   5.9660   2.3612   4.7489   2.3859  -0.8969   3.3123   0.00    1.6
2019/05/27 10:23:35.000   4146334.0894    611808.9930   4791825.5560   8   7   5.9647   2.3627   4.7473   2.3879  -0.9033   3.3063   0.00    1.1
2019/05/27 10:23:40.000   4146334.0530    611808.9764   4791825.5404   8   8   5.0133   1.9456   4.7196   1.1725  -0.3988   3.5355   0.00    1.2
2019/05/27 10:23:45.000   4146333.2415    611808.9740   4791825.4045   8   7   5.9623   2.3655   4.7442   2.3920  -0.9160   3.2944   0.00    1.2
2019/05/27 10:23:50.000   4146334.0567    611808.9799   4791825.5407   8   8   5.0133   1.9466   4.7151   1.1784  -0.4040   3.5298   0.00    1.3
2019/05/27 10:23:55.000   4146334.0667    611808.9833   4791825.5432   8   8   5.0133   1.9471   4.7128   1.1814  -0.4066   3.5270   0.00    1.3
2019/05/27 10:24:00.000   4146334.3924    611809.0882   4791825.3929   8   7   5.1081   2.1329   6.6997   0.7422  -2.0759   4.1336   0.00    1.5
2019/05/27 10:24:05.000   4146334.0187    611808.9920   4791825.5022   2   7   0.0097   0.0049   0.0036   0.0039   0.0023   0.0044   0.00    1.6
2019/05/27 10:24:10.000   4146334.0194    611808.9915   4791825.5023   2   7   0.0097   0.0049   0.0036   0.0039   0.0022   0.0044   0.00    1.6
2019/05/27 10:24:15.000   4146334.0200    611808.9910   4791825.5021   2   7   0.0097   0.0049   0.0036   0.0039   0.0022   0.0044   0.00    1.3
2019/05/27 10:24:20.000   4146334.0199    611808.9903   4791825.5019   2   7   0.0097   0.0049   0.0036   0.0039   0.0022   0.0044   0.00    1.5
2019/05/27 10:24:25.000   4146334.3591    611809.0911   4791825.3700   8   8   3.6778   2.1222   6.4143   1.2082  -1.9655   3.2023   0.00    1.0
2019/05/27 10:24:30.000   4146334.0595    611809.3514   4791825.0247   8   7   3.6767   2.1230   6.4119   1.2096  -1.9671   3.1984   0.00    1.8
2019/05/27 10:24:35.000   4146334.1838    611809.2297   4791825.1724   8   7   3.6756   2.1239   6.4094   1.2110  -1.9687   3.1945   0.00    1.1
2019/05/27 10:24:40.000   4146334.3686    611809.0858   4791825.3916   8   7   3.6746   2.1247   6.4070   1.2123  -1.9703   3.1905   0.00    1.2
2019/05/27 10:24:45.000   4146334.0180    611808.9857   4791825.5016   2   7   0.0095   0.0048   0.0035   0.0037   0.0022   0.0043   0.00    1.3
2019/05/27 10:24:50.000   4146334.0180    611808.9853   4791825.5015   2   7   0.0095   0.0048   0.0035   0.0037   0.0022   0.0043   0.00    1.3
2019/05/27 10:24:55.000   4146334.0180    611808.9848   4791825.5015   2   7   0.0095   0.0047   0.0035   0.0037   0.0022   0.0043   0.00    1.3
2019/05/27 10:25:00.000   4146334.3750    611809.0862   4791825.3972   8   7   5.1005   2.1407   6.6582   0.8158  -2.0815   4.0766   0.00    1.4
2019/05/27 10:25:05.000   4146334.3841    611809.0908   4791825.3918   8   7   5.0999   2.1413   6.6546   0.8218  -2.0820   4.0717   0.00    1.4
2019/05/27 10:25:10.000   4146334.3393    611809.0783   4791825.4083   8   8   3.6682   2.1299   6.3918   1.2206  -1.9795   3.1665   0.00    1.0
2019/05/27 10:25:15.000   4146334.3378    611809.0830   4791825.4119   8   7   3.6671   2.1308   6.3893   1.2220  -1.9810   3.1625   0.00    1.1
2019/05/27 10:25:20.000   4146334.3382    611809.0768   4791825.4112   8   8   3.6661   2.1316   6.3867   1.2234  -1.9825   3.1585   0.00    1.0
2019/05/27 10:25:25.000   4146334.3347    611809.0807   4791825.4069   8   8   3.6650   2.1325   6.3840   1.2248  -1.9840   3.1544   0.00    1.1
2019/05/27 10:25:30.000   4146334.0229    611808.9821   4791825.5022   2   7   0.0093   0.0046   0.0035   0.0035   0.0021   0.0043   0.00    1.2
2019/05/27 10:25:35.000   4146334.3065    611809.0775   4791825.4215   8   7   3.6629   2.1342   6.3788   1.2276  -1.9870   3.1463   0.00    1.0
2019/05/27 10:25:40.000   4146334.2181    611809.2534   4791825.1768   8   8   3.6618   2.1350   6.3761   1.2290  -1.9884   3.1422   0.00    1.1
2019/05/27 10:25:45.000   4146334.0286    611809.2158   4791825.2268   8   8   3.6608   2.1359   6.3734   1.2304  -1.9899   3.1381   0.00    1.1
2019/05/27 10:25:50.000   4146334.3270    611809.0875   4791825.4088   8   8   3.6597   2.1368   6.3707   1.2319  -1.9913   3.1340   0.00    1.0
2019/05/27 10:25:55.000   4146334.3347    611809.0891   4791825.3982   8   8   3.6587   2.1376   6.3680   1.2333  -1.9927   3.1298   0.00    1.1
2019/05/27 10:26:00.000   4146334.3458    611809.0849   4791825.3934   8   8   3.6576   2.1385   6.3652   1.2347  -1.9941   3.1257   0.00    1.2
2019/05/27 10:26:05.000   4146334.0251    611808.9794   4791825.5019   2   7   0.0091   0.0045   0.0034   0.0034   0.0020   0.0042   0.00    1.3
2019/05/27 10:26:10.000   4146334.3819    611809.0989   4791825.3898   8   7   5.0921   2.1500   6.6064   0.8966  -2.0868   4.0072   0.00    1.1
2019/05/27 10:26:15.000   4146334.3116    611809.3097   4791825.1524   8   6   5.2166   2.3862   6.6972   1.4098  -1.7878   4.1583   0.00    5.5
2019/05/27 10:26:20.000   4146334.0412    611808.9747   4791825.5439   1   6   0.0009   0.0005   0.0009   0.0005  -0.0003   0.0006   0.00    5.4
