     2              OBSERVATION DATA    G (GPS)             RINEX VERSION / TYPE
TerraSat GeoGenius GPS+GLONASS Decoder  08-Jun-99 19:22:46  PGM / RUN BY / DATE
ZB00____                      ZB001751                      MARKER NAME
                                                            OBSERVER / AGENCY
     14916          TRIMBLE              722 306            REC # / TYPE / VERS
00000000            EXT_COMP_L12_GP                         ANT # / TYPE
  4177105.1044   854991.1165  4728431.1402                  APPROX POSITION XYZ
        0.0000        0.0000        0.0000                  ANTENNA: DELTA H/E/N
     1     1     0                                          WAVELENGTH FACT L1/2
     5    C1    P2    L1    L2    D1                        # / TYPES OF OBSERV
     1                                                      INTERVAL
  1997     6    24    14    48   56.000000        GPS       TIME OF FIRST OBS
                                                            END OF HEADER
 97  6 24 14 48 56.0000000  0  7G01G14G31G15G29G21G02
  22179050.672    22179054.867      113466.77611     20642.67119      2652.547  
  22097074.188    22097078.078      -50087.89519    -11739.25019     -1156.422  
  22219902.445                       90177.68119         0.00000      4750.234  
  20022894.320                       18929.69319         0.00000      1000.984  
  22451824.148    22451827.664      -66103.72619    -15508.12119     -1528.469  
  24295545.938                       89704.87119         0.00000      4722.781  
  24440839.992                       82461.76019         0.00000      2239.563  
 97  6 24 14 48 57.0000000  0  7G01G14G31G15G29G21G02
  22179555.563    22179559.676      116119.65701     22709.85309      2653.250  
  22096854.234    22096858.195      -51244.12209    -12640.20609     -1155.984  
  22220806.500                       94928.11709         0.00000      4750.688  
  20023084.844                       19930.92409         0.00000      1001.531  
  22451533.359    22451536.969      -67632.01209    -16698.99209     -1528.016  
  24296444.711                       94427.72609         0.00000      4722.953  
  24441265.648                       84701.61009         0.00000      2240.203  
 97  6 24 14 48 58.0000000  0  7G01G14G31G15G29G21G02
  22180060.539    22180064.629      118773.36101     24777.67809      2654.016  
  22096634.359    22096638.285      -52399.75909    -13540.70309     -1155.469  
  22221710.664                       99679.16309         0.00000      4751.219  
  20023275.477                       20932.83909         0.00000      1002.141  
  22451242.570    22451246.145      -69159.66509    -17889.36709     -1527.469  
  24297343.438                       99150.90409         0.00000      4723.234  
  24441691.555                       86942.26809         0.00000      2240.906  
 97  6 24 14 48 59.0000000  0  7G01G14G31G15G29G21G02
  22180565.719    22180569.773      121427.68102     26845.97709      2654.703  
  22096414.336    22096418.156      -53555.03009    -14440.91609     -1155.000  
  22222614.750                      104430.57409         0.00000      4751.703  
  20023466.352                       21935.22409         0.00000      1002.703  
  22450951.859    22450955.375      -70686.93809    -19079.44609     -1526.953  
  24298242.250                      103874.19409         0.00000      4723.438  
  24442119.117                       89183.47509         0.00000      2241.594  
 97  6 24 14 49  0.0000000  0  7G01G14G31G15G29G21G02
  22181070.969    22181075.023      124082.55002     28914.70809      2655.078  
  22096194.453    22096198.262      -54710.01809    -15340.90609     -1154.891  
  22223519.102                      109182.29909         0.00000      4751.828  
  20023656.875                       22938.00309         0.00000      1002.922  
  22450661.141    22450664.574      -72213.88809    -20269.27109     -1526.844  
  24299140.859                      108597.52909         0.00000      4723.328  
  24442545.570                       91425.19709         0.00000      2241.906  
 97  6 24 14 49  1.0000000  0  7G01G14G31G15G29G21G02
  22181576.281    22181580.336      126737.96401     30983.86309      2655.828  
  22095974.398    22095978.266      -55864.70409    -16240.65909     -1154.422  
  22224423.164                      113934.33909         0.00000      4752.297  
  20023847.953                       23941.18709         0.00000      1003.500  
  22450371.008    22450374.523      -73740.51009    -21458.84209     -1526.344  
  24300040.070                      113320.94309         0.00000      4723.531  
  24442972.016                       93667.42109         0.00000      2242.578  
 97  6 24 14 49  2.0000000  0  7G01G14G31G15G29G21G02
  22182081.742    22182085.832      129394.01002     33053.51009      2656.344  
  22095755.125    22095759.039      -57019.02609    -17140.13109     -1154.156  
  22225327.445                      118686.76109         0.00000      4752.609  
  20024038.758                       24944.83809         0.00000      1003.875  
  22450080.539    22450083.984      -75266.74009    -22648.10709     -1526.031  
  24300939.055                      118044.47209         0.00000      4723.594  
  24443398.867                       95910.22709         0.00000      2243.094  
 97  6 24 14 49  3.0000000  0  7G01G14G31G15G29G21G02
  22182587.391    22182591.527      132050.79802     35123.73609      2657.250  
  22095535.500    22095539.449      -58172.87909    -18039.23709     -1153.500  
  22226232.125                      123439.67409         0.00000      4753.266  
  20024230.086                       25949.07809         0.00000      1004.641  
  22449790.375    22449793.621      -76792.45809    -23836.97509     -1525.359  
  24301837.422                      122768.22609         0.00000      4723.984  
  24443825.961                       98153.72109         0.00000      2243.953  
 97  6 24 14 49  4.0000000  0  7G01G14G31G15G29G21G02
  22183093.008    22183097.109      134708.43202     37194.62109      2657.813  
  22095316.102    22095320.051      -59326.12209    -18937.86809     -1153.203  
  22227136.797                      128193.22209         0.00000      4753.594  
  20024421.203                       26954.03209         0.00000      1005.047  
  22449499.703    22449503.090      -78317.52909    -25025.33909     -1525.016  
  24302736.023                      127492.36209         0.00000      4724.063  
  24444253.328                      100398.05809         0.00000      2244.484  
 97  6 24 14 49  5.0000000  0  7G01G14G31G15G29G21G02
  22183598.734    22183603.012      137366.33702     39265.71409      2658.078  
  22095096.992    22095101.000      -60479.35509    -19836.49209     -1153.172  
  22228041.352                      132946.79209         0.00000      4753.656  
  20024612.461                       27959.10909         0.00000      1005.188  
  22449209.750    22449213.125      -79842.55809    -26213.67209     -1524.938  
  24303635.141                      132216.28009         0.00000      4723.875  
  24444679.609                      102642.59809         0.00000      2244.719  
 97  6 24 14 49  6.0000000  0  7G01G14G31G15G29G21G02
  22184104.664    22184108.930      140024.86002     41337.29209      2658.906  
  22094877.313    22094881.238      -61632.22809    -20734.83509     -1152.609  
  22228946.055                      137700.74209         0.00000      4754.219  
  20024803.789                       28964.66409         0.00000      1005.875  
  22448919.336    22448922.570      -81367.19409    -27401.70109     -1524.359  
  24304534.102                      136940.33209         0.00000      4724.188  
  24445106.805                      104887.73109         0.00000      2245.516  
 97  6 24 14 49  7.0000000  0  7G01G14G31G15G29G21G02
  22184610.742    22184614.938      142684.15902     43409.47409      2659.469  
  22094658.258    22094662.066      -62784.55009    -21632.74709     -1152.297  
  22229850.594                      142455.27009         0.00000      4754.563  
  20024995.234    20024998.574       29970.87609         0.00019      1006.297  
  22448629.492    22448632.598      -82891.22909    -28589.26009     -1524.000  
  24305433.461                      141664.72609         0.00000      4724.313  
  24445535.227                      107133.62809         0.00000      2246.047  
 97  6 24 14 49  8.0000000  0  7G01G14G31G15G29G21G02
  22185116.742    22185121.020      145343.85001     45481.96309      2660.000  
  22094438.820    22094442.664      -63936.74009    -22530.55509     -1151.984  
  22230755.383    22230758.406      147209.92009         0.00019      4754.875  
  20025186.711    20025190.039       30977.32809       783.13001      1006.719  
  22448339.414    22448342.473      -84415.09609    -29776.68409     -1523.609  
  24306332.633                      146389.05109         0.00000      4724.422  
  24445961.711                      109379.87609         0.00000      2246.563  
 97  6 24 14 49  9.0000000  0  7G01G14G31G15G29G21G02
  22185622.969    22185627.293      148004.19101     47554.95509      2660.703  
  22094219.625    22094223.387      -65088.53209    -23428.05309     -1151.547  
  22231660.320    22231663.332      151964.98509      3700.75909      4755.328  
  20025378.383    20025381.676       31984.29009      1567.77701      1007.266  
  22448049.563    22448052.598      -85938.52309    -30963.77109     -1523.141  
  24307231.125                      151113.54109         0.00000      4724.656  
  24446389.375                      111626.73909         0.00000      2247.234  
 97  6 24 14 49 10.0000000  0  7G01G14G31G15G29G21G02
  22186129.414    22186133.797      150665.23701     49628.49709      2661.359  
  22094000.406    22094004.109      -66239.85609    -24325.18909     -1151.141  
  22232565.125    22232568.055      156720.54509      7406.39109      4755.750  
  20025570.180    20025573.449       32991.84109      2352.88109      1007.797  
  22447759.727    22447762.773      -87461.41009    -32150.43609     -1522.688  
  24308130.531                      155838.33009         0.00000      4724.844  
  24446817.258                      113874.31809         0.00000      2247.859  
 97  6 24 14 49 11.0000000  0  7G01G14G31G15G29G21G02
  22186635.898    22186640.258      153326.88901     51702.51209      2661.922  
  22093781.469    22093785.172      -67390.84809    -25222.06609     -1150.828  
  22233470.188    22233473.129      161476.45101     11112.29209      4756.063  
  20025762.008    20025765.254       33999.84609      3138.34201      1008.219  
  22447469.938    22447472.844      -88983.93609    -33336.82109     -1522.344  
  24309029.688                      160563.23409         0.00000      4724.969  
  24447245.305                      116122.45609         0.00000      2248.422  
 97  6 24 14 49 12.0000000  0  7G01G14G31G15G29G21G02
  22187142.539    22187146.875      155989.13801     53776.99209      2662.453  
  22093562.430    22093566.145      -68541.50109    -26118.68009     -1150.578  
  22234375.344    22234378.309      166232.70501     14818.46409      4756.328  
  20025953.836    20025957.059       35008.30709      3924.15601      1008.609  
  22447180.313    22447183.301      -90506.08209    -34522.90809     -1522.047  
  24309929.016                      165288.28509         0.00000      4725.016  
  24447672.758                      118371.18109         0.00000      2248.938  
 97  6 24 14 49 13.0000000  0  7G01G14G31G15G29G21G02
  22187649.313    22187653.648      158651.81701     55851.80509      2663.016  
  22093343.672    22093347.422      -69691.96009    -27015.14109     -1150.266  
  22235280.664    22235283.688      170989.14401     18524.78009      4756.625  
  20026145.781    20026148.992       36017.08309      4710.21601      1009.031  
  22446890.867    22446894.031      -92027.99209    -35708.81309     -1521.703  
  24310827.633                      170013.34009         0.00000      4725.125  
  24448100.438                      120620.34609         0.00000      2249.469  
 97  6 24 14 49 14.0000000  0  7G01G14G31G15G29G21G02
  22188156.164    22188160.313      161315.27201     57927.22409      2663.703  
  22093124.844    22093128.488      -70841.91109    -27911.20509     -1149.828  
  22236185.742    22236188.672      175746.11901     22231.51409      4757.109  
  20026337.859    20026341.059       37026.48309      5496.76309      1009.594  
  22446601.258    22446604.480      -93549.34809    -36894.28709     -1521.172  
  24311726.898                      174738.68609         0.00000      4725.422  
  24448528.563                      122870.25709         0.00000      2250.172  
 97  6 24 14 49 15.0000000  0  7G01G14G31G15G29G21G02
  22188663.055    22188667.145      163979.35201     60003.13209      2664.531  
  22092905.789    22092909.387      -71991.49309    -28806.98209     -1149.250  
  22237091.281    22237094.070      180503.45801     25938.52909      4757.688  
  20026530.047    20026533.305       38036.38109      6283.69709      1010.297  
  22446311.938    22446315.148      -95070.26509    -38079.41709     -1520.563  
  24312626.203                      179464.20409         0.00000      4725.766  
  24448957.516                      125120.78009         0.00000      2250.969  
 97  6 24 14 49 16.0000000  0  7G01G14G31G15G29G21G02
  22189170.195    22189174.402      166644.11701     62079.57209      2664.969  
  22092687.172    22092690.781      -73140.63809    -29702.41809     -1149.078  
  22237996.477    22237999.160      185261.27201     29645.91609      4757.891  
  20026722.414    20026725.695       39046.84909      7071.07509      1010.594  
  22446022.539    22446025.621      -96590.68209    -39264.16009     -1520.328  
  24313526.023                      184189.97409         0.00000      4725.719  
  24449386.500                      127372.01009         0.00000      2251.391  
 97  6 24 14 49 17.0000000  0  7G01G14G31G15G29G21G02
  22189677.500    22189681.730      169309.39501     64156.41109      2665.516  
  22092468.719    22092472.434      -74289.53209    -30597.65909     -1148.766  
  22238902.047    22238904.754      190019.33301     33353.49609      4758.203  
  20026914.805    20026918.109       40057.69009      7858.74309      1011.031  
  22445733.328    22445736.504      -98110.81309    -40448.67209     -1519.969  
  24314424.680                      188915.79209         0.00000      4725.844  
  24449814.336                      129623.73209         0.00000      2251.984  
 97  6 24 14 49 18.0000000  0  7G01G14G31G15G29G21G02
  22190184.766    22190189.066      171975.16101     66233.63109      2666.172  
  22092250.023    22092253.809      -75438.20009    -31492.72309     -1148.391  
  22239807.281    22239809.953      194777.64001     37061.26709      4758.578  
  20027107.367    20027110.660       41068.87909      8646.68209      1011.547  
  22445444.258    22445447.527      -99630.68009    -41632.98109     -1519.547  
  24315324.586                      193641.61209         0.00000      4726.016  
  24450242.766                      131875.93209         0.00000      2252.609  
 97  6 24 14 49 19.0000000  0  7G01G14G31G15G29G21G02
  22190692.008    22190696.344      174641.59501     68311.36909      2666.641  
  22092031.641    22092035.414      -76586.44109    -32387.45809     -1148.172  
  22240712.695    22240715.344      199536.38401     40769.37709      4758.813  
  20027299.641    20027302.969       42080.63509      9435.06501      1011.875  
  22445155.164    22445158.480     -101150.04809    -42816.90209     -1519.281  
  24316223.664                      198367.69709         0.00000      4726.047  
  24450671.617                      134128.82109         0.00000      2253.063  
 97  6 24 14 49 20.0000000  0  7G01G14G31G15G29G21G02
  22191199.531    22191203.855      177308.52001     70389.49109      2667.172  
  22091813.180    22091816.906      -77734.45009    -33282.01009     -1147.875  
  22241618.375    22241621.152      204295.36601     44477.67409      4759.125  
  20027492.148    20027495.477       43092.74409     10223.72101      1012.297  
  22444865.914    22444869.336     -102669.15109    -44000.62109     -1518.906  
  24317123.344                      203093.80309         0.00000      4726.156  
  24451100.758                      136382.19009         0.00000      2253.625  
 97  6 24 14 49 21.0000000  0  7G01G14G31G15G29G21G02
  22191707.180    22191711.551      179976.10101     72468.12709      2667.844  
  22091594.703    22091598.348      -78882.07009    -34176.25909     -1147.484  
  22242524.008    22242526.633      209054.76501     48186.29609      4759.531  
  20027685.141    20027688.457       44105.36609     11012.77909      1012.828  
  22444577.016    22444580.320     -104187.78509    -45183.97609     -1518.453  
  24318022.867                      207820.08309         0.00000      4726.344  
  24451528.703                      138636.17709         0.00000      2254.281  
 97  6 24 14 49 22.0000000  0  7G01G14G31G15G29G21G02
  22192214.781    22192219.176      182644.25901     74547.21009      2668.641  
  22091376.578    22091380.246      -80029.35309    -35070.24309     -1146.922  
  22243429.859    22243432.473      213814.50101     51895.18109      4760.094  
  20027877.930    20027881.293       45118.45809     11802.20209      1013.500  
  22444288.195    22444291.512     -105705.99109    -46366.99309     -1517.844  
  24318921.969                      212546.53609         0.00000      4726.688  
  24451958.281                      140890.76609         0.00000      2255.047  
 97  6 24 14 49 23.0000000  0  7G01G14G31G15G29G21G02
  22192722.656    22192726.934      185313.11301     76626.83809      2669.094  
  22091158.219    22091161.793      -81176.20709    -35963.89409     -1146.734  
  22244335.531    22244338.027      218574.67101     55604.40309      4760.281  
  20028070.641    20028073.957       46132.10609     12592.06009      1013.828  
  22443999.109    22444002.344     -107223.72209    -47549.64009     -1517.563  
  24319821.414                      217273.19909         0.00000      4726.703  
  24452387.180                      143146.04809         0.00000      2255.531  
 97  6 24 14 49 24.0000000  0  7G01G14G31G15G29G21G02
  22193230.766    22193234.984      187982.69301     78707.03309      2669.828  
  22090939.883    22090943.668      -82322.59909    -36857.18709     -1146.281  
  22245241.445    22245244.070      223335.31109     59313.99309      4760.766  
  20028263.828    20028267.109       47146.35109     13382.37809      1014.422  
  22443710.594    22443714.027     -108740.92409    -48731.87509     -1517.047  
  24320720.758                      222000.11909         0.00000      4726.938  
  24452816.547                      145402.01609         0.00000      2256.203  
 97  6 24 14 49 25.0000000  0  7G01G14G31G15G29G21G02
  22193738.891    22193743.051      190652.65601     80787.52409      2670.250  
  22090721.758    22090725.637      -83468.86109    -37750.37609     -1146.109  
  22246147.797    22246150.434      228096.07801     63023.68109      4760.938  
  20028456.711    20028460.063       48160.85709     14172.90409      1014.719  
  22443422.063    22443425.449     -110257.91809    -49913.95009     -1516.828  
  24321620.336                      226726.97909         0.00000      4726.906  
  24453246.438                      147658.38009         0.00000      2256.625  
 97  6 24 14 49 26.0000000  0  7G01G14G31G15G29G21G02
  22194247.086    22194251.270      193323.30401     82868.54809      2670.938  
  22090503.805    22090507.836      -84614.70309    -38643.23809     -1145.672  
  22247053.719    22247056.414      232857.27001     66733.70009      4761.375  
  20028649.813    20028653.199       49175.91209     14963.85609      1015.297  
  22443133.320    22443136.766     -111774.45009    -51095.66509     -1516.313  
  24322520.320                      231454.04809         0.00000      4727.141  
  24453675.359                      149915.40009         0.00000      2257.344  
 97  6 24 14 49 27.0000000  0  7G01G14G31G15G29G21G02
  22194755.281    22194759.477      195994.58901     84950.06909      2671.672  
  22090285.813    22090289.855      -85760.18909    -39535.82309     -1145.219  
  22247959.820    22247962.645      237618.83001     70444.00609      4761.813  
  20028843.336    20028846.699       50191.45809     15755.19001      1015.875  
  22442844.727    22442848.148     -113290.56809    -52277.05609     -1515.813  
  24323419.328                      236181.26109         0.00000      4727.375  
  24454104.625                      152173.01309         0.00000      2258.016  
 97  6 24 14 49 28.0000000  0  7G01G14G31G15G29G21G02
  22195263.664    22195267.918      198666.49701     87032.07509      2672.219  
  22090067.797    22090072.027      -86905.31209    -40428.12609     -1144.953  
  22248866.016    22248868.734      242380.75701     74154.59909      4762.094  
  20029036.594    20029039.945       51207.49909     16546.90901      1016.281  
  22442556.195    22442559.770     -114806.25309    -53458.10909     -1515.500  
  24324318.922                      240908.63109         0.00000      4727.438  
  24454535.141    24454539.430      154431.26809         0.00019      2258.531  
 97  6 24 14 49 29.0000000  0  7G01G14G31G15G29G21G02
  22195772.344    22195776.574      201338.99901     89114.54309      2672.734  
  22089849.938    22089854.285      -88050.13009    -41320.19209     -1144.719  
  22249772.281    22249774.977      247142.97901     77865.41709      4762.344  
  20029230.078    20029233.348       52223.98309     17338.97309      1016.656  
  22442268.008    22442271.441     -116321.58809    -54638.88909     -1515.172  
  24325218.547                      245636.11309         0.00000      4727.469  
  24454964.570    24454968.801      156690.05309      1757.86409      2259.047  
 97  6 24 14 49 30.0000000  0  7G01G14G31G15G29G21G02
  22196281.008    22196285.227      204012.17401     91197.53609      2673.531  
  22089632.109    22089636.480      -89194.54509    -42211.94109     -1144.203  
  22250678.469    22250681.211      251905.62301     81576.56709      4762.859  
  20029423.617    20029426.852       53240.99809     18131.45309      1017.297  
  22441979.719    22441983.176     -117836.45909    -55819.30809     -1514.625  
  24326118.180    24326125.613      250363.79109         0.00019      4727.781  
  24455395.414    24455399.750      158949.50009      3518.47309      2259.781  
 97  6 24 14 49 31.0000000  0  7G01G14G31G15G29G21G02
  22196789.922    22196794.152      206685.87001     93280.93509      2674.016  
  22089414.516    22089418.934      -90338.71009    -43103.49909     -1143.984  
  22251584.984    22251587.715      256668.50001     85287.89809      4763.063  
  20029617.125    20029620.383       54258.39109     18924.22709      1017.641  
  22441691.500    22441694.781     -119351.00409    -56999.47109     -1514.344  
  24327017.719    24327025.328      255091.50109      3679.25909      4727.766  
  24455825.086    24455828.930      161209.44109      5279.45309      2260.219  
 97  6 24 14 49 32.0000000  0  7G01G14G31G15G29G21G02
  22197298.703    22197302.910      209360.15101     95364.79109      2674.594  
  22089196.758    22089201.316      -91482.58209    -43994.82609     -1143.688  
  22252491.313    22252494.043      261431.66601     88999.45509      4763.328  
  20029810.898    20029814.063       55276.20909     19717.33209      1018.063  
  22441403.359    22441406.688     -120865.20309    -58179.36509     -1514.000  
  24327917.469    24327924.844      259819.27809      7363.24409      4727.844  
  24456255.664    24456259.625      163469.91709      7040.85809      2260.781  
 97  6 24 14 49 33.0000000  0  7G01G14G31G15G29G21G02
  22197807.711    22197811.871      212035.05101     97449.12709      2675.219  
  22088978.953    22088983.477      -92626.11309    -44885.88609     -1143.359  
  22253397.719    22253400.402      266195.16501     92711.27309      4763.656  
  20030004.531    20030007.707       56294.48809     20510.79501      1018.516  
  22441115.477    22441118.887     -122379.03109    -59358.97209     -1513.641  
  24328817.086    24328824.227      264547.16709     11047.31009      4727.953  
  24456684.922    24456689.141      165730.96609      8802.71409      2261.359  
 97  6 24 14 49 34.0000000  0  7G01G14G31G15G29G21G02
  22198316.984    22198321.227      214710.52701     99533.91309      2675.672  
  22088761.648    22088766.113      -93769.36909    -45776.73309     -1143.203  
  22254304.250    22254306.934      270958.93901     96423.30209      4763.844  
  20030198.273    20030201.496       57313.17809     21304.57809      1018.813  
  22440827.469    22440830.809     -123892.52609    -60538.31809     -1513.422  
  24329716.703    24329723.703      269275.13709     14731.44109      4727.922  
  24457115.758    24457119.367      167992.54509     10564.98709      2261.750  
 97  6 24 14 49 35.0000000  0  7G01G14G31G15G29G21G02
  22198826.047    22198830.277      217386.43301    101619.03509      2676.219  
  22088544.102    22088548.660      -94912.47709    -46667.46509     -1142.953  
  22255210.641    22255213.453      275722.85801    100135.44609      4764.063  
  20030392.313    20030395.512       58332.14209     22098.57601      1019.203  
  22440539.352    22440542.680     -125405.83309    -61717.51709     -1513.094  
  24330616.156    24330623.074      274003.04809     18415.53609      4727.984  
  24457545.570    24457549.086      170254.51109     12327.55109      2262.250  
 97  6 24 14 49 36.0000000  0  7G01G14G31G15G29G21G02
  22199335.617    22199339.883      220062.94101    103704.62509      2676.813  
  22088326.414    22088330.961      -96055.27809    -47557.96009     -1142.656  
  22256117.297    22256120.168      280487.07609    103847.82209      4764.375  
  20030586.250    20030589.461       59351.54009     22892.91201      1019.625  
  22440251.469    22440254.844     -126918.77509    -62896.43109     -1512.750  
  24331516.125    24331523.582      278731.04009     22099.69209      4728.063  
  24457976.734    24457980.098      172517.01109     14090.53809      2262.797  
 97  6 24 14 49 37.0000000  0  7G01G14G31G15G29G21G02
  22199844.656    22199848.852      222740.06701    105790.69709      2677.484  
  22088109.297    22088113.832      -97197.76109    -48448.20609     -1142.250  
  22257023.867    22257026.691      285251.58809    107560.42609      4764.734  
  20030780.305    20030783.504       60371.39609     23687.60201      1020.141  
  22439964.063    22439967.414     -128431.33309    -64075.04409     -1512.313  
  24332415.867    24332422.902      283459.16909     25783.94809      4728.234  
  24458407.617    24458410.406      174780.08709     15853.96009      2263.406  
 97  6 24 14 49 38.0000000  0  7G01G14G31G15G29G21G02
  22200354.367    22200358.527      225417.85701    107877.28709      2678.125  
  22087891.969    22087896.457      -98339.86909    -49338.16109     -1141.938  
  22257930.859    22257933.672      290016.48209    111273.32709      4765.078  
  20030974.422    20030977.633       61391.74809     24482.68001      1020.609  
  22439676.063    22439679.332     -129943.46809    -65253.32909     -1511.891  
  24333315.703    24333322.395      288187.44609     29468.31709      4728.391  
  24458837.828    24458840.875      177043.76709     17617.86209      2264.016  
 97  6 24 14 49 39.0000000  0  7G01G14G31G15G29G21G02
  22200864.125    22200868.273      228096.24401    109964.34109      2678.750  
  22087674.688    22087679.117      -99481.67209    -50227.87509     -1141.578  
  22258837.344    22258840.203      294781.67509    114986.46209      4765.422  
  20031168.688    20031171.934       62412.54609     25278.10801      1021.094  
  22439388.398    22439391.656     -131455.22009    -66431.31509     -1511.516  
  24334215.344    24334222.285      292915.81709     33152.75909      4728.484  
  24459269.117    24459272.551      179307.98509     19382.18109      2264.563  
 97  6 24 14 49 40.0000000  0  7G01G14G31G15G29G21G02
  22201373.828    22201377.906      230775.34401    112051.95209      2679.406  
  22087457.484    22087461.973     -100623.04209    -51117.25409     -1141.219  
  22259744.039    22259746.840      299547.30609    118699.93909      4765.781  
  20031363.008    20031366.266       63433.91909     26073.98301      1021.594  
  22439100.773    22439104.020     -132966.48109    -67608.91909     -1511.094  
  24335115.141    24335121.469      297644.42809     36837.39509      4728.656  
  24459699.453    24459703.309      181572.89509     21147.03709      2265.156  
 97  6 24 14 49 41.0000000  0  7G01G14G31G15G29G21G02
  22201883.703    22201887.852      233455.12801    114140.09609      2680.172  
  22087240.414    22087244.832     -101764.01509    -52006.32209     -1140.719  
  22260651.180    22260654.039      304313.31809    122413.71109      4766.250  
  20031557.641    20031560.934       64455.82009     26870.27001      1022.219  
  22438813.250    22438816.438     -134477.29709    -68786.17609     -1510.516  
  24336015.094    24336020.695      302373.21709     40522.17009      4728.953  
  24460131.047    24460134.996      183838.43109     22912.38509      2265.922  
 97  6 24 14 49 42.0000000  0  7G01G14G31G15G29G21G02
  22202393.742    22202397.832      236135.56201    116228.74409      2680.703  
  22087023.289    22087027.672     -102904.61209    -52895.09809     -1140.469  
  22261558.125    22261561.020      309079.68409    126127.76009      4766.516  
  20031752.133    20031755.309       65478.22709     27666.95101      1022.609  
  22438525.898    22438529.133     -135987.69409    -69963.10809     -1510.234  
  24336914.758    24336920.031      307102.17009     44207.06709      4728.984  
  24460562.016    24460565.977      186104.57709     24678.21709      2266.406  
 97  6 24 14 49 43.0000000  0  7G01G14G31G15G29G21G02
  22202903.984    22202908.133      238816.40401    118317.71309      2681.125  
  22086806.164    22086810.547     -104045.08609    -53783.77809     -1140.328  
  22262465.266    22262468.160      313846.19409    129841.92409      4766.672  
  20031946.719    20031949.895       66500.90209     28463.84001      1022.875  
  22438238.414    22438241.613     -137497.88709    -71139.88109     -1510.031  
  24337814.813    24337819.969      311831.05909     47891.91309      4728.891  
  24460993.875    24460997.730      188371.08909     26444.32709      2266.766  
 97  6 24 14 49 44.0000000  0  7G01G14G31G15G29G21G02
  22203414.430    22203418.473      241497.88301    120407.17609      2681.813  
  22086589.063    22086593.410     -105185.20409    -54672.18209     -1139.922  
  22263372.555    22263375.449      318613.09909    133556.39509      4767.094  
  20032141.391    20032144.531       67524.07009     29261.11401      1023.438  
  22437950.844    22437954.020     -139007.66809    -72316.33209     -1509.547  
  24338714.570    24338718.859      316560.09909     51576.87609      4729.125  
  24461425.078    24461428.969      190638.20709     28210.91209      2267.438  
 97  6 24 14 49 45.0000000  0  7G01G14G31G15G29G21G02
  22203924.703    22203928.629      244179.99401    122497.13309      2682.578  
  22086372.477    22086376.883     -106324.96509    -55560.30809     -1139.422  
  22264279.602    22264282.496      323380.35309    137271.13509      4767.578  
  20032336.383    20032339.570       68547.72509     30058.76801      1024.063  
  22437663.555    22437666.730     -140517.04809    -73492.47109     -1509.000  
  24339614.906    24339619.453      321289.26009     55261.93109      4729.406  
  24461856.648    24461860.375      192905.90609     29977.94909      2268.141  
 97  6 24 14 49 46.0000000  0  7G01G14G31G15G29G21G02
  22204435.281    22204439.359      246862.96001    124587.75609      2683.266  
  22086155.820    22086160.262     -107464.14009    -56447.97609     -1139.016  
  22265186.797    22265189.668      328148.18409    140986.32509      4768.000  
  20032531.094    20032534.316       69572.10609     30856.98701      1024.594  
  22437376.453    22437379.547     -142025.76209    -74668.09109     -1508.563  
  24340514.703    24340518.992      326018.82509     58947.29709      4729.578  
  24462287.953    24462292.090      195174.44809     31745.64109      2268.797  
 97  6 24 14 49 47.0000000  0  7G01G14G31G15G29G21G02
  22204945.734    22204949.813      249546.53701    126678.85609      2683.906  
  22085939.070    22085943.523     -108602.98009    -57335.38109     -1138.641  
  22266094.289    22266097.148      332916.34509    144701.77409      4768.328  
  20032726.141    20032729.363       70596.94909     31655.56501      1025.109  
  22437089.531    22437092.766     -143534.11309    -75843.42809     -1508.125  
  24341415.031    24341419.613      330748.49009     62632.74509      4729.766  
  24462719.695    24462724.066      197443.54809     33513.77209      2269.453  
 97  6 24 14 49 48.0000000  0  7G01G14G31G15G29G21G02
  22205456.719    22205460.820      252230.80701    128770.49609      2684.563  
  22085722.219    22085726.695     -109741.39809    -58222.46009     -1138.266  
  22267001.750    22267004.586      337684.89601    148417.52609      4768.703  
  20032921.586    20032924.891       71622.33709     32454.57001      1025.609  
  22436802.430    22436805.793     -145042.01209    -77018.41009     -1507.719  
  24342314.953    24342319.465      335478.36509     66318.36109      4729.922  
  24463151.625    24463155.703      199713.28909     35282.41109      2270.016  
 97  6 24 14 49 49.0000000  0  7G01G14G31G15G29G21G02
  22205967.625    22205971.762      254915.66001    130862.58909      2685.094  
  22085505.805    22085510.246     -110879.49909    -59109.29109     -1138.000  
  22267909.289    22267912.172      342453.74401    152133.51009      4768.953  
  20033116.688    20033119.969       72648.17709     33253.92701      1026.000  
  22436515.672    22436519.023     -146549.53109    -78193.10109     -1507.406  
  24343214.727    24343219.063      340208.37209     70004.07609      4730.000  
  24463583.820    24463587.605      201983.60109     37051.48409      2270.516  
 97  6 24 14 49 50.0000000  0  7G01G14G31G15G29G21G02
  22206478.594    22206482.707      257601.15201    132955.18209      2685.797  
  22085289.445    22085293.980     -112017.24009    -59995.84309     -1137.563  
  22268816.781    22268819.629      347222.93101    155849.75809      4769.359  
  20033311.781    20033315.016       73674.50109     34053.65901      1026.563  
  22436228.680    22436232.137     -148056.65409    -79367.48309     -1506.938  
  24344114.797    24344119.730      344938.50409     73689.88809      4730.234  
  24464016.367    24464020.527      204254.48709     38820.99409      2271.172  
 97  6 24 14 49 51.0000000  0  7G01G14G31G15G29G21G02
  22206989.797    22206993.945      260287.24001    135048.23709      2686.484  
  22085072.859    22085077.406     -113154.66709    -60882.15109     -1137.188  
  22269724.367    22269727.262      351992.43501    159566.25309      4769.750  
  20033507.422    20033510.645       74701.27109     34853.74001      1027.078  
  22435942.188    22435945.680     -149563.44709    -80541.60609     -1506.516  
  24345015.109    24345020.266      349668.72909     77375.76909      4730.359  
  24464448.195    24464453.059      206525.91309     40590.94509      2271.781  
 97  6 24 14 49 52.0000000  0  7G01G14G31G15G29G21G02
  22207500.883    22207505.078      262974.02001    137141.83209      2687.078  
  22084856.563    22084861.109     -114291.68409    -61768.13709     -1136.875  
  22270632.203    22270635.156      356762.31401    163283.04109      4770.031  
  20033702.805    20033706.063       75728.58109     35654.24101      1027.531  
  22435655.391    22435658.930     -151069.76009    -81715.35609     -1506.156  
  24345915.461    24345920.617      354399.17409     81061.81509      4730.469  
  24464881.055    24464885.754      208797.97809     42361.39809      2272.328  
 97  6 24 14 49 53.0000000  0  7G01G14G31G15G29G21G02
  22208012.422    22208016.676      265661.45001    139235.93509      2687.641  
  22084640.266    22084644.824     -115428.32609    -62653.83009     -1136.578  
  22271539.766    22271542.742      361532.55101    167000.11109      4770.297  
  20033898.453    20033901.711       76756.39109     36455.13301      1027.938  
  22435369.039    22435372.590     -152575.66509    -82888.78709     -1505.813  
  24346815.648    24346821.027      359129.74209     84747.96309      4730.547  
  24465313.219    24465318.633      211070.63409     44132.30009      2272.844  
 97  6 24 14 49 54.0000000  0  7G01G14G31G15G29G21G02
  22208523.820    22208528.027      268349.49801    141330.51709      2688.344  
  22084424.070    22084428.734     -116564.63709    -63539.26709     -1136.156  
  22272447.453    22272450.242      366303.10001    170717.42109      4770.688  
  20034094.078    20034097.324       77784.66009     37256.38101      1028.484  
  22435082.344    22435085.930     -154081.20309    -84061.93409     -1505.359  
  24347715.852    24347720.844      363860.42809     88434.21209      4730.719  
  24465745.734    24465751.359      213343.85509     45903.63809      2273.484  
 97  6 24 14 49 55.0000000  0  7G01G14G31G15G29G21G02
  22209035.516    22209039.699      271038.17901    143425.59409      2689.031  
  22084207.844    22084212.414     -117700.57709    -64424.41509     -1135.734  
  22273355.594    22273358.383      371073.99901    174435.00409      4771.109  
  20034289.836    20034293.129       78813.42509     38058.01601      1029.031  
  22434796.023    22434799.703     -155586.34109    -85234.76809     -1504.922  
  24348616.094    24348621.906      368591.28109     92120.59709      4730.953  
  24466178.227    24466183.629      215617.66209     47675.43209      2274.125  
 97  6 24 14 49 56.0000000  0  7G01G14G31G15G29G21G02
  22209547.523    22209551.578      273727.45001    145521.13209      2689.594  
  22083991.758    22083996.328     -118836.21209    -65309.32309     -1135.453  
  22274263.438    22274266.215      375845.17709    178152.80509      4771.328  
  20034485.672    20034489.000       79842.60609     38859.97401      1029.422  
  22434509.672    22434513.363     -157091.15809    -86407.35009     -1504.641  
  24349516.281    24349521.789      373322.21109     95807.02609      4731.000  
  24466610.656    24466615.766      217891.98909     49447.64009      2274.609  
 97  6 24 14 49 57.0000000  0  7G01G14G31G15G29G21G02
  22210059.188    22210063.371      276417.20301    147617.04309      2690.141  
  22083775.438    22083780.137     -119971.65109    -66194.07809     -1135.203  
  22275171.273    22275173.945      380616.54809    181870.75609      4771.594  
  20034681.695    20034685.094       80872.11309     39662.18801      1029.797  
  22434223.367    22434227.188     -158595.76209    -87579.76809     -1504.375  
  24350416.859    24350422.320      378053.10909     99493.44109      4731.016  
  24467043.992    24467049.629      220166.72309     51220.15809      2275.078  
 97  6 24 14 49 58.0000000  0  7G01G14G31G15G29G21G02
  22210571.289    22210575.473      279107.71601    149713.54609      2690.844  
  22083559.789    22083564.477     -121106.58809    -67078.44309     -1134.750  
  22276079.531    22276082.262      385388.36909    185589.05909      4772.000  
  20034877.734    20034881.098       81902.23406     40464.88001      1030.359  
  22433937.141    22433941.031     -160099.87909    -88751.80609     -1503.922  
  24351316.836    24351322.578      382784.29909    103180.07709      4731.250  
  24467477.047    24467482.156      222442.17509     52993.24809      2275.734  
 97  6 24 14 49 59.0000000  0  7G01G14G31G15G29G21G02
  22211083.414    22211087.645      281798.83801    151810.52409      2691.438  
  22083343.734    22083348.434     -122241.20509    -67962.55609     -1134.438  
  22276987.594    22276990.395      390160.51309    189307.61409      4772.313  
  20035073.734    20035077.121       82932.80706     41267.92501      1030.828  
  22433650.984    22433654.863     -161603.63809    -89923.56509     -1503.578  
  24352217.289    24352223.160      387515.58209    106866.78809      4731.391  
  24467909.688    24467914.973      224718.15409     54766.74309      2276.297  
 97  6 24 14 50  0.0000000  0  7G01G14G31G15G29G21G02
  22211595.547    22211599.672      284490.55301    153907.96509      2692.063  
  22083127.813    22083132.406     -123375.49909    -68846.42009     -1134.094  
  22277895.742    22277898.496      394932.95309    193026.39709      4772.625  
  20035270.141    20035273.516       83963.81907     42071.31001      1031.281  
  22433365.000    22433368.949     -163107.06309    -91095.06609     -1503.219  
  24353117.117    24353122.684      392246.96309    110553.57709      4731.453  
  24468343.164    24468348.578      226994.65709     56540.65009      2276.828  
 97  6 24 14 50  1.0000000  0  7G01G14G31G15G29G21G02
  22212107.922    22212112.141      287182.99901    156005.97609      2692.859  
  22082912.258    22082916.887     -124509.33509    -69729.92609     -1133.563  
  22278804.313    22278806.996      399705.81409    196745.51009      4773.125  
  20035466.086    20035469.414       84995.41107     42875.14701      1031.938  
  22433078.820    22433082.758     -164610.02209    -92266.20309     -1502.672  
  24354017.992    24354023.500      396978.56609    114240.54209      4731.766  
  24468776.563    24468782.422      229271.84409     58315.08209      2277.563  
 97  6 24 14 50  2.0000000  0  7G01G14G31G15G29G21G02
  22212620.469    22212624.711      289876.15001    158104.53309      2693.375  
  22082696.563    22082701.262     -125642.72609    -70613.08609     -1133.297  
  22279712.352    22279715.059      404479.06409    200464.92509      4773.313  
  20035662.594    20035665.934       86027.56009     43679.41801      1032.297  
  22432792.875    22432796.707     -166112.51709    -93436.97809     -1502.406  
  24354918.164    24354923.156      401710.36609    117927.66109      4731.813  
  24469210.398    24469216.656      231549.65909     60090.00409      2278.000  
 97  6 24 14 50  3.0000000  0  7G01G14G31G15G29G21G02
  22213132.984    22213137.227      292569.80901    160203.48709      2694.031  
  22082480.805    22082485.563     -126775.89509    -71496.07309     -1132.938  
  22280620.695    22280623.566      409252.52509    204184.50609      4773.688  
  20035859.016    20035862.309       87060.06109     44483.96301      1032.797  
  22432506.977    22432510.902     -167614.78209    -94607.57209     -1502.031  
  24355819.023    24355823.957      406442.16009    121614.77709      4731.938  
  24469642.773    24469647.801      233827.91509     61865.26509      2278.594  
 97  6 24 14 50  4.0000000  0  7G01G14G31G15G29G21G02
  22213645.633    22213649.875      295264.14501    162302.96809      2694.719  
  22082265.453    22082270.281     -127908.64509    -72378.73309     -1132.516  
  22281529.063    22281531.781      414026.37309    207904.38809      4774.078  
  20036055.813    20036059.129       88093.09508     45288.92501      1033.328  
  22432221.180    22432225.188     -169116.62609    -95777.83909     -1501.609  
  24356719.313    24356724.656      411174.15409    125302.04409      4732.125  
  24470076.680    24470082.234      236106.78209     63641.00609      2279.219  
 97  6 24 14 50  5.0000000  0  7G01G14G31G15G29G21G02
  22214158.492    22214162.652      297959.17601    164402.99109      2695.297  
  22082049.805    22082054.715     -129040.96809    -73261.06009     -1132.172  
  22282437.617    22282440.289      418800.62109    211624.58009      4774.375  
  20036252.453    20036255.793       89126.67009     46094.30801      1033.781  
  22431935.438    22431939.445     -170618.03809    -96947.77109     -1501.266  
  24357619.938    24357624.953      415906.34109    128989.45809      4732.234  
  24470511.391    24470517.508      238386.27509     65417.23609      2279.766  
 97  6 24 14 50  6.0000000  0  7G01G14G31G15G29G21G02
  22214671.359    22214675.602      300654.68701    166503.38909      2695.703  
  22081834.492    22081839.391     -130173.07909    -74143.22409     -1132.047  
  22283346.219    22283348.938      423575.07409    215344.93309      4774.500  
  20036449.297    20036452.590       90160.58409     46899.95401      1034.031  
  22431649.867    22431653.910     -172119.24509    -98117.54209     -1501.141  
  24358519.922    24358525.113      420638.51209    132676.85509      4732.125  
  24470945.133    24470950.090      240666.17809     67193.78109      2280.078  
 97  6 24 14 50  7.0000000  0  7G01G14G31G15G29G21G02
  22215184.484    22215188.633      303350.79301    168604.25109      2696.563  
  22081619.109    22081624.055     -131304.85009    -75025.12109     -1131.469  
  22284254.703    22284257.586      428349.84109    219065.53009      4775.078  
  20036646.047    20036649.340       91194.94809     47705.95201      1034.734  
  22431364.344    22431368.398     -173620.10309    -99287.04109     -1500.531  
  24359420.000    24359424.641      425370.79709    136364.34609      4732.438  
  24471378.133    24471382.691      242946.63009     68970.75609      2280.859  
 97  6 24 14 50  8.0000000  0  7G01G14G31G15G29G21G02
  22215697.586    22215701.805      306047.67701    170705.71809      2697.203  
  22081403.773    22081408.719     -132436.12409    -75906.63109     -1131.094  
  22285163.102    22285166.078      433125.09409    222786.50909      4775.391  
  20036842.891    20036846.090       92229.93509     48512.43401      1035.219  
  22431078.922    22431082.895     -175120.43909   -100456.13309     -1500.156  
  24360321.281    24360326.309      430103.34609    140052.05009      4732.625  
  24471813.141    24471817.594      245227.77709     70748.27509      2281.438  
 97  6 24 14 50  9.0000000  0  7G01G14G31G15G29G21G02
  22216211.016    22216215.246      308745.18701    172807.67309      2697.828  
  22081188.523    22081193.574     -133567.04901    -76787.87009     -1130.750  
  22286072.070    22286075.094      437900.66509    226507.73309      4775.734  
  20037040.133    20037043.297       93265.39109     49319.28201      1035.703  
  22430793.211    22430797.230     -176620.41109   -101624.94009     -1499.781  
  24361221.867    24361226.836      434836.00309    143739.84109      4732.719  
  24472247.094    24472251.781      247509.47309     72526.21809      2281.969  
 97  6 24 14 50 10.0000000  0  7G01G14G31G15G29G21G02
  22216724.531    22216728.715      311443.35901    174910.14509      2698.516  
  22080973.477    22080978.469     -134697.59501    -77668.81209     -1130.344  
  22286980.930    22286983.930      442676.56509    230229.21409      4776.094  
  20037237.039    20037240.203       94301.36109     50126.53101      1036.234  
  22430507.852    22430511.977     -178119.98609   -102793.43809     -1499.375  
  24362122.320    24362127.559      439568.82809    147427.75209      4732.922  
  24472681.695    24472686.313      249791.77009     74304.62409      2282.625  
 97  6 24 14 50 11.0000000  0  7G01G14G31G15G29G21G02
  22217238.023    22217242.195      314142.16401    177013.11009      2699.078  
  22080758.375    22080763.379     -135827.78301    -78549.47909     -1130.047  
  22287889.719    22287892.777      447452.79609    233950.95009      4776.344  
  20037434.492    20037437.680       95337.80309     50934.14802      1036.641  
  22430222.875    22430226.930     -179619.20209   -103961.65709     -1499.063  
  24363022.563    24363027.813      444301.77809    151115.77209      4732.984  
  24473115.711    24473120.023      252074.62709     76083.47309      2283.094  
 97  6 24 14 50 12.0000000  0  7G01G14G31G15G29G21G02
  22217751.688    22217755.918      316841.55801    179116.53709      2699.813  
  22080543.375    22080548.367     -136957.66901    -79429.90909     -1129.609  
  22288798.617    22288801.770      452229.31609    237672.91309      4776.797  
  20037631.469    20037634.621       96374.67509     51742.10002      1037.219  
  22429937.594    22429941.590     -181118.06509   -105129.60209     -1498.563  
  24363923.359    24363928.715      449034.82109    154803.86309      4733.188  
  24473550.477    24473554.578      254358.00509     77862.73109      2283.766  
 97  6 24 14 50 13.0000000  0  7G01G14G31G15G29G21G02
  22218265.516    22218269.734      319541.73201    181220.56909      2700.422  
  22080328.406    22080333.340     -138087.06001    -80309.95309     -1129.281  
  22289707.555    22289710.754      457006.34209    241395.27009      4777.141  
  20037829.031    20037832.172       97412.17009     52550.53902      1037.672  
  22429652.367    22429656.281     -182616.43109   -106297.16109     -1498.266  
  24364824.086    24364831.133      453768.12009    158492.15309      4733.313  
  24473984.633    24473988.805      256642.10409     79642.54309      2284.297  
 97  6 24 14 50 14.0000000  0  7G01G14G31G15G29G21G02
  22218779.359    22218783.508      322242.45801    183325.03009      2701.063  
  22080113.664    22080118.551     -139216.18709    -81189.79209     -1128.922  
  22290616.789    22290620.082      461783.63109    245117.83209      4777.469  
  20038026.523    20038029.746       98450.05309     53359.27902      1038.156  
  22429367.461    22429371.199     -184114.52109   -107464.50409     -1497.875  
  24365725.188    24365730.672      458501.44209    162180.44409      4733.422  
  24474419.688    24474424.293      258926.67109     81422.71909      2284.875  
 97  6 24 14 50 15.0000000  0  7G01G14G31G15G29G21G02
  22219293.617    22219297.766      324943.87601    185430.03209      2701.734  
  22079898.750    22079903.578     -140344.91309    -82069.32009     -1128.563  
  22291525.820    22291529.195      466561.30409    248840.69309      4777.813  
  20038224.000    20038227.223       99488.46809     54168.43301      1038.641  
  22429082.109    22429085.766     -185612.18709   -108631.51709     -1497.500  
  24366626.102    24366631.352      463234.93709    165868.87009      4733.547  
  24474854.539    24474859.496      261211.87209     83203.39209      2285.469  
 97  6 24 14 50 16.0000000  0  7G01G14G31G15G29G21G02
  22219807.656    22219811.793      327645.95501    187535.54809      2702.438  
  22079684.063    22079688.855     -141473.26809    -82948.55909     -1128.141  
  22292434.969    22292438.285      471339.31509    252563.81509      4778.234  
  20038421.789    20038425.035      100527.37409     54977.97101      1039.188  
  22428797.227    22428800.848     -187109.46109   -109798.22309     -1497.031  
  24367526.758    24367532.359      467968.59209    169557.43209      4733.719  
  24475288.969    24475293.867      263497.63009     84984.50909      2286.094  
 97  6 24 14 50 17.0000000  0  7G01G14G31G15G29G21G02
  22220322.063    22220326.223      330348.78901    189641.65309      2703.203  
  22079469.438    22079474.125     -142601.14909    -83827.42709     -1127.656  
  22293344.195    22293347.535      476117.80709    256287.31109      4778.672  
  20038619.516    20038622.750      101566.87909     55787.97501      1039.781  
  22428512.406    22428516.098     -188606.22609   -110964.53509     -1496.547  
  24368427.594    24368433.219      472702.46809    173246.17009      4734.000  
  24475724.586    24475729.965      265784.07809     86766.16109      2286.797  
 97  6 24 14 50 18.0000000  0  7G01G14G31G15G29G21G02
  22220836.383    22220840.637      333052.23801    191748.23709      2703.750  
  22079254.789    22079259.441     -143728.69609    -84706.03609     -1127.406  
  22294253.758    22294257.133      480896.59909    260011.04309      4778.922  
  20038817.742    20038820.977      102606.83409     56598.33101      1040.172  
  22428227.609    22428231.289     -190102.65009   -112130.58009     -1496.281  
  24369327.914    24369332.695      477436.44709    176934.98309      4734.031  
  24476159.828    24476164.961      268071.09009     88548.25609      2287.266  
 97  6 24 14 50 19.0000000  0  7G01G14G31G15G29G21G02
  22221350.969    22221355.199      335756.39701    193855.37509      2704.516  
  22079040.180    22079044.820     -144855.82009    -85584.31409     -1126.906  
  22295163.000    22295166.422      485675.75809    263735.05909      4779.391  
  20039015.492    20039018.691      103647.33509     57409.11201      1040.781  
  22427943.039    22427946.895     -191598.63809   -113296.28209     -1495.766  
  24370228.875    24370233.773      482170.63809    180623.96209      4734.281  
  24476595.297    24476600.078      270358.67409     90330.78909      2287.938  
 97  6 24 14 50 20.0000000  0  7G01G14G31G15G29G21G02
  22221865.758    22221869.883      338461.14301    195962.97109      2704.984  
  22078825.953    22078830.582     -145982.63409    -86462.35109     -1126.703  
  22296072.813    22296076.258      490455.22109    267459.31409      4779.547  
  20039213.398    20039216.551      104688.26709     58220.22901      1041.094  
  22427658.344    22427662.340     -193094.29109   -114461.72409     -1495.547  
  24371130.102    24371135.141      486904.89409    184312.97609      4734.234  
  24477030.117    24477034.746      272646.80709     92113.75109      2288.328  
 97  6 24 14 50 21.0000000  0  7G01G14G31G15G29G21G02
  22222380.391    22222384.539      341166.46301    198071.01109      2705.703  
  22078611.719    22078616.395     -147109.14809    -87340.15209     -1126.266  
  22296982.047    22296985.586      495234.95709    271183.78109      4779.969  
  20039411.719    20039414.895      105729.60909     59031.66401      1041.656  
  22427373.906    22427377.727     -194589.63809   -115626.92809     -1495.078  
  24372030.891    24372036.176      491639.19509    188002.03109      4734.469  
  24477466.047    24477471.344      274935.44209     93897.10509      2288.984  
 97  6 24 14 50 22.0000000  0  7G01G14G31G15G29G21G02
  22222895.344    22222899.492      343872.54601    200179.64709      2706.328  
  22078397.430    22078402.082     -148235.17601    -88217.57509     -1125.922  
  22297891.766    22297895.328      500015.13409    274908.59409      4780.281  
  20039609.836    20039613.059      106771.56009     59843.57701      1042.125  
  22427089.445    22427093.277     -196084.48509   -116791.74209     -1494.750  
  24372931.641    24372936.598      496373.80609    191691.34909      4734.563  
  24477901.344    24477906.289      277224.75109     95680.98809      2289.516  
 97  6 24 14 50 23.0000000  0  7G01G14G31G15G29G21G02
  22223410.336    22223414.520      346579.20701    202288.73509      2706.969  
  22078183.016    22078187.668     -149360.90001    -89094.76209     -1125.563  
  22298801.742    22298805.492      504795.59109    278633.62309      4780.594  
  20039808.477    20039811.711      107813.93509     60655.81701      1042.594  
  22426805.172    22426809.016     -197579.03409   -117956.32409     -1494.359  
  24373832.820    24373838.188      501108.46409    195380.69809      4734.734  
  24478336.367    24478341.629      279514.58109     97465.25809      2290.094  
 97  6 24 14 50 24.0000000  0  7G01G14G31G15G29G21G02
  22223925.531    22223929.656      349286.53701    204398.34109      2707.656  
  22077968.930    22077973.641     -150486.23701    -89971.64609     -1125.141  
  22299711.461    22299715.293      509576.41009    282358.93409      4780.984  
  20040006.867    20040010.113      108856.81609     61468.45301      1043.125  
  22426520.781    22426524.566     -199073.17709   -119120.59109     -1493.969  
  24374733.813    24374740.082      505843.27809    199070.15909      4734.891  
  24478772.758    24478778.266      281804.99309     99249.97809      2290.719  
 97  6 24 14 50 25.0000000  0  7G01G14G31G15G29G21G02
  22224441.008    22224445.063      351994.41101    206508.37509      2708.203  
  22077754.898    22077759.504     -151611.30301    -90848.31809     -1124.891  
  22300621.094    22300624.879      514357.42609    286084.39909      4781.188  
  20040205.297    20040208.531      109900.07709     62281.38401      1043.500  
  22426236.234    22426240.020     -200567.06109   -120284.65709     -1493.688  
  24375634.930    24375640.871      510578.12609    202759.64709      4734.891  
  24479208.359    24479213.762      284095.87809    101035.07609      2291.188  
 97  6 24 14 50 26.0000000  0  7G01G14G31G15G29G21G02
  22224956.445    22224960.535      354702.91201    208618.89509      2708.766  
  22077540.773    22077545.355     -152736.02801    -91724.72909     -1124.594  
  22301530.875    22301534.742      519138.74409    289810.10309      4781.406  
  20040404.031    20040407.266      110943.81009     63094.68301      1043.906  
  22425952.227    22425956.082     -202060.57109   -121448.42809     -1493.391  
  24376535.867    24376542.523      515313.05409    206449.20109      4734.953  
  24479644.945    24479650.793      286387.31809    102820.61209      2291.672  
 97  6 24 14 50 27.0000000  0  7G01G14G31G15G29G21G02
  22225471.898    22225476.059      357412.02101    210729.89009      2709.469  
  22077326.891    22077331.461     -153860.41901    -92600.87609     -1124.172  
  22302440.664    22302444.426      523920.36709    293536.04009      4781.813  
  20040602.641    20040605.969      111987.98009     63908.32301      1044.453  
  22425668.063    22425671.930     -203553.74609   -122611.93609     -1492.969  
  24377436.898    24377444.273      520048.10909    210138.85309      4735.141  
  24480080.719    24480087.434      288679.27609    104606.55109      2292.281  
 97  6 24 14 50 28.0000000  0  7G01G14G31G15G29G21G02
  22225987.594    22225991.766      360121.83801    212841.43709      2710.125  
  22077113.070    22077117.559     -154984.39901    -93476.70409     -1123.844  
  22303350.578    22303354.199      528702.35409    297262.26309      4782.125  
  20040801.531    20040804.883      113032.69709     64722.38701      1044.906  
  22425383.742    22425387.586     -205046.49609   -123775.11509     -1492.609  
  24378338.281    24378345.891      524783.33909    213828.63809      4735.250  
  24480516.984    24480524.078      290971.87709    106392.99409      2292.844  
 97  6 24 14 50 29.0000000  0  7G01G14G31G15G29G21G02
  22226503.594    22226507.719      362832.20701    214953.41509      2710.688  
  22076899.219    22076903.707     -156108.11301    -94352.32309     -1123.563  
  22304260.719    22304264.398      533484.56809    300988.66109      4782.344  
  20041000.344    20041003.684      114077.80109     65536.75501      1045.328  
  22425099.867    22425103.699     -206538.96209   -124938.07309     -1492.328  
  24379239.102    24379246.676      529518.61409    217518.46209      4735.313  
  24480954.492    24480961.445      293264.92209    108179.78209      2293.328  
 97  6 24 14 50 30.0000000  0  7G01G14G31G15G29G21G02
  22227019.195    22227023.320      365543.21301    217065.88809      2711.297  
  22076685.383    22076689.930     -157231.47809    -95227.67209     -1123.219  
  22305170.891    22305174.535      538267.08709    304715.29809      4782.641  
  20041199.344    20041202.742      115123.37409     66351.48901      1045.781  
  22424815.813    22424819.762     -208031.08609   -126100.76509     -1491.984  
  24380139.977    24380147.668      534254.02109    221208.38009      4735.422  
