     2              OBSERVATION DATA    G (GPS)             RINEX VERSION / TYPE
TerraSat GeoGenius GPS+GLONASS Decoder  08-Jun-99 19:22:23  PGM / RUN BY / DATE
ZBKO____                      ZBKO1751                      MARKER NAME
                                                            OBSERVER / AGENCY
      9227          TRIMBLE              722 306            REC # / TYPE / VERS
00000000            EXT_COMP_L12_GP                         ANT # / TYPE
  4177096.2981   854990.3836  4728415.8815                  APPROX POSITION XYZ
        0.0000        0.0000        0.0000                  ANTENNA: DELTA H/E/N
     1     1     0                                          WAVELENGTH FACT L1/2
     5    C1    P2    L1    L2    D1                        # / TYPES OF OBSERV
     1                                                      INTERVAL
  1997     6    24    14    48   58.000000        GPS       TIME OF FIRST OBS
                                                            END OF HEADER
 97  6 24 14 48 58.0000000  0  7G01G14G15G21G02G29G31
  22168382.094                      -20622.89117         0.00000      -447.234  
  22084955.680    22084957.625     -191797.15911    -43136.66319     -4256.719  
  20011597.000                      -94809.47711         0.00000     -2099.094  
  24285665.133                       63265.73019         0.00000      1622.000  
  24430013.352                      -33886.00119         0.00000      -860.328  
  22439564.125    22439565.754     -208556.08019    -36077.32819     -4628.719  
  22210032.133    22210033.410       73984.99011     11559.78919      1649.969  
 97  6 24 14 48 59.0000000  0  7G01G14G15G21G02G29G31
  22168297.023                      -21069.86407         0.00000      -446.828  
  22084145.453    22084147.340     -196053.72901    -46453.46909     -4256.531  
  20011197.688                      -96908.38301         0.00000     -2098.828  
  24285973.984                       64887.73309         0.00000      1621.906  
  24429850.281                      -34746.08509         0.00000      -859.938  
  22438683.453    22438685.094     -213184.65109    -39684.00209     -4628.500  
  22210346.000    22210347.301       75635.11601     12845.60209      1650.172  
 97  6 24 14 49  0.0000000  0  7G01G14G15G21G02G29G31
  22168212.016                      -21516.69507         0.00000      -446.828  
  22083335.633    22083337.578     -200310.42701    -49770.37009     -4256.828  
  20010797.984                      -99007.31301         0.00000     -2099.000  
  24286282.047                       66509.37409         0.00000      1621.406  
  24429686.477                      -35606.06809         0.00000      -860.016  
  22437802.219    22437803.953     -217813.31609    -43290.74509     -4628.781  
  22210660.094    22210661.711       77285.14101     14131.33809      1649.906  
 97  6 24 14 49  1.0000000  0  7G01G14G15G21G02G29G31
  22168127.117                      -21963.45407         0.00000      -446.406  
  22082525.133    22082527.195     -204567.29109    -53087.40409     -4256.656  
  20010398.719                     -101106.30501         0.00000     -2098.734  
  24286590.773                       68130.61909         0.00000      1621.313  
  24429522.352                      -36466.01809         0.00000      -859.641  
  22436921.773    22436923.414     -222442.11809    -46897.59909     -4628.578  
  22210973.992    22210975.563       78935.01801     15416.95709      1650.078  
 97  6 24 14 49  2.0000000  0  7G01G14G15G21G02G29G31
  22168042.195                      -22409.29407         0.00000      -445.203  
  22081715.508    22081717.477     -208823.50809    -56403.93909     -4255.703  
  20009999.273                     -103204.54201         0.00000     -2097.672  
  24286899.492                       69752.26409         0.00000      1622.047  
  24429359.180                      -37325.09709         0.00000      -858.438  
  22436041.078    22436042.813     -227070.23809    -50503.92709     -4627.578  
  22211288.078    22211289.637       80585.55801     16703.09009      1651.078  
 97  6 24 14 49  3.0000000  0  7G01G14G15G21G02G29G31
  22167957.781                      -22854.08008         0.00000      -444.828  
  22080905.688    22080907.680     -213078.94009    -59719.86109     -4255.594  
  20009600.367                     -105301.87801         0.00000     -2097.453  
  24287207.820                       71374.44709         0.00000      1621.906  
  24429196.344                      -38183.17509         0.00000      -858.141  
  22435160.508    22435162.160     -231697.54209    -54109.61809     -4627.469  
  22211602.359    22211603.777       82236.90201     17989.84609      1651.188  
 97  6 24 14 49  4.0000000  0  7G01G14G15G21G02G29G31
  22167872.984                      -23298.81807         0.00000      -444.500  
  22080095.859    22080097.816     -217334.56809    -63035.93409     -4255.516  
  20009201.008                     -107399.30301         0.00000     -2097.266  
  24287516.430                       72996.21309         0.00000      1621.750  
  24429032.828                      -39041.21509         0.00000      -857.828  
  22434279.711    22434281.387     -236324.99209    -57715.42109     -4627.344  
  22211916.672    22211918.102       83888.07501     19276.47209      1651.281  
 97  6 24 14 49  5.0000000  0  7G01G14G15G21G02G29G31
  22167788.547                      -23743.12807         0.00000      -444.031  
  22079286.141    22079288.039     -221590.02209    -66351.87109     -4255.281  
  20008802.000                     -109496.44201         0.00000     -2096.922  
  24287824.703                       74617.92409         0.00000      1621.781  
  24428869.156                      -39898.88209         0.00000      -857.391  
  22433399.547    22433401.152     -240952.24409    -61321.06909     -4627.047  
  22212230.914    22212232.332       85539.43701     20563.24609      1651.547  
 97  6 24 14 49  6.0000000  0  7G01G14G15G21G02G29G31
  22167703.969                      -24187.03307         0.00000      -443.422  
  22078476.586    22078478.543     -225845.33309    -69667.69709     -4254.938  
  20008403.031                     -111593.32201         0.00000     -2096.453  
  24288133.820                       76239.55309         0.00000      1621.875  
  24428705.742                      -40756.19009         0.00000      -856.828  
  22432518.805    22432520.457     -245579.31909    -64926.58209     -4626.688  
  22212545.328    22212546.711       87190.96301     21850.14509      1651.906  
 97  6 24 14 49  7.0000000  0  7G01G14G15G21G02G29G31
  22167619.813    22167622.613      -24629.83907         0.00019      -442.672  
  22077666.969    22077668.949     -230099.76501    -72982.83809     -4254.453  
  20008003.992    20008005.680     -113689.21501         0.00019     -2095.844  
  24288442.766                       77861.84609         0.00000      1622.156  
  24428544.258                      -41612.39609         0.00000      -856.094  
  22431638.492    22431640.098     -250205.46409    -68531.37109     -4626.156  
  22212859.414    22212860.820       88843.39301     23137.75109      1652.422  
 97  6 24 14 49  8.0000000  0  7G01G14G15G21G02G29G31
  22167535.320    22167538.016      -25072.76707      -345.61909      -442.797  
  22076857.234    22076859.133     -234354.58001    -76298.27709     -4254.797  
  20007605.266    20007606.930     -115785.38902     -1632.48409     -2096.094  
  24288751.289                       79483.55509         0.00000      1621.609  
  24428380.336                      -42468.77009         0.00000      -856.250  
  22430758.031    22430759.613     -254831.96009    -72136.43309     -4626.438  
  22213173.945    22213175.434       90495.42501     24425.05109      1652.063  
 97  6 24 14 49  9.0000000  0  7G01G14G15G21G02G29G31
  22167451.070    22167453.801      -25514.97006      -690.19309      -441.859  
  22076047.648    22076049.523     -238608.92501    -79613.34909     -4254.125  
  20007206.445    20007208.098     -117880.97002     -3265.40409     -2095.297  
  24289059.227    24289062.602       81105.50809         0.00019      1622.094  
  24428217.031    24428217.840      -43324.44509         0.00019      -855.344  
  22429877.844    22429879.391     -259457.93609    -75741.09009     -4625.719  
  22213488.305    22213489.723       92147.95101     25712.73409      1652.766  
 97  6 24 14 49 10.0000000  0  7G01G14G15G21G02G29G31
  22167367.211    22167369.988      -25956.66805     -1034.37409      -441.625  
  22075238.070    22075239.875     -242863.00101    -82928.21509     -4254.141  
  20006807.648    20006809.254     -119976.16604     -4898.02609     -2095.203  
  24289368.563    24289371.797       82727.55309      1262.43809      1621.859  
  24428054.656    24428054.891      -44179.60709      -665.90209      -855.125  
  22428997.227    22428998.891     -264083.57709    -79345.48509     -4625.688  
  22213803.008    22213804.379       93800.77201     27000.64309      1652.766  
 97  6 24 14 49 11.0000000  0  7G01G14G15G21G02G29G31
  22167283.117    22167285.883      -26398.11604     -1378.36009      -441.313  
  22074428.367    22074430.090     -247117.10101    -86243.09709     -4254.078  
  20006409.086    20006410.563     -122071.26805     -6530.57009     -2095.016  
  24289676.742    24289679.848       84349.36209      2526.19909      1621.750  
  24427891.711    24427892.625      -45034.57509     -1332.10909      -854.797  
  22428117.180    22428118.902     -268709.21109    -82949.87509     -4625.578  
  22214117.602    22214118.984       95453.58001     28288.54409      1652.844  
 97  6 24 14 49 12.0000000  0  7G01G14G15G21G02G29G31
  22167199.195    22167202.020      -26839.06803     -1721.95709      -440.438  
  22073618.922    22073620.703     -251370.96001    -89557.79309     -4253.469  
  20006010.359    20006011.824     -124166.00806     -8162.83609     -2094.281  
  24289985.570    24289989.086       85971.21509      3789.97809      1622.141  
  24427729.352    24427730.066      -45889.05309     -1997.93009      -853.953  
  22427236.914    22427238.531     -273334.56709    -86554.04909     -4624.953  
  22214432.125    22214433.531       97106.63701     29576.63909      1653.438  
 97  6 24 14 49 13.0000000  0  7G01G14G15G21G02G29G31
  22167115.352    22167118.105      -27279.46802     -2065.12709      -440.328  
  22072809.586    22072811.438     -255624.50701    -92872.24809     -4253.609  
  20005611.805    20005613.281     -126260.31905     -9794.76909     -2094.313  
  24290294.117    24290297.668       87593.19509      5053.84909      1621.797  
  24427566.828    24427568.598      -46742.96909     -2663.32109      -853.875  
  22426356.844    22426358.461     -277959.56709    -90157.94709     -4625.047  
  22214746.789    22214748.008       98759.99901     30864.97009      1653.313  
 97  6 24 14 49 14.0000000  0  7G01G14G15G21G02G29G31
  22167031.633    22167034.316      -27719.73203     -2408.18909      -440.313  
  22072000.219    22072002.141     -259878.18501    -96186.80209     -4253.828  
  20005213.453    20005214.906     -128354.63704    -11426.70609     -2094.406  
  24290602.789    24290606.246       89214.82909      6317.45609      1621.406  
  24427404.180    24427405.867      -47596.77609     -3328.63009      -853.844  
  22425476.680    22425478.238     -282584.64709    -93761.90609     -4625.188  
  22215061.281    22215062.512      100413.26501     32153.22709      1653.094  
 97  6 24 14 49 15.0000000  0  7G01G14G15G21G02G29G31
  22166947.969    22166950.664      -28159.62902     -2750.96009      -439.406  
  22071190.594    22071192.387     -264131.75301    -99501.26909     -4253.203  
  20004814.977    20004816.477     -130448.71804    -13058.45709     -2093.656  
  24290911.141    24290914.773       90836.36909      7580.98209      1621.828  
  24427242.375    24427244.379      -48450.23209     -3993.65809      -852.969  
  22424596.773    22424598.250     -287209.54909    -97365.72409     -4624.516  
  22215376.156    22215377.410      102066.62801     33441.56309      1653.750  
 97  6 24 14 49 16.0000000  0  7G01G14G15G21G02G29G31
  22166864.211    22166866.754      -28598.97101     -3093.29809      -439.172  
  22070381.250    22070382.984     -268385.00701   -102815.49009     -4253.219  
  20004416.531    20004418.043     -132542.35902    -14689.86509     -2093.547  
  24291220.281    24291224.523       92458.04309      8844.61809      1621.594  
  24427080.281    24427085.695      -49303.10909     -4658.23409      -852.750  
  22423716.680    22423718.098     -291834.08009   -100969.25109     -4624.484  
  22215690.836    22215691.914      103720.34001     34730.17309      1653.750  
 97  6 24 14 49 17.0000000  0  7G01G14G15G21G02G29G31
  22166780.789    22166783.461      -29038.02701     -3435.41609      -438.719  
  22069572.242    22069574.035     -272638.24701   -106129.69909     -4253.016  
  20004018.164    20004019.617     -134635.86001    -16321.16209     -2093.219  
  24291528.359    24291532.402       94079.52809     10108.12109      1621.609  
  24426917.930    24426923.145      -50155.72209     -5322.60009      -852.266  
  22422836.930    22422838.512     -296458.55509   -104572.73409     -4624.234  
  22216005.758    22216006.801      105374.06801     36018.79309      1653.969  
 97  6 24 14 49 18.0000000  0  7G01G14G15G21G02G29G31
  22166697.602    22166700.238      -29476.30701     -3776.93109      -437.734  
  22068762.609    22068764.461     -276890.96501   -109443.50609     -4252.297  
  20003620.031    20003621.473     -136728.71901    -17951.96309     -2092.359  
  24291837.547    24291841.555       95701.30609     11371.85209      1622.125  
  24426755.602    24426760.957      -51007.56509     -5986.37209      -851.297  
  22421956.938    22421958.637     -301082.47709   -108175.79009     -4623.469  
  22216320.195    22216321.215      107028.33401     37307.83209      1654.688  
 97  6 24 14 49 19.0000000  0  7G01G14G15G21G02G29G31
  22166614.000    22166616.660      -29913.75201     -4117.79809      -437.516  
  22067953.758    22067955.680     -281143.09201   -112756.85509     -4252.328  
  20003221.766    20003223.184     -138820.84301    -19582.19109     -2092.281  
  24292145.695    24292150.043       97323.51809     12635.91509      1621.891  
  24426593.930    24426598.559      -51858.55909     -6649.48809      -851.094  
  22421077.359    22421079.023     -305705.73009   -111778.32509     -4623.453  
  22216634.961    22216636.074      108683.20701     38597.34309      1654.672  
 97  6 24 14 49 20.0000000  0  7G01G14G15G21G02G29G31
  22166530.711    22166533.465      -30350.99201     -4458.50609      -436.500  
  22067144.422    22067146.367     -285395.27801   -116070.24909     -4251.563  
  20002823.516    20002824.969     -140912.90601    -21212.37209     -2091.375  
  24292454.805    24292459.352       98945.45709     13899.75609      1622.484  
  24426432.320    24426436.152      -52709.36209     -7312.45409      -850.047  
  22420197.383    22420198.988     -310329.00909   -115380.88309     -4622.594  
  22216950.008    22216951.051      110338.02601     39886.81209      1655.453  
 97  6 24 14 49 21.0000000  0  7G01G14G15G21G02G29G31
  22166447.883    22166450.590      -30787.22701     -4798.42909      -435.891  
  22066335.211    22066337.180     -289646.72001   -119383.06209     -4251.219  
  20002425.773    20002427.168     -143004.10401    -22841.87809     -2090.906  
  24292763.797    24292768.121      100567.92009     15164.00109      1622.625  
  24426269.805    24426272.887      -53559.18209     -7974.64909      -849.453  
  22419317.789    22419319.348     -314951.46709   -118982.80209     -4622.188  
  22217264.961    22217266.027      111993.61201     41176.87909      1655.813  
 97  6 24 14 49 22.0000000  0  7G01G14G15G21G02G29G31
  22166364.883    22166367.590      -31222.86801     -5137.88909      -435.531  
  22065526.555    22065528.523     -293897.80801   -122695.59509     -4251.109  
  20002028.008    20002029.402     -145094.81101    -24470.99909     -2090.672  
  24293072.383    24293076.332      102190.59109     16428.41009      1622.516  
  24426107.875    24426111.438      -54408.40009     -8636.37109      -849.109  
  22418438.266    22418439.730     -319573.47309   -122584.36609     -4622.016  
  22217580.227    22217581.258      113649.55901     42467.23009      1655.938  
 97  6 24 14 49 23.0000000  0  7G01G14G15G21G02G29G31
  22166282.133    22166284.793      -31658.22902     -5477.12609      -435.031  
  22064717.258    22064719.156     -298148.88709   -126008.12009     -4250.859  
  20001630.117    20001631.523     -147185.37901    -26100.01009     -2090.281  
  24293380.898    24293384.777      103813.03509     17692.63909      1622.594  
  24425946.891    24425950.043      -55257.33309     -9297.88309      -848.578  
  22417558.570    22417559.941     -324195.43609   -126185.89209     -4621.688  
  22217895.031    22217896.063      115305.51201     43757.58709      1656.172  
 97  6 24 14 49 24.0000000  0  7G01G14G15G21G02G29G31
  22166199.258    22166201.707      -32093.02703     -5815.92609      -434.609  
  22063908.547    22063910.480     -302399.66609   -129320.41409     -4250.719  
  20001232.516    20001233.957     -149275.52101    -27728.69209     -2090.016  
  24293689.320    24293693.738      105435.58109     18956.95709      1622.500  
  24425785.000    24425787.777      -56105.74109     -9958.99209      -848.234  
  22416679.180    22416680.504     -328817.02209   -129787.12709     -4621.500  
  22218210.328    22218211.184      116961.77701     45048.18609      1656.328  
 97  6 24 14 49 25.0000000  0  7G01G14G15G21G02G29G31
  22166116.813    22166119.168      -32527.34104     -6154.35009      -434.172  
  22063099.656    22063101.789     -306650.20809   -132632.52209     -4250.547  
  20000834.656    20000836.156     -151365.29201    -29357.08509     -2089.703  
  24293998.391    24294002.563      107058.17209     20221.31709      1622.484  
  24425624.070    24425626.133      -56953.65209    -10619.69809      -847.797  
  22415799.664    22415800.883     -333438.30109   -133388.12109     -4621.250  
  22218525.555    22218526.328      118618.27201     46338.96309      1656.500  
 97  6 24 14 49 26.0000000  0  7G01G14G15G21G02G29G31
  22166034.180    22166036.559      -32961.32804     -6492.52209      -433.375  
  22062290.781    22062292.996     -310900.69909   -135944.59009     -4250.000  
  20000436.883    20000438.371     -153454.87801    -30985.33609     -2089.031  
  24294307.375    24294310.832      108680.60809     21485.55609      1622.828  
  24425461.867    24425464.563      -57801.27209    -11280.18209      -847.000  
  22414920.375    22414921.582     -338059.47809   -136989.03809     -4620.641  
  22218840.836    22218841.691      120274.83201     47629.78809      1657.063  
 97  6 24 14 49 27.0000000  0  7G01G14G15G21G02G29G31
  22165951.773    22165954.152      -33394.38704     -6829.97109      -433.031  
  22061482.063    22061484.301     -315150.53109   -139256.14809     -4249.938  
  20000039.672    20000041.160     -155543.67401    -32612.97209     -2088.828  
  24294615.844    24294619.172      110303.48109     22750.13309      1622.672  
  24425301.398    24425304.410      -58648.00509    -11939.97909      -846.703  
  22414041.148    22414042.344     -342679.94509   -140589.40709     -4620.531  
  22219156.430    22219157.391      121932.05401     48921.12509      1657.109  
 97  6 24 14 49 28.0000000  0  7G01G14G15G21G02G29G31
  22165869.367    22165871.863      -33827.30404     -7167.31109      -432.359  
  22060673.328    22060675.672     -319400.48909   -142567.80309     -4249.547  
  19999642.164    19999643.629     -157632.46501    -34240.60409     -2088.313  
  24294924.820    24294928.852      111926.03309     24014.44209      1622.859  
  24425140.570    24425143.934      -59494.57609    -12599.64009      -846.063  
  22413161.938    22413163.156     -347300.46509   -144189.81409     -4620.094  
  22219471.805    22219472.836      123589.15901     50212.37309      1657.516  
 97  6 24 14 49 29.0000000  0  7G01G14G15G21G02G29G31
  22165787.141    22165789.625      -34259.27504     -7503.90909      -431.641  
  22059864.703    22059867.199     -323649.78309   -145878.93909     -4249.094  
  19999244.977    19999246.430     -159720.45601    -35867.61209     -2087.719  
  24295233.688    24295237.930      113549.04909     25279.11009      1623.109  
  24424979.414    24424982.684      -60340.26009    -13258.60109      -845.328  
  22412282.828    22412284.211     -351920.28109   -147789.67209     -4619.547  
  22219787.070    22219788.102      125246.91601     51504.13009      1657.969  
 97  6 24 14 49 30.0000000  0  7G01G14G15G21G02G29G31
  22165705.031    22165707.598      -34690.71903     -7840.09609      -431.531  
  22059056.211    22059058.801     -327898.82609   -149189.88009     -4249.281  
  19998847.469    19998848.945     -161808.06201    -37494.31809     -2087.766  
  24295542.297    24295546.117      115172.10409     26543.82509      1622.734  
  24424819.188    24424822.270      -61185.43709    -13917.17509      -845.281  
  22411403.766    22411405.125     -356539.77809   -151389.28009     -4619.688  
  22220102.625    22220103.668      126904.94601     52796.10009      1657.797  
 97  6 24 14 49 31.0000000  0  7G01G14G15G21G02G29G31
  22165623.148    22165625.645      -35122.11002     -8176.24209      -430.766  
  22058247.477    22058250.055     -332148.08609   -152500.98709     -4248.781  
  19998450.242    19998451.742     -163895.76101    -39121.09409     -2087.141  
  24295850.977    24295855.008      116794.73309     27808.21209      1623.000  
  24424658.320    24424660.676      -62030.58409    -14575.73709      -844.563  
  22410524.773    22410526.180     -361159.41609   -154988.99709     -4619.109  
  22220418.156    22220419.094      128562.74001     54087.88809      1658.297  
 97  6 24 14 49 32.0000000  0  7G01G14G15G21G02G29G31
  22165541.203    22165543.629      -35552.42902     -8511.55209      -429.922  
  22057439.203    22057441.746     -336396.56209   -155811.48409     -4248.219  
  19998053.148    19998054.648     -165982.54201    -40747.15709     -2086.469  
  24296159.969    24296164.398      118417.92109     29073.03509      1623.313  
  24424497.680    24424499.836      -62874.70209    -15233.49709      -843.734  
  22409645.938    22409647.262     -365778.22409   -158588.06509     -4618.531  
  22220733.813    22220734.680      130221.31001     55380.27709      1658.813  
 97  6 24 14 49 33.0000000  0  7G01G14G15G21G02G29G31
  22165459.219    22165461.715      -35982.04302     -8846.31809      -429.188  
  22056630.586    22056633.223     -340644.61809   -159121.65609     -4247.766  
  19997656.219    19997657.695     -168068.78301    -42372.80109     -2085.891  
  24296468.906    24296472.656      120041.29609     30338.00109      1623.563  
  24424336.375    24424339.258      -63718.16909    -15890.74409      -843.031  
  22408766.813    22408768.160     -370396.57709   -162186.78009     -4618.047  
  22221049.523    22221050.402      131880.29701     56672.99009      1659.266  
 97  6 24 14 49 34.0000000  0  7G01G14G15G21G02G29G31
  22165377.977    22165380.473      -36410.85102     -9180.45709      -428.609  
  22055822.523    22055825.230     -344892.16609   -162431.43609     -4247.469  
  19997259.188    19997260.723     -170154.38001    -43997.94409     -2085.469  
  24296778.234    24296782.043      121664.98409     31603.21909      1623.625  
  24424176.406    24424178.914      -64560.87909    -16547.40309      -842.547  
  22407888.273    22407889.750     -375014.36309   -165785.05409     -4617.703  
  22221365.227    22221366.164      133539.79101     57966.09909      1659.578  
 97  6 24 14 49 35.0000000  0  7G01G14G15G21G02G29G31
  22165296.117    22165298.648      -36839.13601     -9514.18809      -428.406  
  22055014.125    22055016.809     -349139.47609   -165741.02909     -4247.578  
  19996862.375    19996863.887     -172239.61301    -45622.80309     -2085.438  
  24297086.711    24297090.953      123288.70509     32868.46709      1623.359  
  24424015.906    24424018.449      -65403.10909    -17203.68709      -842.375  
  22407009.492    22407010.852     -379631.87209   -169383.11309     -4617.734  
  22221680.891    22221681.863      135199.52001     59259.39209      1659.438  
 97  6 24 14 49 36.0000000  0  7G01G14G15G21G02G29G31
  22165214.891    22165217.457      -37267.31002     -9847.83209      -427.813  
  22054205.859    22054208.672     -353386.96101   -169050.75909     -4247.281  
  19996465.648    19996467.055     -174324.89601    -47247.70109     -2085.000  
  24297395.906    24297399.609      124912.02609     34133.39709      1623.453  
  24423856.055    24423858.480      -66245.28609    -17859.93509      -841.828  
  22406130.883    22406132.348     -384249.50109   -172981.26409     -4617.375  
  22221996.766    22221997.809      136859.06501     60552.54309      1659.750  
 97  6 24 14 49 37.0000000  0  7G01G14G15G21G02G29G31
  22165133.469    22165136.117      -37694.21601    -10180.48909      -426.203  
  22053397.945    22053400.711     -357633.48501   -172359.74109     -4245.953  
  19996068.969    19996070.398     -176409.07901    -48871.74201     -2083.547  
  24297704.781    24297708.461      126536.12209     35398.92909      1624.547  
  24423695.727    24423697.836      -67086.24409    -18515.23809      -840.281  
  22405252.586    22405254.133     -388866.10209   -176578.61409     -4616.016  
  22222312.742    22222313.891      138519.54801     61846.42409      1661.047  
 97  6 24 14 49 38.0000000  0  7G01G14G15G21G02G29G31
  22165052.414    22165054.980      -38120.26501    -10512.48009      -425.938  
  22052590.023    22052592.859     -361879.44401   -175668.28109     -4245.984  
  19995672.461    19995673.926     -178492.56902    -50495.24301     -2083.438  
  24298013.750    24298016.902      128160.56309     36664.73009      1624.344  
  24423536.297    24423537.609      -67926.41009    -19169.92209      -840.047  
  22404373.938    22404375.543     -393482.08109   -180175.48209     -4615.953  
  22222628.820    22222630.098      140180.60501     63140.74809      1661.031  
 97  6 24 14 49 39.0000000  0  7G01G14G15G21G02G29G31
  22164971.313    22164973.797      -38545.71201    -10843.99909      -424.969  
  22051781.992    22051784.793     -366125.08501   -178976.57209     -4245.313  
  19995276.086    19995277.469     -180575.60503    -52118.39001     -2082.641  
  24298323.164    24298326.398      129785.11209     37930.61009      1624.766  
  24423376.297    24423378.266      -68766.01809    -19824.17509      -839.156  
  22403495.617    22403497.328     -398097.67309   -183772.04609     -4615.250  
  22222944.852    22222946.094      141841.97201     64435.31509      1661.703  
 97  6 24 14 49 40.0000000  0  7G01G14G15G21G02G29G31
  22164890.688    22164893.184      -38970.24702    -11174.80609      -424.531  
  22050974.102    22050976.914     -370370.10001   -182284.37909     -4245.156  
  19994879.844    19994881.203     -182657.87404    -53740.93701     -2082.344  
  24298631.797    24298635.125      131410.08809     39196.82509      1624.734  
  24423216.188    24423218.859      -69604.74709    -20477.74809      -838.766  
  22402617.531    22402619.266     -402712.58209   -187368.07909     -4615.031  
  22223261.086    22223262.316      143503.96801     65730.37309      1661.859  
 97  6 24 14 49 41.0000000  0  7G01G14G15G21G02G29G31
  22164809.742    22164812.168      -39394.84301    -11505.66209      -424.000  
  22050166.359    22050169.137     -374615.45701   -185592.45009     -4244.891  
  19994483.656    19994485.027     -184740.35504    -55363.64901     -2081.953  
  24298941.602    24298945.023      133034.49909     40462.60009      1624.781  
  24423057.031    24423059.656      -70443.59109    -21131.40609      -838.250  
  22401739.195    22401740.836     -407327.78409   -190964.33709     -4614.703  
  22223577.406    22223578.660      145165.60701     67025.15409      1662.078  
 97  6 24 14 49 42.0000000  0  7G01G14G15G21G02G29G31
  22164729.305    22164731.766      -39818.22501    -11835.57009      -423.563  
  22049358.492    22049361.305     -378859.88201   -188899.79509     -4244.734  
  19994087.484    19994088.902     -186821.77104    -56985.53201     -2081.656  
  24299250.578    24299253.988      134659.63809     41728.94209      1624.719  
  24422897.305    24422899.988      -71281.26409    -21784.14709      -837.859  
  22400861.258    22400862.770     -411942.00709   -194559.83409     -4614.500  
  22223893.711    22223894.988      146828.15901     68320.64809      1662.250  
 97  6 24 14 49 43.0000000  0  7G01G14G15G21G02G29G31
  22164648.594    22164651.078      -40242.21601    -12165.95309      -423.797  
  22048550.867    22048553.703     -383105.19501   -192207.83109     -4245.266  
  19993691.227    19993692.598     -188903.93005    -58607.99401     -2082.047  
  24299559.742    24299562.742      136283.69809     42994.43909      1623.969  
  24422737.836    24422741.598      -72119.58309    -22437.38509      -838.156  
  22399982.867    22399984.402     -416557.04009   -198155.96509     -4614.969  
  22224209.977    22224211.359      148489.84001     69615.46409      1661.750  
 97  6 24 14 49 44.0000000  0  7G01G14G15G21G02G29G31
  22164568.070    22164570.578      -40665.35901    -12495.67509      -422.891  
  22047742.797    22047745.656     -387349.94001   -195515.42509     -4244.625  
  19993295.063    19993296.469     -190985.38604    -60229.90801     -2081.250  
  24299868.961    24299872.207      137908.12509     44260.22309      1624.438  
  24422578.781    24422582.449      -72957.08809    -23089.98209      -837.250  
  22399104.789    22399106.219     -421171.45109   -201751.60809     -4614.250  
  22224526.250    22224527.621      150152.12701     70910.75109      1662.406  
 97  6 24 14 49 45.0000000  0  7G01G14G15G21G02G29G31
  22164487.727    22164490.082      -41088.03701    -12825.03709      -422.688  
  22046935.406    22046938.359     -391594.49901   -198822.87409     -4244.703  
  19992899.180    19992900.516     -193066.52204    -61851.57401     -2081.203  
  24300177.891    24300181.418      139532.50609     45525.97209      1624.141  
  24422419.414    24422423.328      -73794.17409    -23742.26809      -837.109  
  22398226.688    22398228.199     -425785.62909   -205347.07109     -4614.281  
  22224842.633    22224844.074      151814.59801     72206.18009      1662.328  
 97  6 24 14 49 46.0000000  0  7G01G14G15G21G02G29G31
  22164407.289    22164409.656      -41510.70901    -13154.39109      -422.297  
  22046127.602    22046130.531     -395839.32101   -202130.52609     -4244.594  
  19992503.141    19992504.605     -195147.78402    -63473.33501     -2080.969  
  24300487.328    24300491.277      141156.43009     46791.36009      1624.031  
  24422260.164    24422263.621      -74631.27609    -24394.56909      -836.766  
  22397348.289    22397349.871     -430399.99009   -208942.67609     -4614.125  
  22225158.891    22225160.262      153476.79101     73501.39209      1662.453  
 97  6 24 14 49 47.0000000  0  7G01G14G15G21G02G29G31
  22164326.859    22164329.344      -41932.56301    -13483.11009      -421.766  
  22045319.813    22045322.789     -400083.59601   -205437.75309     -4244.328  
  19992107.180    19992108.656     -197228.37802    -65094.57701     -2080.578  
  24300796.266    24300801.141      142780.66809     48056.99409      1624.094  
  24422100.570    24422103.535      -75467.60709    -25046.25609      -836.250  
  22396470.570    22396472.105     -435013.78309   -212537.83709     -4613.828  
  22225475.516    22225476.863      155139.52801     74797.02909      1662.641  
 97  6 24 14 49 48.0000000  0  7G01G14G15G21G02G29G31
  22164246.711    22164249.195      -42354.17701    -13811.64109      -421.484  
  22044512.000    22044514.977     -404327.90701   -208745.00809     -4244.313  
  19991711.555    19991713.020     -199308.87202    -66715.74101     -2080.453  
  24301105.219    24301109.648      144404.66509     49322.44009      1623.875  
  24421941.438    24421944.531      -76303.75109    -25697.79609      -836.031  
  22395592.438    22395593.938     -439627.57209   -216132.99809     -4613.781  
  22225791.758    22225793.059      156802.19601     76092.61309      1662.656  
 97  6 24 14 49 49.0000000  0  7G01G14G15G21G02G29G31
  22164166.633    22164169.223      -42775.29401    -14139.78309      -420.891  
  22043704.742    22043707.707     -408571.98601   -212052.08209     -4243.984  
  19991315.578    19991317.043     -201389.00701    -68336.62401     -2079.984  
  24301414.039    24301417.930      146028.70509     50587.92009      1624.016  
  24421783.047    24421785.414      -77139.41209    -26348.95709      -835.469  
  22394714.563    22394715.980     -444241.06809   -219727.92909     -4613.391  
  22226108.188    22226109.453      158465.07901     77388.36609      1662.969  
 97  6 24 14 49 50.0000000  0  7G01G14G15G21G02G29G31
  22164086.516    22164089.094      -43196.02501    -14467.62509      -420.344  
  22042897.227    22042900.203     -412815.95701   -215359.07109     -4243.719  
  19990919.680    19990921.133     -203468.91101    -69957.32801     -2079.578  
  24301723.328    24301727.336      147652.61509     51853.30309      1624.094  
  24421623.984    24421626.809      -77974.75209    -26999.86709      -834.953  
  22393836.406    22393837.848     -448854.42209   -223322.75009     -4613.078  
  22226424.813    22226426.066      160128.05001     78684.18509      1663.219  
 97  6 24 14 49 51.0000000  0  7G01G14G15G21G02G29G31
  22164006.703    22164009.270      -43615.91801    -14794.81309      -419.328  
  22042089.570    22042092.641     -417059.37309   -218665.62709     -4242.984  
  19990524.211    19990525.605     -205548.12301    -71577.49201     -2078.719  
  24302032.406    24302036.367      149276.87209     53118.95209      1624.563  
  24421465.094    24421468.328      -78809.30509    -27650.15909      -834.016  
  22392959.008    22392960.602     -453467.20309   -226917.12309     -4612.328  
  22226741.359    22226742.777      161791.57701     79980.43809      1663.953  
 97  6 24 14 49 52.0000000  0  7G01G14G15G21G02G29G31
  22163926.813    22163929.262      -44034.71101    -15121.14409      -418.484  
  22041282.016    22041285.121     -421301.97009   -221971.54709     -4242.438  
  19990128.773    19990130.133     -207626.39101    -73196.92001     -2078.031  
  24302341.984    24302346.016      150901.74309     54385.08409      1624.922  
  24421307.039    24421309.090      -79642.81109    -28299.64009      -833.219  
  22392081.203    22392082.891     -458079.09809   -230510.80409     -4611.719  
  22227058.078    22227059.660      163455.88501     81277.30209      1664.484  
 97  6 24 14 49 53.0000000  0  7G01G14G15G21G02G29G31
  22163847.289    22163849.738      -44452.99301    -15447.07609      -418.109  
  22040474.984    22040478.078     -425544.33409   -225277.28409     -4242.313  
  19989733.305    19989734.652     -209704.29701    -74816.06701     -2077.797  
  24302650.203    24302654.352      152526.59709     55651.20009      1624.813  
  24421148.086    24421150.289      -80475.87209    -28948.78009      -832.906  
  22391203.711    22391205.375     -462690.72409   -234104.27609     -4611.563  
  22227374.828    22227376.398      165120.41301     82574.33709      1664.563  
 97  6 24 14 49 54.0000000  0  7G01G14G15G21G02G29G31
  22163767.680    22163770.164      -44871.02001    -15772.81109      -417.875  
  22039667.695    22039670.824     -429786.72809   -228583.04409     -4242.375  
  19989337.859    19989339.230     -211782.10801    -76435.14001     -2077.734  
  24302959.992    24302964.316      154151.21609     56917.13109      1624.516  
  24420989.484    24420992.648      -81308.72909    -29597.76009      -832.734  
  22390326.047    22390327.699     -467302.35009   -237697.75009     -4611.594  
  22227691.469    22227692.945      166784.89201     83871.33309      1664.469  
 97  6 24 14 49 55.0000000  0  7G01G14G15G21G02G29G31
  22163688.195    22163690.668      -45288.69301    -16098.27009      -417.578  
  22038860.359    22038863.512     -434029.03109   -231888.73309     -4242.359  
  19988942.266    19988943.637     -213859.69901    -78054.04301     -2077.578  
  24303268.773    24303273.672      155775.71609     58182.97309      1624.344  
  24420830.523    24420833.406      -82141.27609    -30246.49909      -832.484  
  22389448.586    22389450.227     -471913.84909   -241291.12509     -4611.531  
  22228008.414    22228009.809      168449.44101     85168.38409      1664.500  
 97  6 24 14 49 56.0000000  0  7G01G14G15G21G02G29G31
  22163608.992    22163611.465      -45705.60401    -16423.13509      -416.297  
  22038053.102    22038056.207     -438270.85109   -235194.04509     -4241.344  
  19988547.328    19988548.734     -215936.70301    -79672.48601     -2076.469  
  24303577.953    24303582.324      157400.46809     59449.01209      1625.109  
  24420672.109    24420675.262      -82973.13109    -30894.70309      -831.281  
  22388571.328    22388573.250     -476524.85109   -244884.11209     -4610.531  
  22228325.258    22228326.582      170114.44201     86465.78809      1665.453  
 97  6 24 14 49 57.0000000  0  7G01G14G15G21G02G29G31
  22163529.664    22163532.137      -46121.47201    -16747.18709      -415.453  
  22037246.008    22037249.113     -442511.91809   -238498.77009     -4240.781  
  19988152.383    19988153.766     -218012.82001    -81290.23901     -2075.781  
  24303887.758    24303891.613      159025.75009     60715.46709      1625.438  
  24420514.398    24420518.324      -83804.01809    -31542.14309      -830.500  
  22387694.008    22387695.848     -481135.09209   -248476.50309     -4609.969  
  22228642.109    22228643.375      171780.19301     87763.77709      1666.000  
 97  6 24 14 49 58.0000000  0  7G01G14G15G21G02G29G31
  22163450.828    22163453.336      -46536.65801    -17070.70809      -415.219  
  22036439.219    22036442.395     -446752.56309   -241803.16709     -4240.813  
  19987757.203    19987758.633     -220088.40101    -82907.57501     -2075.703  
  24304196.125    24304199.477      160651.24709     61982.09009      1625.188  
  24420356.820    24420360.887      -84634.26709    -32189.08209      -830.328  
  22386816.680    22386818.742     -485744.91309   -252068.56909     -4609.984  
  22228959.281    22228960.406      173446.31901     89062.05609      1665.953  
 97  6 24 14 49 59.0000000  0  7G01G14G15G21G02G29G31
  22163371.914    22163374.457      -46951.36301    -17393.85609      -413.734  
  22035632.328    22035635.539     -450993.01409   -245107.41209     -4239.609  
  19987362.445    19987363.863     -222163.65601    -84524.65701     -2074.359  
  24304506.047    24304510.500      162276.70809     63248.67809      1626.219  
  24420198.484    24420202.832      -85464.11009    -32835.70609      -828.891  
  22385939.617    22385941.680     -490354.50409   -255660.45809     -4608.750  
  22229276.172    22229277.402      175112.64501     90360.49109      1667.141  
 97  6 24 14 50  0.0000000  0  7G01G14G15G21G02G29G31
  22163293.352    22163295.918      -47364.56902    -17715.83409      -413.078  
  22034825.461    22034828.637     -455232.24009   -248410.70309     -4239.234  
  19986967.703    19986969.156     -224237.57001    -86140.69601     -2073.859  
  24304815.133    24304819.328      163903.16309     64516.03909      1626.313  
  24420041.016    24420045.574      -86292.52909    -33481.22409      -828.297  
  22385062.727    22385064.824     -494962.86109   -259251.38409     -4608.359  
  22229593.781    22229595.211      176780.16401     91659.85609      1667.500  
 97  6 24 14 50  1.0000000  0  7G01G14G15G21G02G29G31
  22163214.922    22163217.512      -47777.14702    -18037.32409      -412.188  
  22034018.867    22034021.996     -459471.10609   -251713.71309     -4238.625  
  19986573.055    19986574.531     -226311.00701    -87756.36201     -2073.125  
  24305124.961    24305128.453      165529.75209     65783.50509      1626.703  
  24419882.898    24419887.410      -87120.36609    -34126.29109      -827.484  
  22384185.797    22384187.824     -499570.85209   -262842.02809     -4607.719  
  22229911.289    22229912.555      178448.00401     92959.47209      1668.078  
 97  6 24 14 50  2.0000000  0  7G01G14G15G21G02G29G31
  22163136.477    22163139.055      -48189.09203    -18358.32109      -412.203  
  22033212.336    22033215.500     -463709.60209   -255016.43309     -4238.891  
  19986178.641    19986180.035     -228383.95701    -89371.64801     -2073.297  
  24305434.258    24305438.207      167156.45909     67051.06809      1626.219  
  24419726.422    24419730.711      -87947.65409    -34770.93009      -827.594  
  22383308.789    22383310.863     -504178.45109   -266432.36509     -4608.000  
  22230228.430    22230229.766      180116.16501     94259.33709      1667.719  
 97  6 24 14 50  3.0000000  0  7G01G14G15G21G02G29G31
  22163057.945    22163060.535      -48600.92703    -18679.23209      -411.203  
  22032405.883    22032409.129     -467948.26709   -258319.28709     -4238.188  
  19985784.039    19985785.445     -230456.95201    -90986.96901     -2072.438  
  24305744.094    24305748.465      168782.76709     68318.31909      1626.703  
  24419568.609    24419573.156      -88774.89309    -35415.52809      -826.641  
  22382431.938    22382433.848     -508786.21609   -270022.83109     -4607.281  
  22230546.000    22230547.277      181784.13801     95559.05609      1668.438  
 97  6 24 14 50  4.0000000  0  7G01G14G15G21G02G29G31
  22162979.953    22162982.508      -49011.59602    -18999.23509      -410.188  
  22031599.656    22031602.820     -472186.03309   -261621.44009     -4237.438  
  19985389.914    19985391.355     -232528.93001    -92601.50001     -2071.578  
  24306053.688    24306058.223      170409.75309     69586.10309      1627.219  
  24419410.703    24419415.191      -89601.03209    -36059.27409      -825.703  
  22381555.383    22381557.375     -513393.07809   -273612.59309     -4606.531  
  22230863.563    22230864.828      183452.98301     96859.45409      1669.172  
 97  6 24 14 50  5.0000000  0  7G01G14G15G21G02G29G31
  22162901.734    22162904.289      -49421.70202    -19318.80109      -410.016  
  22030793.109    22030796.285     -476423.50201   -264923.36209     -4237.500  
  19984995.719    19984997.078     -234600.49101    -94215.70301     -2071.547  
  24306363.570    24306367.883      172036.81009     70853.94009      1626.922  
  24419254.602    24419259.031      -90426.67409    -36702.63709      -825.563  
  22380678.578    22380680.629     -517999.63309   -277202.11909     -4606.609  
  22231181.016    22231182.152      185122.10101     98160.06409      1669.047  
 97  6 24 14 50  6.0000000  0  7G01G14G15G21G02G29G31
  22162823.758    22162826.313      -49831.39002    -19638.03709      -409.281  
  22029986.867    22029990.090     -480660.81801   -268225.16409     -4237.031  
  19984601.516    19984602.840     -236671.77801    -95829.69501     -2070.938  
  24306672.313    24306675.945      173663.79109     72121.71309      1627.156  
  24419097.188    24419102.309      -91251.97209    -37345.72509      -824.891  
  22379802.148    22379804.246     -522606.04509   -280791.53109     -4606.125  
  22231498.711    22231499.719      186791.36101     99460.78709      1669.531  
 97  6 24 14 50  7.0000000  0  7G01G14G15G21G02G29G31
  22162745.828    22162748.348      -50240.57601    -19956.88509      -408.734  
  22029180.570    22029183.863     -484897.88801   -271526.77609     -4236.766  
  19984207.344    19984208.668     -238742.71001    -97443.40901     -2070.563  
  24306982.289    24306986.086      175290.78509     73389.49409      1627.156  
  24418939.984    24418944.391      -92076.81309    -37988.45109      -824.438  
  22378925.727    22378927.871     -527212.20509   -284380.74509     -4605.844  
  22231816.156    22231817.293      188460.83909    100761.68009      1669.781  
 97  6 24 14 50  8.0000000  0  7G01G14G15G21G02G29G31
  22162668.102    22162670.609      -50649.19501    -20275.28909      -408.781  
  22028374.250    22028377.531     -489134.67401   -274828.16609     -4237.094  
  19983813.555    19983814.879     -240813.23101    -99056.80201     -2070.766  
  24307292.398    24307295.762      176917.83609     74657.32009      1626.656  
  24418783.570    24418787.496      -92901.16809    -38630.80009      -824.547  
  22378049.156    22378051.277     -531818.05209   -287969.71609     -4606.156  
  22232133.906    22232135.090      190130.59009    102062.78609      1669.406  
 97  6 24 14 50  9.0000000  0  7G01G14G15G21G02G29G31
  22162590.477    22162593.055      -51057.69501    -20593.60109      -408.328  
  22027568.031    22027571.348     -493371.61801   -278129.67909     -4236.922  
  19983419.422    19983420.734     -242883.79001   -100670.22701     -2070.469  
  24307601.461    24307605.445      178544.48309     75924.83409      1626.563  
  24418626.219    24418630.063      -93725.48509    -39273.12109      -824.188  
  22377172.625    22377174.699     -536424.04509   -291558.79909     -4605.953  
  22232451.586    22232452.887      191800.15109    103363.74309      1669.563  
 97  6 24 14 50 10.0000000  0  7G01G14G15G21G02G29G31
  22162512.836    22162515.426      -51465.82102    -20911.62109      -407.703  
  22026761.648    22026764.930     -497608.46701   -281431.11909     -4236.563  
  19983025.219    19983026.531     -244954.11701   -102283.46902     -2069.984  
  24307910.961    24307914.453      180171.01709     77192.26009      1626.719  
  24418469.836    24418474.137      -94549.48209    -39915.19709      -823.594  
  22376296.195    22376298.387     -541029.92409   -295147.79409     -4605.594  
  22232769.406    22232770.531      193469.76309    104664.73909      1669.891  
 97  6 24 14 50 11.0000000  0  7G01G14G15G21G02G29G31
  22162435.133    22162437.688      -51873.53802    -21229.32209      -407.953  
  22025955.641    22025958.875     -501845.18901   -284732.46109     -4237.094  
  19982631.516    19982632.840     -247024.20501   -103896.52502     -2070.406  
  24308220.172    24308223.629      181797.44309     78459.60709      1625.953  
  24418313.367    24418317.879      -95373.15209    -40557.02009      -823.938  
  22375419.836    22375422.074     -545635.67209   -298736.68909     -4606.109  
  22233087.000    22233088.090      195139.47109    105965.80809      1669.313  
 97  6 24 14 50 12.0000000  0  7G01G14G15G21G02G29G31
  22162357.695    22162360.133      -52281.25301    -21547.02209      -407.234  
  22025149.094    22025152.223     -506082.18901   -288034.02009     -4236.672  
  19982237.367    19982238.715     -249094.44301   -105509.69903     -2069.844  
  24308529.570    24308532.617      183423.38109     79726.57609      1626.125  
  24418156.414    24418160.000      -96196.88309    -41198.89209      -823.281  
  22374543.234    22374545.438     -550241.65409   -302325.76609     -4605.641  
  22233404.703    22233405.840      196808.88709    107266.65109      1669.750  
 97  6 24 14 50 13.0000000  0  7G01G14G15G21G02G29G31
  22162280.336    22162282.844      -52688.21201    -21864.13309      -406.516  
  22024343.188    22024346.270     -510318.72101   -291335.21309     -4236.219  
  19981843.680    19981845.039     -251164.08901   -107122.41103     -2069.266  
  24308838.922    24308841.371      185049.55009     80993.72109      1626.391  
  24417999.352    24418002.574      -97019.91709    -41840.22809      -822.625  
  22373666.961    22373669.223     -554847.16309   -305914.47409     -4605.188  
  22233722.438    22233723.645      198478.78209    108567.86609      1670.219  
 97  6 24 14 50 14.0000000  0  7G01G14G15G21G02G29G31
  22162202.977    22162205.438      -53094.30701    -22180.57009      -406.125  
  22023537.031    22023540.066     -514554.66901   -294635.95309     -4236.109  
  19981449.883    19981451.195     -253233.02101   -108734.56504     -2069.047  
  24309148.570    24309151.547      186676.06609     82261.13609      1626.234  
  24417843.008    24417846.465      -97842.16209    -42480.93909      -822.313  
  22372790.891    22372792.953     -559452.07809   -309502.72009     -4605.078  
  22234040.391    22234041.656      200149.25809    109869.53709      1670.297  
 97  6 24 14 50 15.0000000  0  7G01G14G15G21G02G29G31
  22162125.844    22162128.352      -53500.13301    -22496.79809      -405.203  
  22022730.750    22022733.715     -518790.65201   -297936.71809     -4235.500  
  19981056.125    19981057.473     -255301.86001   -110346.64602     -2068.281  
  24309458.156    24309460.934      188302.31409     83528.34409      1626.625  
  24417686.516    24417689.867      -98664.22209    -43121.50909      -821.469  
  22371914.219    22371916.363     -564057.00009   -313090.97109     -4604.422  
  22234358.156    22234359.469      201819.68809    111171.16709      1670.891  
 97  6 24 14 50 16.0000000  0  7G01G14G15G21G02G29G31
  22162048.680    22162051.176      -53904.86601    -22812.17309      -404.422  
  22021924.898    22021927.875     -523025.82501   -301236.85509     -4235.000  
  19980662.820    19980664.156     -257369.76302   -111957.99701     -2067.672  
  24309767.742    24309770.531      189929.16509     84796.02309      1626.875  
  24417530.141    24417533.105      -99485.26909    -43761.29309      -820.766  
  22371038.055    22371040.129     -568661.08909   -316678.57309     -4603.891  
  22234675.977    22234677.418      203490.89709    112473.40609      1671.391  
 97  6 24 14 50 17.0000000  0  7G01G14G15G21G02G29G31
  22161971.766    22161974.191      -54309.11301    -23127.17109      -404.469  
  22021118.922    22021121.887     -527260.79701   -304536.83209     -4235.344  
  19980269.289    19980270.684     -259437.35003   -113569.10301     -2067.891  
  24310077.680    24310080.832      191555.95509     86063.65109      1626.344  
  24417374.008    24417377.008     -100305.90609    -44400.74809      -820.875  
  22370161.859    22370163.992     -573264.94509   -320265.99209     -4604.219  
  22234994.063    22234995.434      205162.30509    113775.79909      1671.016  
 97  6 24 14 50 18.0000000  0  7G01G14G15G21G02G29G31
  22161894.813    22161897.262      -54712.88601    -23441.79909      -402.891  
  22020313.023    22020315.906     -531495.57401   -307836.65809     -4234.047  
  19979875.852    19979877.270     -261504.61704   -115179.96001     -2066.469  
  24310386.742    24310390.223      193182.71809     87331.25409      1627.391  
  24417218.219    24417221.617     -101126.11909    -45039.87309      -819.375  
  22369285.867    22369288.176     -577868.60209   -323853.25609     -4602.922  
  22235312.336    22235313.684      206833.88209    115078.32209      1672.297  
 97  6 24 14 50 19.0000000  0  7G01G14G15G21G02G29G31
  22161818.188    22161820.648      -55115.47201    -23755.50309      -402.406  
  22019507.289    22019510.172     -535729.44901   -311135.78109     -4233.844  
  19979482.625    19979484.066     -263570.86502   -116790.02201     -2066.156  
  24310696.188    24310698.895      194810.17209     88599.39709      1627.359  
  24417062.336    24417066.016     -101945.27509    -45678.18109      -819.000  
  22368410.055    22368412.363     -582471.33909   -327439.80309     -4602.703  
  22235630.313    22235631.754      208506.30309    116381.50509      1672.469  
 97  6 24 14 50 20.0000000  0  7G01G14G15G21G02G29G31
  22161741.781    22161744.313      -55517.53601    -24068.79809      -401.578  
  22018701.852    22018704.805     -539963.08101   -314434.71609     -4233.281  
  19979089.516    19979090.898     -265636.74604   -118399.79801     -2065.469  
  24311006.453    24311009.383      196437.62109     89867.53009      1627.656  
  24416906.070    24416909.773     -102763.95309    -46316.11209      -818.234  
  22367534.219    22367536.645     -587073.81409   -331026.14609     -4602.125  
  22235948.867    22235950.426      210178.96009    117684.87209      1672.984  
 97  6 24 14 50 21.0000000  0  7G01G14G15G21G02G29G31
  22161665.492    22161667.941      -55918.40501    -24381.16409      -400.297  
  22017896.523    22017899.535     -544195.79301   -317732.93209     -4232.281  
  19978696.523    19978697.848     -267701.59604   -120008.77101     -2064.359  
  24311315.773    24311319.160      198065.73509     91136.18609      1628.453  
  24416751.109    24416754.285     -103581.51609    -46953.16709      -817.031  
  22366658.797    22366661.129     -591675.35609   -334611.76009     -4601.094  
  22236267.086    22236268.691      211852.50909    118988.93409      1673.969  
 97  6 24 14 50 22.0000000  0  7G01G14G15G21G02G29G31
  22161589.281    22161591.719      -56318.41901    -24692.86409      -399.922  
  22017091.234    22017094.188     -548427.92401   -321030.69409     -4232.172  
  19978303.828    19978305.164     -269765.74503   -121617.19701     -2064.125  
  24311625.922    24311630.105      199694.25409     92405.16009      1628.313  
  24416595.242    24416598.430     -104398.29809    -47589.61709      -816.734  
  22365782.961    22365785.164     -596276.31109   -338196.91809     -4601.000  
  22236585.820    22236587.414      213526.59309    120293.41509      1674.031  
 97  6 24 14 50 23.0000000  0  7G01G14G15G21G02G29G31
  22161513.125    22161515.598      -56718.44001    -25004.56709      -399.609  
  22016285.625    22016288.637     -552660.33701   -324328.67809     -4232.156  
  19977911.172    19977912.531     -271830.05702   -123225.74901     -2064.000  
  24311935.977    24311940.125      201322.23209     93673.71509      1628.141  
  24416439.453    24416442.605     -105215.15809    -48226.13109      -816.484  
  22364907.516    22364909.660     -600877.55209   -341782.29709     -4600.969  
  22236904.414    22236906.055      215200.37009    121597.65509      1674.016  
 97  6 24 14 50 24.0000000  0  7G01G14G15G21G02G29G31
  22161437.180    22161439.652      -57117.70101    -25315.67909      -399.094  
  22015480.344    22015483.355     -556892.27301   -327626.28909     -4231.891  
  19977518.305    19977519.676     -273893.76801   -124833.83501     -2063.625  
  24312245.453    24312250.082      202950.46609     94942.45509      1628.156  
  24416283.836    24416286.285     -106031.33509    -48862.11709      -816.016  
  22364031.984    22364034.246     -605478.29109   -345367.28809     -4600.719  
  22237223.000    22237224.699      216874.60309    122902.25009      1674.250  
 97  6 24 14 50 25.0000000  0  7G01G14G15G21G02G29G31
  22161361.422    22161363.953      -57517.14401    -25626.93309      -399.859  
  22014674.891    22014677.867     -561124.66501   -330924.25709     -4232.953  
  19977125.531    19977126.926     -275957.83101   -126442.19601     -2064.547  
  24312555.555    24312560.383      204577.99709     96210.64909      1626.844  
  24416128.656    24416131.516     -106847.77209    -49498.30709      -816.891  
  22363156.555    22363158.828     -610079.50409   -348952.64909     -4601.750  
  22237541.352    22237543.121      218548.30409    124206.43109      1673.141  
 97  6 24 14 50 26.0000000  0  7G01G14G15G21G02G29G31
  22161285.188    22161287.730      -57916.89801    -25938.42909      -398.875  
  22013869.516    22013872.398     -565357.65301   -334222.68909     -4232.234  
  19976732.742    19976734.137     -278022.35301   -128050.91601     -2063.719  
  24312864.813    24312869.289      206204.67409     97478.18409      1627.328  
  24415973.367    24415975.852     -107664.58209    -50134.78409      -815.953  
  22362280.789    22362283.121     -614681.27609   -352538.44309     -4601.016  
  22237859.844    22237861.684      220221.37109    125510.11909      1673.781  
 97  6 24 14 50 27.0000000  0  7G01G14G15G21G02G29G31
  22161209.281    22161211.859      -58315.55001    -26249.06509      -398.594  
  22013064.227    22013067.109     -569589.81101   -337520.47309     -4232.266  
  19976340.000    19976341.359     -280085.94801   -129658.91001     -2063.625  
  24313174.766    24313179.500      207831.97109     98746.19909      1627.063  
  24415817.719    24415820.672     -108480.38309    -50770.46909      -815.781  
  22361405.250    22361407.734     -619282.21809   -356123.59009     -4601.047  
  22238178.156    22238180.043      221895.23709    126814.42909      1673.750  
 97  6 24 14 50 28.0000000  0  7G01G14G15G21G02G29G31
  22161133.602    22161136.203      -58713.62201    -26559.25109      -397.406  
  22012258.805    22012261.676     -573821.69201   -340818.04309     -4231.375  
  19975947.469    19975948.910     -282149.12901   -131266.58401     -2062.625  
  24313484.211    24313489.473      209459.31509    100014.24609      1627.750  
  24415663.172    24415666.418     -109295.67809    -51405.76109      -814.688  
  22360529.547    22360531.926     -623882.86909   -359708.51009     -4600.141  
  22238496.711    22238498.563      223569.33909    128118.92109      1674.594  
 97  6 24 14 50 29.0000000  0  7G01G14G15G21G02G29G31
  22161058.219    22161060.773      -59110.52801    -26868.52709      -396.625  
  22011453.719    22011456.590     -578052.68501   -344114.91809     -4230.859  
  19975554.914    19975556.379     -284211.29801   -132873.46901     -2061.984  
  24313793.539    24313798.672      211087.32409    101282.81709      1628.000  
  24415508.438    24415512.223     -110109.90109    -52040.22709      -813.984  
  22359654.469    22359656.871     -628482.61609   -363292.72609     -4599.641  
  22238815.406    22238817.129      225244.28309    129424.07209      1675.047  
 97  6 24 14 50 30.0000000  0  7G01G14G15G21G02G29G31
  22160982.836    22160985.332      -59507.11701    -27177.55709      -396.219  
  22010648.406    22010651.277     -582283.65401   -347411.77709     -4230.750  
  19975162.531    19975164.066     -286273.32501   -134480.24201     -2061.750  
  24314103.680    24314108.695      212715.13309    102551.24009      1627.906  
  24415353.492    24415356.961     -110923.86709    -52674.49009      -813.641  
  22358779.016    22358781.441     -633082.34509   -366876.93009     -4599.500  
  22239134.227    22239136.090      226919.20909    130729.20909      1675.125  
 97  6 24 14 50 31.0000000  0  7G01G14G15G21G02G29G31
  22160907.383    22160909.879      -59903.25401    -27486.23609      -396.016  
  22009843.438    22009846.332     -586514.44401   -350708.49409     -4230.813  
  19974770.172    19974771.730     -288335.06401   -136086.79302     -2061.703  
  24314413.766    24314418.055      214342.89309    103819.62009      1627.594  
  24415198.578    24415201.789     -111737.45309    -53308.45109      -813.500  
  22357903.742    22357906.051     -637681.89409   -370460.99209     -4599.578  
  22239453.172    22239455.012      228594.25409    132034.43809      1675.016  
 97  6 24 14 50 32.0000000  0  7G01G14G15G21G02G29G31
  22160832.094    22160834.566      -60298.70902    -27794.38209      -394.609  
  22009038.172    22009041.160     -590744.85101   -354004.91409     -4229.719  
  19974378.219    19974379.777     -290396.30001   -137692.95002     -2060.484  
  24314723.047    24314727.453      215970.78709    105088.10609      1628.500  
  24415043.820    24415047.453     -112550.45009    -53941.95309      -812.172  
  22357028.617    22357031.090     -642281.07209   -374044.76509     -4598.516  
