% program   : RTKLIB ver.2.4.2
% inp file  : K116326A.98O
% inp file  : K116326A.98N
% obs start : 1998/11/22 11:15:20.0 GPST (week0985  40520.0s)
% obs end   : 1998/11/22 12:19:55.0 GPST (week0985  44395.0s)
% pos mode  : single
% elev mask : 15.0 deg
% ionos opt : off
% tropo opt : off
% ephemeris : broadcast
%
% (lat/lon/height=WGS84/ellipsoidal,Q=1:fix,2:float,3:sbas,4:dgps,5:single,6:ppp,ns=# of satellites)
%  GPST                  latitude(deg) longitude(deg)  height(m)   Q  ns   sdn(m)   sde(m)   sdu(m)  sdne(m)  sdeu(m)  sdun(m) age(s)  ratio
1998/11/22 11:17:20.000   48.457883104   11.201666451   584.6910   5   6   7.2684   5.3495  12.3664   1.1510  -4.6436   4.0135   0.00    0.0
1998/11/22 11:17:25.000   48.457883406   11.201672924   580.9528   5   6   7.2707   5.3478  12.3781   1.1369  -4.6412   4.0341   0.00    0.0
1998/11/22 11:17:30.000   48.457877787   11.201676827   577.6130   5   6   7.2730   5.3460  12.3900   1.1226  -4.6388   4.0547   0.00    0.0
1998/11/22 11:17:35.000   48.457869300   11.201687798   574.5207   5   6   7.2753   5.3442  12.4018   1.1082  -4.6364   4.0753   0.00    0.0
1998/11/22 11:17:40.000   48.457860186   11.201695984   570.3324   5   6   7.2777   5.3425  12.4137   1.0936  -4.6340   4.0957   0.00    0.0
1998/11/22 11:17:45.000   48.457851612   11.201702528   567.4970   5   6   7.2800   5.3407  12.4256   1.0788  -4.6316   4.1162   0.00    0.0
1998/11/22 11:17:50.000   48.457843164   11.201704191   563.2757   5   6   7.2824   5.3390  12.4375   1.0639  -4.6292   4.1365   0.00    0.0
1998/11/22 11:17:55.000   48.457829724   11.201712414   560.9826   5   6   7.2848   5.3372  12.4495   1.0488  -4.6268   4.1569   0.00    0.0
1998/11/22 11:18:00.000   48.457819670   11.201712952   557.8374   5   6   7.2872   5.3355  12.4616   1.0336  -4.6244   4.1771   0.00    0.0
1998/11/22 11:18:05.000   48.457807484   11.201718504   555.0852   5   6   7.2897   5.3337  12.4736   1.0181  -4.6220   4.1973   0.00    0.0
1998/11/22 11:18:10.000   48.457795052   11.201715297   552.5384   5   6   7.2921   5.3320  12.4857   1.0025  -4.6195   4.2175   0.00    0.0
1998/11/22 11:18:15.000   48.457780194   11.201716002   550.1640   5   6   7.2946   5.3303  12.4979   0.9866  -4.6171   4.2376   0.00    0.0
1998/11/22 11:18:20.000   48.457770953   11.201713117   548.2372   5   6   7.2971   5.3285  12.5100   0.9705  -4.6147   4.2577   0.00    0.0
1998/11/22 11:18:25.000   48.457758059   11.201711567   546.5668   5   6   7.2996   5.3268  12.5222   0.9542  -4.6123   4.2777   0.00    0.0
1998/11/22 11:18:30.000   48.457743735   11.201706769   545.7486   5   6   7.3022   5.3251  12.5345   0.9376  -4.6098   4.2977   0.00    0.0
1998/11/22 11:18:35.000   48.457730616   11.201701059   544.5651   5   6   7.3047   5.3234  12.5468   0.9208  -4.6074   4.3176   0.00    0.0
1998/11/22 11:18:40.000   48.457718204   11.201696574   543.3171   5   6   7.3073   5.3216  12.5591   0.9038  -4.6050   4.3375   0.00    0.0
1998/11/22 11:18:45.000   48.457706702   11.201685784   542.8297   5   6   7.3099   5.3199  12.5715   0.8864  -4.6025   4.3574   0.00    0.0
1998/11/22 11:18:50.000   48.457693846   11.201681017   542.1859   5   6   7.3125   5.3182  12.5839   0.8687  -4.6001   4.3772   0.00    0.0
1998/11/22 11:18:55.000   48.457681832   11.201668032   541.8313   5   6   7.3151   5.3165  12.5963   0.8508  -4.5976   4.3970   0.00    0.0
1998/11/22 11:19:00.000   48.457673808   11.201656257   541.3683   5   6   7.3177   5.3148  12.6088   0.8324  -4.5952   4.4167   0.00    0.0
1998/11/22 11:19:05.000   48.457663796   11.201639721   541.6312   5   6   7.3204   5.3131  12.6213   0.8137  -4.5927   4.4363   0.00    0.0
1998/11/22 11:19:10.000   48.457655870   11.201624693   542.2112   5   6   7.3231   5.3114  12.6338   0.7947  -4.5902   4.4560   0.00    0.0
1998/11/22 11:19:15.000   48.457647504   11.201605227   542.8026   5   6   7.3258   5.3097  12.6464   0.7752  -4.5878   4.4756   0.00    0.0
1998/11/22 11:19:20.000   48.457636499   11.201587749   542.8762   5   6   7.3285   5.3080  12.6590   0.7552  -4.5853   4.4951   0.00    0.0
1998/11/22 11:19:25.000   48.457629643   11.201571232   543.6428   5   6   7.3312   5.3064  12.6717   0.7348  -4.5828   4.5147   0.00    0.0
1998/11/22 11:19:30.000   48.457621402   11.201553546   544.9982   5   6   7.3339   5.3047  12.6844   0.7139  -4.5803   4.5341   0.00    0.0
1998/11/22 11:19:35.000   48.457616128   11.201533404   545.9392   5   6   7.3367   5.3030  12.6971   0.6923  -4.5779   4.5536   0.00    0.0
1998/11/22 11:19:40.000   48.457611344   11.201507502   547.8882   5   6   7.3395   5.3013  12.7099   0.6702  -4.5754   4.5730   0.00    0.0
1998/11/22 11:19:45.000   48.457607999   11.201484563   549.2690   5   6   7.3423   5.2996  12.7227   0.6473  -4.5729   4.5924   0.00    0.0
1998/11/22 11:19:50.000   48.457608450   11.201461569   551.8516   5   6   7.3451   5.2980  12.7355   0.6237  -4.5704   4.6117   0.00    0.0
1998/11/22 11:19:55.000   48.457608783   11.201430405   553.4189   5   6   7.3480   5.2963  12.7484   0.5992  -4.5679   4.6310   0.00    0.0
1998/11/22 11:20:00.000   48.457609285   11.201403807   555.9402   5   6   7.3508   5.2946  12.7613   0.5738  -4.5654   4.6503   0.00    0.0
1998/11/22 11:20:05.000   48.457611829   11.201375265   558.2909   5   6   7.3537   5.2930  12.7743   0.5472  -4.5629   4.6695   0.00    0.0
1998/11/22 11:20:10.000   48.457618655   11.201348635   561.1878   5   6   7.3566   5.2913  12.7873   0.5194  -4.5603   4.6887   0.00    0.0
1998/11/22 11:20:15.000   48.457624520   11.201320022   563.8055   5   6   7.3595   5.2897  12.8003   0.4900  -4.5578   4.7078   0.00    0.0
1998/11/22 11:20:20.000   48.457628980   11.201294017   566.9030   5   6   7.3624   5.2880  12.8134   0.4589  -4.5553   4.7270   0.00    0.0
1998/11/22 11:20:25.000   48.457632531   11.201266486   569.4942   5   6   7.3654   5.2864  12.8265   0.4257  -4.5528   4.7461   0.00    0.0
1998/11/22 11:20:30.000   48.457636681   11.201245469   572.2863   5   6   7.3683   5.2847  12.8396   0.3896  -4.5502   4.7651   0.00    0.0
1998/11/22 11:20:35.000   48.457640284   11.201221025   575.0389   5   6   7.3713   5.2831  12.8528   0.3501  -4.5477   4.7842   0.00    0.0
1998/11/22 11:20:40.000   48.457645988   11.201196058   577.6920   5   6   7.3743   5.2815  12.8660   0.3056  -4.5451   4.8032   0.00    0.0
1998/11/22 11:20:45.000   48.457652744   11.201170806   580.7852   5   6   7.3773   5.2798  12.8793   0.2535  -4.5426   4.8222   0.00    0.0
1998/11/22 11:20:50.000   48.457652849   11.201147345   582.6177   5   6   7.3804   5.2782  12.8926   0.1877  -4.5400   4.8411   0.00    0.0
1998/11/22 11:20:55.000   48.457659776   11.201122725   584.3030   5   6   7.3834   5.2766  12.9059   0.0795  -4.5374   4.8600   0.00    0.0
1998/11/22 11:21:00.000   48.457663137   11.201109185   586.1630   5   6   7.3865   5.2749  12.9193  -0.1501  -4.5349   4.8789   0.00    0.0
1998/11/22 11:21:05.000   48.457667836   11.201090273   587.7136   5   6   7.3896   5.2733  12.9327  -0.2265  -4.5323   4.8978   0.00    0.0
1998/11/22 11:21:10.000   48.457669304   11.201080354   589.1203   5   6   7.3927   5.2717  12.9461  -0.2828  -4.5297   4.9166   0.00    0.0
1998/11/22 11:21:15.000   48.457677162   11.201069031   589.6697   5   6   7.3958   5.2701  12.9596  -0.3295  -4.5271   4.9354   0.00    0.0
1998/11/22 11:21:20.000   48.457678695   11.201061969   590.7025   5   6   7.3990   5.2685  12.9731  -0.3702  -4.5245   4.9542   0.00    0.0
1998/11/22 11:21:25.000   48.457683369   11.201051276   591.3482   5   6   7.4021   5.2669  12.9866  -0.4068  -4.5219   4.9729   0.00    0.0
1998/11/22 11:21:30.000   48.457685995   11.201044947   591.2293   5   6   7.4053   5.2653  13.0002  -0.4402  -4.5193   4.9917   0.00    0.0
1998/11/22 11:25:55.000   48.456856339   11.201438036   610.7366   5   6   7.5985   5.1846  13.7706  -1.2501  -4.3667   5.9534   0.00    0.0
1998/11/22 11:26:00.000   48.456858329   11.201419682   614.4751   5   6   7.6026   5.1831  13.7860  -1.2593  -4.3634   5.9710   0.00    0.0
1998/11/22 11:26:05.000   48.456857015   11.201408069   618.4980   5   6   7.6067   5.1817  13.8015  -1.2684  -4.3602   5.9887   0.00    0.0
1998/11/22 11:26:10.000   48.456858735   11.201392440   621.8098   5   6   7.6108   5.1802  13.8170  -1.2774  -4.3569   6.0063   0.00    0.0
1998/11/22 11:26:15.000   48.456866094   11.201381507   625.5521   5   6   7.6149   5.1788  13.8325  -1.2863  -4.3536   6.0239   0.00    0.0
1998/11/22 11:26:20.000   48.456871011   11.201368660   629.3668   5   6   7.6190   5.1773  13.8480  -1.2951  -4.3503   6.0415   0.00    0.0
1998/11/22 11:26:25.000   48.456878553   11.201357382   632.6142   5   6   7.6232   5.1759  13.8636  -1.3038  -4.3470   6.0590   0.00    0.0
1998/11/22 11:26:30.000   48.456888155   11.201346174   635.1444   5   6   7.6274   5.1745  13.8793  -1.3124  -4.3437   6.0766   0.00    0.0
1998/11/22 11:26:35.000   48.456898853   11.201332661   639.1315   5   6   7.6316   5.1730  13.8949  -1.3209  -4.3403   6.0941   0.00    0.0
1998/11/22 11:26:40.000   48.456910348   11.201321582   641.2448   5   6   7.6357   5.1716  13.9106  -1.3293  -4.3369   6.1116   0.00    0.0
1998/11/22 11:26:45.000   48.456922121   11.201309896   643.6830   5   6   7.6400   5.1702  13.9263  -1.3376  -4.3335   6.1291   0.00    0.0
1998/11/22 11:26:50.000   48.456931949   11.201299550   645.8178   5   6   7.6442   5.1688  13.9420  -1.3458  -4.3301   6.1466   0.00    0.0
1998/11/22 11:26:55.000   48.456946168   11.201287262   647.2531   5   6   7.6484   5.1674  13.9578  -1.3539  -4.3267   6.1641   0.00    0.0
1998/11/22 11:27:00.000   48.456958094   11.201273254   648.6599   5   6   7.6527   5.1659  13.9736  -1.3619  -4.3233   6.1816   0.00    0.0
1998/11/22 11:27:05.000   48.456971872   11.201261347   649.8614   5   6   7.6570   5.1645  13.9894  -1.3699  -4.3198   6.1990   0.00    0.0
1998/11/22 11:27:10.000   48.456982672   11.201254346   651.0423   5   6   7.6612   5.1631  14.0053  -1.3777  -4.3163   6.2164   0.00    0.0
1998/11/22 11:27:15.000   48.456996543   11.201245315   652.0094   5   6   7.6655   5.1617  14.0211  -1.3855  -4.3128   6.2338   0.00    0.0
1998/11/22 11:27:20.000   48.457011390   11.201234076   652.6049   5   6   7.6699   5.1603  14.0371  -1.3932  -4.3093   6.2512   0.00    0.0
1998/11/22 11:27:25.000   48.457025012   11.201222342   652.6513   5   6   7.6742   5.1589  14.0530  -1.4008  -4.3057   6.2686   0.00    0.0
1998/11/22 11:27:30.000   48.457040213   11.201217298   652.7090   5   6   7.6785   5.1575  14.0690  -1.4083  -4.3021   6.2860   0.00    0.0
1998/11/22 11:27:35.000   48.457059045   11.201208806   653.4198   5   6   7.6829   5.1561  14.0849  -1.4158  -4.2986   6.3033   0.00    0.0
1998/11/22 11:27:40.000   48.457075362   11.201199322   653.1410   5   6   7.6872   5.1547  14.1010  -1.4231  -4.2950   6.3206   0.00    0.0
1998/11/22 11:27:45.000   48.457088769   11.201194903   653.0681   5   6   7.6916   5.1533  14.1170  -1.4304  -4.2913   6.3379   0.00    0.0
1998/11/22 11:32:25.000   48.457600429   11.201591906   510.9147   5   6   7.9545   5.0797  15.0497  -1.7341  -4.0460   7.2795   0.00    0.0
1998/11/22 11:32:30.000   48.457611529   11.201609201   510.2103   5   6   7.9594   5.0785  15.0668  -1.7379  -4.0407   7.2957   0.00    0.0
1998/11/22 11:32:35.000   48.457618364   11.201626897   509.2345   5   6   7.9644   5.0772  15.0838  -1.7416  -4.0354   7.3119   0.00    0.0
1998/11/22 11:32:40.000   48.457625594   11.201640865   508.2347   5   6   7.9693   5.0760  15.1009  -1.7454  -4.0300   7.3281   0.00    0.0
1998/11/22 11:32:45.000   48.457635996   11.201653870   508.1391   5   6   7.9742   5.0748  15.1180  -1.7490  -4.0246   7.3442   0.00    0.0
1998/11/22 11:32:50.000   48.457641843   11.201667132   508.3305   5   6   7.9792   5.0735  15.1351  -1.7526  -4.0191   7.3603   0.00    0.0
1998/11/22 11:32:55.000   48.457651474   11.201680486   508.4489   5   6   7.9841   5.0723  15.1522  -1.7562  -4.0136   7.3764   0.00    0.0
1998/11/22 11:33:00.000   48.457658656   11.201690393   508.8319   5   6   7.9891   5.0711  15.1693  -1.7597  -4.0081   7.3925   0.00    0.0
1998/11/22 11:33:05.000   48.457662676   11.201698788   509.1414   5   6   7.9940   5.0699  15.1864  -1.7631  -4.0025   7.4086   0.00    0.0
1998/11/22 11:33:10.000   48.457667897   11.201711158   509.6193   5   6   7.9990   5.0687  15.2035  -1.7665  -3.9969   7.4246   0.00    0.0
1998/11/22 11:33:15.000   48.457667438   11.201720741   509.9547   5   6   8.0040   5.0675  15.2206  -1.7699  -3.9912   7.4406   0.00    0.0
1998/11/22 11:33:20.000   48.457666928   11.201729890   510.6731   5   6   8.0089   5.0663  15.2377  -1.7732  -3.9855   7.4565   0.00    0.0
1998/11/22 11:33:25.000   48.457664948   11.201737972   510.3817   5   6   8.0139   5.0650  15.2549  -1.7764  -3.9798   7.4725   0.00    0.0
1998/11/22 11:33:30.000   48.457661149   11.201742313   510.9184   5   6   8.0189   5.0638  15.2720  -1.7796  -3.9740   7.4884   0.00    0.0
1998/11/22 11:33:35.000   48.457655994   11.201751069   510.8479   5   6   8.0238   5.0626  15.2891  -1.7828  -3.9681   7.5043   0.00    0.0
1998/11/22 11:33:40.000   48.457644659   11.201758211   510.8342   5   6   8.0288   5.0614  15.3062  -1.7859  -3.9622   7.5202   0.00    0.0
1998/11/22 11:33:45.000   48.457634985   11.201763923   510.8324   5   6   8.0338   5.0603  15.3233  -1.7890  -3.9563   7.5360   0.00    0.0
1998/11/22 11:33:50.000   48.457620004   11.201769112   510.3313   5   6   8.0388   5.0591  15.3404  -1.7920  -3.9503   7.5518   0.00    0.0
1998/11/22 11:33:55.000   48.457601440   11.201775276   508.8910   5   6   8.0438   5.0579  15.3576  -1.7949  -3.9443   7.5676   0.00    0.0
1998/11/22 11:34:00.000   48.457585536   11.201779165   507.9401   5   6   8.0488   5.0567  15.3747  -1.7978  -3.9382   7.5833   0.00    0.0
1998/11/22 11:34:05.000   48.457566235   11.201781614   506.3186   5   6   8.0537   5.0555  15.3918  -1.8007  -3.9321   7.5990   0.00    0.0
1998/11/22 11:34:10.000   48.457543821   11.201785124   503.8599   5   6   8.0587   5.0543  15.4089  -1.8035  -3.9259   7.6147   0.00    0.0
1998/11/22 11:34:15.000   48.457520739   11.201786256   501.6596   5   6   8.0637   5.0532  15.4260  -1.8063  -3.9197   7.6304   0.00    0.0
1998/11/22 11:34:20.000   48.457497868   11.201785910   498.8129   5   6   8.0687   5.0520  15.4431  -1.8090  -3.9135   7.6460   0.00    0.0
1998/11/22 11:34:25.000   48.457470029   11.201786871   495.2136   5   6   8.0737   5.0508  15.4602  -1.8117  -3.9072   7.6616   0.00    0.0
1998/11/22 11:34:30.000   48.457442235   11.201786451   491.5414   5   6   8.0787   5.0496  15.4773  -1.8143  -3.9008   7.6772   0.00    0.0
1998/11/22 11:34:35.000   48.457417484   11.201784230   488.3135   5   6   8.0837   5.0485  15.4944  -1.8168  -3.8944   7.6927   0.00    0.0
1998/11/22 11:34:40.000   48.457387110   11.201779395   484.1263   5   6   8.0887   5.0473  15.5114  -1.8194  -3.8880   7.7082   0.00    0.0
1998/11/22 11:34:45.000   48.457356831   11.201777991   479.4686   5   6   8.0936   5.0462  15.5285  -1.8218  -3.8815   7.7237   0.00    0.0
1998/11/22 11:34:50.000   48.457326588   11.201773837   475.4311   5   6   8.0986   5.0450  15.5456  -1.8243  -3.8749   7.7391   0.00    0.0
1998/11/22 11:34:55.000   48.457297215   11.201766072   470.8241   5   6   8.1036   5.0439  15.5626  -1.8266  -3.8683   7.7545   0.00    0.0
1998/11/22 11:35:00.000   48.457263577   11.201758617   466.0218   5   6   8.1086   5.0427  15.5797  -1.8290  -3.8616   7.7699   0.00    0.0
1998/11/22 11:35:05.000   48.457232111   11.201756435   461.3510   5   6   8.1136   5.0416  15.5967  -1.8312  -3.8549   7.7852   0.00    0.0
1998/11/22 11:35:10.000   48.457197623   11.201747785   456.2415   5   6   8.1186   5.0404  15.6138  -1.8335  -3.8482   7.8005   0.00    0.0
1998/11/22 11:35:15.000   48.457161391   11.201743141   451.4387   5   6   8.1235   5.0393  15.6308  -1.8357  -3.8413   7.8158   0.00    0.0
1998/11/22 11:35:20.000   48.457122890   11.201734243   446.1457   5   6   8.1285   5.0382  15.6478  -1.8378  -3.8345   7.8310   0.00    0.0
1998/11/22 11:35:25.000   48.457089397   11.201721919   440.5866   5   6   8.1335   5.0370  15.6648  -1.8399  -3.8276   7.8462   0.00    0.0
1998/11/22 11:35:30.000   48.457047749   11.201711841   435.6382   5   6   8.1385   5.0359  15.6818  -1.8419  -3.8206   7.8614   0.00    0.0
1998/11/22 11:35:35.000   48.457015121   11.201698746   431.0984   5   6   8.1434   5.0348  15.6987  -1.8439  -3.8135   7.8765   0.00    0.0
1998/11/22 11:35:40.000   48.456980327   11.201684934   426.3364   5   6   8.1484   5.0337  15.7157  -1.8459  -3.8064   7.8916   0.00    0.0
1998/11/22 11:35:45.000   48.456948878   11.201668250   421.8194   5   6   8.1533   5.0325  15.7326  -1.8477  -3.7993   7.9066   0.00    0.0
1998/11/22 11:35:50.000   48.456918082   11.201657023   416.9132   5   6   8.1583   5.0314  15.7496  -1.8496  -3.7921   7.9217   0.00    0.0
1998/11/22 11:35:55.000   48.456888623   11.201640737   412.6168   5   6   8.1632   5.0303  15.7665  -1.8514  -3.7848   7.9366   0.00    0.0
1998/11/22 11:36:00.000   48.456863307   11.201625181   408.5914   5   6   8.1682   5.0292  15.7834  -1.8531  -3.7775   7.9516   0.00    0.0
1998/11/22 11:36:05.000   48.456840823   11.201609605   405.0626   5   6   8.1731   5.0281  15.8002  -1.8548  -3.7701   7.9665   0.00    0.0
1998/11/22 11:36:10.000   48.456819967   11.201590623   401.6035   5   6   8.1781   5.0270  15.8171  -1.8565  -3.7627   7.9813   0.00    0.0
1998/11/22 11:36:15.000   48.456801344   11.201574314   398.4188   5   6   8.1830   5.0259  15.8339  -1.8581  -3.7552   7.9961   0.00    0.0
1998/11/22 11:40:50.000   48.457638646   11.201586894   589.1455   5   6   8.4363   4.9719  16.7102  -1.8730  -3.2334   8.7355   0.00    0.0
1998/11/22 11:40:55.000   48.457628627   11.201571835   590.6406   5   6   8.4404   4.9710  16.7248  -1.8719  -3.2215   8.7473   0.00    0.0
1998/11/22 11:41:00.000   48.457623066   11.201559655   590.4510   5   6   8.4445   4.9702  16.7394  -1.8708  -3.2095   8.7591   0.00    0.0
1998/11/22 11:41:05.000   48.457610625   11.201540006   590.3825   5   6   8.4486   4.9693  16.7539  -1.8696  -3.1974   8.7708   0.00    0.0
1998/11/22 11:41:10.000   48.457599161   11.201518688   590.4164   5   6   8.4526   4.9685  16.7683  -1.8684  -3.1852   8.7824   0.00    0.0
1998/11/22 11:41:15.000   48.457584309   11.201497041   589.1043   5   6   8.4567   4.9677  16.7827  -1.8672  -3.1729   8.7939   0.00    0.0
1998/11/22 11:41:20.000   48.457563823   11.201478672   586.6791   5   6   8.4607   4.9668  16.7970  -1.8658  -3.1605   8.8054   0.00    0.0
1998/11/22 11:41:25.000   48.457545059   11.201454365   584.2123   5   6   8.4647   4.9660  16.8112  -1.8645  -3.1480   8.8168   0.00    0.0
1998/11/22 11:41:30.000   48.457522349   11.201427332   580.6316   5   6   8.4686   4.9652  16.8254  -1.8631  -3.1353   8.8282   0.00    0.0
1998/11/22 11:41:35.000   48.457492832   11.201405127   576.1679   5   6   8.4726   4.9644  16.8395  -1.8616  -3.1226   8.8395   0.00    0.0
1998/11/22 11:41:40.000   48.457465182   11.201379974   570.9558   5   6   8.4765   4.9636  16.8535  -1.8601  -3.1097   8.8507   0.00    0.0
1998/11/22 11:41:45.000   48.457436428   11.201353961   565.4546   5   6   8.4804   4.9628  16.8674  -1.8586  -3.0967   8.8618   0.00    0.0
1998/11/22 11:41:50.000   48.457403899   11.201330832   558.8354   5   6   8.4842   4.9620  16.8813  -1.8570  -3.0836   8.8729   0.00    0.0
1998/11/22 11:41:55.000   48.457369814   11.201307689   551.4223   5   6   8.4881   4.9612  16.8952  -1.8553  -3.0704   8.8838   0.00    0.0
1998/11/22 11:42:00.000   48.457333869   11.201285897   543.9340   5   6   8.4919   4.9604  16.9089  -1.8536  -3.0570   8.8947   0.00    0.0
1998/11/22 11:42:05.000   48.457295792   11.201271153   535.7046   5   6   8.4957   4.9597  16.9226  -1.8519  -3.0436   8.9056   0.00    0.0
1998/11/22 11:43:05.000   48.456780345   11.201170790   435.6670   5   6   8.5388   4.9509  17.0807  -1.8273  -2.8722   9.0296   0.00    0.0
1998/11/22 11:43:10.000   48.456741767   11.201172819   429.4898   5   6   8.5422   4.9502  17.0933  -1.8249  -2.8570   9.0394   0.00    0.0
1998/11/22 11:43:15.000   48.456700587   11.201182442   424.2031   5   6   8.5455   4.9495  17.1059  -1.8225  -2.8417   9.0491   0.00    0.0
1998/11/22 11:43:20.000   48.456660921   11.201186988   418.3443   5   6   8.5489   4.9488  17.1183  -1.8200  -2.8262   9.0588   0.00    0.0
1998/11/22 11:43:25.000   48.456625519   11.201198462   413.9723   5   6   8.5522   4.9482  17.1307  -1.8175  -2.8106   9.0683   0.00    0.0
1998/11/22 11:43:30.000   48.456588615   11.201209198   409.9094   5   6   8.5554   4.9475  17.1430  -1.8150  -2.7949   9.0778   0.00    0.0
1998/11/22 11:43:35.000   48.456558328   11.201222449   406.6591   5   6   8.5586   4.9468  17.1552  -1.8124  -2.7790   9.0872   0.00    0.0
1998/11/22 11:43:40.000   48.456523619   11.201239846   403.3346   5   6   8.5618   4.9462  17.1673  -1.8097  -2.7629   9.0965   0.00    0.0
1998/11/22 11:43:45.000   48.456494454   11.201255822   400.0470   5   6   8.5650   4.9455  17.1794  -1.8070  -2.7467   9.1057   0.00    0.0
1998/11/22 11:43:50.000   48.456470020   11.201274671   399.3868   5   6   8.5681   4.9449  17.1913  -1.8043  -2.7303   9.1148   0.00    0.0
1998/11/22 11:43:55.000   48.456449750   11.201292769   399.6619   5   6   8.5712   4.9443  17.2031  -1.8015  -2.7138   9.1239   0.00    0.0
1998/11/22 11:44:00.000   48.456428291   11.201317694   399.9131   5   6   8.5743   4.9436  17.2149  -1.7986  -2.6971   9.1328   0.00    0.0
1998/11/22 11:44:05.000   48.456410586   11.201337515   401.4788   5   6   8.5773   4.9430  17.2265  -1.7958  -2.6802   9.1417   0.00    0.0
1998/11/22 11:44:10.000   48.456396543   11.201362666   404.0164   5   6   8.5803   4.9424  17.2381  -1.7928  -2.6632   9.1505   0.00    0.0
1998/11/22 11:44:15.000   48.456383947   11.201386755   407.0563   5   6   8.5832   4.9418  17.2496  -1.7898  -2.6459   9.1592   0.00    0.0
1998/11/22 11:44:20.000   48.456372342   11.201409683   411.3994   5   6   8.5861   4.9412  17.2609  -1.7868  -2.6285   9.1678   0.00    0.0
1998/11/22 11:44:25.000   48.456364962   11.201435797   416.0903   5   6   8.5890   4.9406  17.2722  -1.7837  -2.6110   9.1763   0.00    0.0
1998/11/22 11:44:30.000   48.456361149   11.201460310   421.2143   5   6   8.5918   4.9400  17.2834  -1.7806  -2.5932   9.1847   0.00    0.0
1998/11/22 11:44:35.000   48.456357553   11.201480278   426.7542   5   6   8.5946   4.9394  17.2945  -1.7774  -2.5752   9.1930   0.00    0.0
1998/11/22 11:44:40.000   48.456359044   11.201502742   433.2536   5   6   8.5973   4.9389  17.3054  -1.7742  -2.5571   9.2012   0.00    0.0
1998/11/22 11:44:45.000   48.456360596   11.201524662   439.5255   5   6   8.6001   4.9383  17.3163  -1.7710  -2.5387   9.2093   0.00    0.0
1998/11/22 11:44:50.000   48.456365130   11.201545197   446.8758   5   6   8.6027   4.9377  17.3271  -1.7677  -2.5202   9.2174   0.00    0.0
1998/11/22 11:44:55.000   48.456373455   11.201565888   453.7017   5   6   8.6054   4.9372  17.3378  -1.7643  -2.5015   9.2253   0.00    0.0
1998/11/22 11:45:00.000   48.456380067   11.201589593   460.0588   5   6   8.6080   4.9366  17.3484  -1.7609  -2.4825   9.2332   0.00    0.0
1998/11/22 11:45:05.000   48.456389407   11.201611240   468.1436   5   6   8.6105   4.9361  17.3588  -1.7574  -2.4633   9.2410   0.00    0.0
1998/11/22 11:45:10.000   48.456401414   11.201631251   474.8729   5   6   8.6131   4.9356  17.3692  -1.7539  -2.4440   9.2486   0.00    0.0
1998/11/22 11:45:15.000   48.456411515   11.201652606   481.9550   5   6   8.6156   4.9351  17.3795  -1.7504  -2.4243   9.2562   0.00    0.0
1998/11/22 11:45:20.000   48.456422464   11.201675558   488.2738   5   6   8.6180   4.9345  17.3897  -1.7468  -2.4045   9.2637   0.00    0.0
1998/11/22 11:45:25.000   48.456437334   11.201696538   495.5984   5   6   8.6204   4.9340  17.3997  -1.7432  -2.3845   9.2710   0.00    0.0
1998/11/22 11:45:30.000   48.456449814   11.201713505   502.0189   5   6   8.6228   4.9335  17.4097  -1.7395  -2.3642   9.2783   0.00    0.0
1998/11/22 11:45:35.000   48.456460363   11.201734948   509.0174   5   6   8.6251   4.9331  17.4195  -1.7357  -2.3436   9.2855   0.00    0.0
1998/11/22 11:45:40.000   48.456478914   11.201749088   517.1118   5   6   8.6274   4.9326  17.4293  -1.7320  -2.3228   9.2926   0.00    0.0
1998/11/22 11:45:45.000   48.456496058   11.201769031   523.9938   5   6   8.6296   4.9321  17.4389  -1.7281  -2.3018   9.2996   0.00    0.0
1998/11/22 11:45:50.000   48.456512136   11.201786300   531.2210   5   6   8.6318   4.9316  17.4484  -1.7243  -2.2805   9.3065   0.00    0.0
1998/11/22 11:45:55.000   48.456526484   11.201805959   538.3247   5   6   8.6340   4.9312  17.4578  -1.7204  -2.2589   9.3133   0.00    0.0
1998/11/22 11:46:00.000   48.456539036   11.201821996   545.7767   5   6   8.6361   4.9307  17.4671  -1.7164  -2.2370   9.3200   0.00    0.0
1998/11/22 11:46:05.000   48.456551382   11.201838903   552.5918   5   6   8.6382   4.9303  17.4763  -1.7124  -2.2149   9.3266   0.00    0.0
1998/11/22 11:46:10.000   48.456566428   11.201852915   559.6375   5   6   8.6402   4.9298  17.4854  -1.7083  -2.1925   9.3331   0.00    0.0
1998/11/22 11:46:15.000   48.456581407   11.201870957   566.0197   5   6   8.6422   4.9294  17.4944  -1.7042  -2.1698   9.3395   0.00    0.0
1998/11/22 11:46:20.000   48.456590156   11.201883112   571.3299   5   6   8.6441   4.9290  17.5033  -1.7001  -2.1467   9.3458   0.00    0.0
1998/11/22 11:46:25.000   48.456601492   11.201892834   576.8178   5   6   8.6460   4.9286  17.5120  -1.6959  -2.1234   9.3520   0.00    0.0
1998/11/22 11:46:30.000   48.456612032   11.201901539   581.8429   5   6   8.6479   4.9282  17.5206  -1.6917  -2.0997   9.3581   0.00    0.0
1998/11/22 11:46:35.000   48.456622838   11.201911127   585.9322   5   6   8.6497   4.9278  17.5292  -1.6874  -2.0757   9.3641   0.00    0.0
1998/11/22 11:46:40.000   48.456632052   11.201920064   589.7701   5   6   8.6515   4.9274  17.5376  -1.6831  -2.0513   9.3700   0.00    0.0
1998/11/22 11:46:45.000   48.456639209   11.201924008   593.7186   5   6   8.6532   4.9270  17.5459  -1.6787  -2.0266   9.3758   0.00    0.0
1998/11/22 11:49:15.000   48.457149942   11.201704940   629.8506   5   6   8.6840   4.9195  17.7382  -1.5273  -0.9854   9.5005   0.00    0.0
1998/11/22 11:49:20.000   48.457185603   11.201698940   630.4717   5   6   8.6843   4.9194  17.7427  -1.5217  -0.9293   9.5029   0.00    0.0
1998/11/22 11:49:25.000   48.457219906   11.201699573   628.6870   5   6   8.6845   4.9193  17.7470  -1.5159  -0.8694   9.5053   0.00    0.0
1998/11/22 11:49:30.000   48.457253908   11.201703676   625.8465   5   6   8.6847   4.9192  17.7512  -1.5102  -0.8049   9.5075   0.00    0.0
1998/11/22 11:49:35.000   48.457289261   11.201703298   625.5291   5   6   8.6848   4.9191  17.7553  -1.5044  -0.7348   9.5097   0.00    0.0
1998/11/22 11:49:40.000   48.457317828   11.201707543   623.3291   5   6   8.6849   4.9190  17.7592  -1.4985  -0.6571   9.5117   0.00    0.0
1998/11/22 11:49:45.000   48.457352428   11.201711741   621.5601   5   6   8.6850   4.9190  17.7630  -1.4926  -0.5687   9.5136   0.00    0.0
1998/11/22 11:49:50.000   48.457385733   11.201716492   619.5795   5   6   8.6850   4.9189  17.7667  -1.4867  -0.4637   9.5154   0.00    0.0
1998/11/22 11:49:55.000   48.457415028   11.201724895   615.7617   5   6   8.6849   4.9189  17.7702  -1.4808  -0.3263   9.5171   0.00    0.0
1998/11/22 11:50:00.000   48.457447878   11.201734049   614.1476   5   6   8.6848   4.9188  17.7736  -1.4748   0.0471   9.5186   0.00    0.0
1998/11/22 11:50:05.000   48.457472856   11.201744249   611.4685   5   6   8.6847   4.9188  17.7769  -1.4687   0.3332   9.5201   0.00    0.0
1998/11/22 11:50:10.000   48.457498429   11.201753610   608.5717   5   6   8.6845   4.9188  17.7800  -1.4627   0.4690   9.5214   0.00    0.0
1998/11/22 11:50:15.000   48.457525336   11.201765889   606.0261   5   6   8.6842   4.9187  17.7830  -1.4566   0.5735   9.5227   0.00    0.0
1998/11/22 11:50:20.000   48.457551436   11.201770062   603.5407   5   6   8.6839   4.9187  17.7859  -1.4504   0.6619   9.5238   0.00    0.0
1998/11/22 11:50:25.000   48.457574233   11.201779841   602.4463   5   6   8.6836   4.9187  17.7886  -1.4442   0.7398   9.5248   0.00    0.0
1998/11/22 11:50:30.000   48.457597562   11.201789056   599.9831   5   6   8.6832   4.9188  17.7912  -1.4380   0.8103   9.5257   0.00    0.0
1998/11/22 11:50:35.000   48.457617560   11.201797740   599.1939   5   6   8.6827   4.9188  17.7937  -1.4318   0.8753   9.5265   0.00    0.0
1998/11/22 11:50:40.000   48.457636674   11.201804304   597.0502   5   6   8.6822   4.9188  17.7961  -1.4255   0.9357   9.5272   0.00    0.0
1998/11/22 11:50:45.000   48.457650296   11.201809481   595.3093   5   6   8.6817   4.9189  17.7983  -1.4191   0.9926   9.5277   0.00    0.0
1998/11/22 11:50:50.000   48.457666736   11.201817715   594.8594   5   6   8.6811   4.9189  17.8003  -1.4128   1.0464   9.5282   0.00    0.0
1998/11/22 11:50:55.000   48.457681655   11.201826038   594.3936   5   6   8.6804   4.9190  17.8023  -1.4064   1.0976   9.5285   0.00    0.0
1998/11/22 11:51:00.000   48.457692368   11.201829885   593.5530   5   6   8.6798   4.9190  17.8041  -1.3999   1.1465   9.5287   0.00    0.0
1998/11/22 11:51:05.000   48.457699906   11.201836085   592.0504   5   6   8.6790   4.9191  17.8057  -1.3935   1.1935   9.5288   0.00    0.0
1998/11/22 11:51:10.000   48.457707909   11.201837753   591.0157   5   6   8.6782   4.9192  17.8072  -1.3870   1.2387   9.5288   0.00    0.0
1998/11/22 11:51:15.000   48.457708984   11.201840687   590.2963   5   6   8.6774   4.9193  17.8086  -1.3804   1.2823   9.5287   0.00    0.0
1998/11/22 11:51:20.000   48.457712919   11.201840264   589.4394   5   6   8.6765   4.9194  17.8099  -1.3739   1.3246   9.5285   0.00    0.0
1998/11/22 11:51:25.000   48.457713537   11.201845690   587.3842   5   6   8.6756   4.9195  17.8110  -1.3673   1.3655   9.5281   0.00    0.0
1998/11/22 11:51:30.000   48.457706435   11.201844102   585.8706   5   6   8.6746   4.9196  17.8120  -1.3606   1.4053   9.5277   0.00    0.0
1998/11/22 11:51:35.000   48.457702569   11.201839896   584.9418   5   6   8.6735   4.9198  17.8129  -1.3540   1.4440   9.5271   0.00    0.0
1998/11/22 11:51:40.000   48.457696655   11.201835595   584.3015   5   6   8.6725   4.9199  17.8136  -1.3473   1.4817   9.5264   0.00    0.0
1998/11/22 11:51:45.000   48.457688308   11.201833578   582.7554   5   6   8.6713   4.9201  17.8142  -1.3405   1.5184   9.5257   0.00    0.0
1998/11/22 11:51:50.000   48.457673722   11.201825694   580.7039   5   6   8.6701   4.9202  17.8146  -1.3338   1.5544   9.5248   0.00    0.0
1998/11/22 11:51:55.000   48.457661224   11.201820316   579.2657   5   6   8.6689   4.9204  17.8149  -1.3270   1.5895   9.5237   0.00    0.0
1998/11/22 11:52:00.000   48.457643645   11.201812096   577.7126   5   6   8.6676   4.9206  17.8151  -1.3201   1.6238   9.5226   0.00    0.0
1998/11/22 11:52:05.000   48.457630908   11.201807576   576.6427   5   6   8.6663   4.9208  17.8152  -1.3133   1.6575   9.5214   0.00    0.0
1998/11/22 11:52:10.000   48.457612490   11.201797118   575.1529   5   6   8.6649   4.9210  17.8151  -1.3064   1.6904   9.5200   0.00    0.0
1998/11/22 11:52:15.000   48.457597162   11.201787952   574.1761   5   6   8.6635   4.9212  17.8148  -1.2994   1.7228   9.5185   0.00    0.0
1998/11/22 11:52:20.000   48.457579945   11.201775900   573.7688   5   6   8.6620   4.9214  17.8145  -1.2925   1.7545   9.5170   0.00    0.0
1998/11/22 11:52:25.000   48.457562855   11.201762251   572.3117   5   6   8.6605   4.9217  17.8140  -1.2855   1.7857   9.5153   0.00    0.0
1998/11/22 11:52:30.000   48.457541713   11.201748462   570.9289   5   6   8.6589   4.9219  17.8134  -1.2785   1.8164   9.5135   0.00    0.0
1998/11/22 11:56:35.000   48.457582149   11.201143819   527.2496   5   6   8.5250   4.9449  17.6235  -0.9066   2.9337   9.2911   0.00    0.0
1998/11/22 11:56:40.000   48.457584013   11.201137560   527.2943   5   6   8.5212   4.9455  17.6165  -0.8987   2.9514   9.2839   0.00    0.0
1998/11/22 11:56:45.000   48.457583435   11.201139699   525.6181   5   6   8.5174   4.9462  17.6094  -0.8907   2.9690   9.2767   0.00    0.0
1998/11/22 11:56:50.000   48.457577197   11.201141080   524.3916   5   6   8.5135   4.9470  17.6022  -0.8827   2.9865   9.2693   0.00    0.0
1998/11/22 11:56:55.000   48.457574655   11.201148197   523.9997   5   6   8.5096   4.9477  17.5949  -0.8748   3.0038   9.2619   0.00    0.0
1998/11/22 11:57:00.000   48.457564586   11.201160796   521.8803   5   6   8.5056   4.9484  17.5875  -0.8668   3.0210   9.2544   0.00    0.0
1998/11/22 11:57:05.000   48.457562323   11.201171472   523.2152   5   6   8.5016   4.9491  17.5800  -0.8588   3.0380   9.2467   0.00    0.0
1998/11/22 11:57:10.000   48.457554001   11.201186556   523.0799   5   6   8.4976   4.9499  17.5723  -0.8508   3.0549   9.2390   0.00    0.0
1998/11/22 11:57:15.000   48.457545578   11.201205625   523.7599   5   6   8.4935   4.9506  17.5646  -0.8428   3.0717   9.2312   0.00    0.0
1998/11/22 11:57:20.000   48.457535694   11.201223159   524.0688   5   6   8.4894   4.9514  17.5567  -0.8348   3.0884   9.2233   0.00    0.0
1998/11/22 11:57:25.000   48.457525093   11.201241466   525.2159   5   6   8.4853   4.9522  17.5487  -0.8269   3.1049   9.2153   0.00    0.0
1998/11/22 11:57:30.000   48.457512848   11.201270466   526.4676   5   6   8.4811   4.9529  17.5406  -0.8189   3.1213   9.2072   0.00    0.0
1998/11/22 11:57:35.000   48.457502732   11.201294992   529.2396   5   6   8.4769   4.9537  17.5324  -0.8109   3.1375   9.1990   0.00    0.0
1998/11/22 11:57:40.000   48.457489242   11.201319738   531.6224   5   6   8.4726   4.9545  17.5241  -0.8029   3.1537   9.1907   0.00    0.0
1998/11/22 11:57:45.000   48.457477978   11.201351861   534.0816   5   6   8.4683   4.9553  17.5157  -0.7949   3.1697   9.1823   0.00    0.0
1998/11/22 11:59:05.000   48.457383135   11.201976889   609.4804   5   6   8.3952   4.9692  17.3671  -0.6688   3.4103   9.0360   0.00    0.0
1998/11/22 11:59:10.000   48.457388472   11.202006552   617.6163   5   6   8.3903   4.9701  17.3569  -0.6611   3.4244   9.0261   0.00    0.0
1998/11/22 11:59:15.000   48.457397894   11.202037180   624.8008   5   6   8.3855   4.9710  17.3467  -0.6534   3.4384   9.0161   0.00    0.0
1998/11/22 11:59:20.000   48.457404985   11.202063370   631.7497   5   6   8.3806   4.9720  17.3364  -0.6457   3.4523   9.0061   0.00    0.0
1998/11/22 11:59:25.000   48.457413878   11.202088376   639.0591   5   6   8.3756   4.9729  17.3260  -0.6380   3.4662   8.9959   0.00    0.0
1998/11/22 11:59:30.000   48.457422252   11.202113395   645.0959   5   6   8.3707   4.9739  17.3155  -0.6304   3.4799   8.9857   0.00    0.0
1998/11/22 11:59:35.000   48.457429123   11.202131819   651.3934   5   6   8.3657   4.9749  17.3049  -0.6228   3.4935   8.9754   0.00    0.0
1998/11/22 11:59:40.000   48.457436945   11.202152747   657.1829   5   6   8.3607   4.9758  17.2942  -0.6152   3.5071   8.9650   0.00    0.0
1998/11/22 11:59:45.000   48.457447054   11.202169222   662.8453   5   6   8.3556   4.9768  17.2835  -0.6077   3.5205   8.9546   0.00    0.0
1998/11/22 11:59:50.000   48.457455562   11.202187251   667.2549   5   6   8.3506   4.9778  17.2726  -0.6002   3.5339   8.9440   0.00    0.0
1998/11/22 11:59:55.000   48.457460984   11.202198925   671.7182   5   6   8.3455   4.9788  17.2617  -0.5927   3.5471   8.9334   0.00    0.0
1998/11/22 12:00:00.000   48.457468360   11.202208631   676.5792   5   6   8.3403   4.9798  17.2506  -0.5853   3.5603   8.9227   0.00    0.0
1998/11/22 12:00:05.000   48.457474093   11.202215843   679.5948   5   6   8.3352   4.9808  17.2395  -0.5780   3.5733   8.9120   0.00    0.0
1998/11/22 12:00:10.000   48.457477470   11.202221026   682.5176   5   6   8.3300   4.9819  17.2283  -0.5706   3.5863   8.9011   0.00    0.0
1998/11/22 12:00:15.000   48.457484071   11.202224284   685.7255   5   6   8.3248   4.9829  17.2170  -0.5634   3.5992   8.8902   0.00    0.0
1998/11/22 12:00:20.000   48.457486522   11.202223156   687.4181   5   6   8.3196   4.9839  17.2057  -0.5561   3.6120   8.8792   0.00    0.0
1998/11/22 12:00:25.000   48.457483793   11.202225114   687.8076   5   6   8.3144   4.9850  17.1942  -0.5489   3.6247   8.8681   0.00    0.0
1998/11/22 12:00:30.000   48.457486929   11.202219357   688.3813   5   6   8.3091   4.9860  17.1827  -0.5418   3.6373   8.8570   0.00    0.0
1998/11/22 12:00:35.000   48.457481686   11.202218483   689.6869   5   6   8.3038   4.9871  17.1711  -0.5348   3.6499   8.8458   0.00    0.0
1998/11/22 12:00:40.000   48.457481335   11.202212945   689.3173   5   6   8.2985   4.9881  17.1594  -0.5278   3.6623   8.8345   0.00    0.0
1998/11/22 12:00:45.000   48.457472826   11.202210102   688.6875   5   6   8.2932   4.9892  17.1476  -0.5208   3.6747   8.8231   0.00    0.0
1998/11/22 12:00:50.000   48.457466283   11.202201186   687.2335   5   6   8.2878   4.9903  17.1358  -0.5140   3.6869   8.8117   0.00    0.0
1998/11/22 12:00:55.000   48.457461534   11.202191288   686.4509   5   6   8.2824   4.9914  17.1238  -0.5072   3.6991   8.8001   0.00    0.0
1998/11/22 12:01:00.000   48.457453205   11.202182437   684.0118   5   6   8.2770   4.9925  17.1118  -0.5004   3.7112   8.7886   0.00    0.0
1998/11/22 12:01:05.000   48.457446733   11.202172038   681.1084   5   6   8.2716   4.9936  17.0997  -0.4938   3.7233   8.7769   0.00    0.0
1998/11/22 12:01:10.000   48.457436570   11.202156628   677.8806   5   6   8.2661   4.9947  17.0876  -0.4872   3.7352   8.7652   0.00    0.0
1998/11/22 12:01:15.000   48.457426213   11.202142223   674.3231   5   6   8.2607   4.9958  17.0754  -0.4808   3.7471   8.7534   0.00    0.0
1998/11/22 12:01:20.000   48.457413723   11.202125271   669.8119   5   6   8.2552   4.9969  17.0631  -0.4744   3.7588   8.7415   0.00    0.0
1998/11/22 12:01:25.000   48.457400993   11.202107515   665.5380   5   6   8.2497   4.9980  17.0507  -0.4681   3.7705   8.7296   0.00    0.0
1998/11/22 12:01:30.000   48.457389460   11.202092868   659.7885   5   6   8.2441   4.9992  17.0382  -0.4619   3.7822   8.7176   0.00    0.0
1998/11/22 12:01:35.000   48.457376772   11.202072210   653.4773   5   6   8.2386   5.0003  17.0257  -0.4558   3.7937   8.7055   0.00    0.0
1998/11/22 12:01:40.000   48.457364618   11.202056623   648.0219   5   6   8.2330   5.0014  17.0131  -0.4498   3.8051   8.6934   0.00    0.0
1998/11/22 12:01:45.000   48.457346843   11.202039543   641.8007   5   6   8.2274   5.0026  17.0005  -0.4440   3.8165   8.6812   0.00    0.0
1998/11/22 12:01:50.000   48.457334152   11.202025219   634.0197   5   6   8.2218   5.0038  16.9877  -0.4382   3.8278   8.6689   0.00    0.0
1998/11/22 12:01:55.000   48.457321426   11.202010777   628.5813   5   6   8.2162   5.0049  16.9749  -0.4326   3.8390   8.6566   0.00    0.0
1998/11/22 12:02:00.000   48.457308536   11.201989914   621.3692   5   6   8.2106   5.0061  16.9621  -0.4271   3.8502   8.6442   0.00    0.0
1998/11/22 12:02:05.000   48.457295638   11.201973680   614.7518   5   6   8.2049   5.0073  16.9491  -0.4217   3.8612   8.6317   0.00    0.0
1998/11/22 12:02:10.000   48.457285630   11.201960365   607.8552   5   6   8.1992   5.0084  16.9361  -0.4165   3.8722   8.6192   0.00    0.0
1998/11/22 12:02:15.000   48.457277554   11.201942868   601.4750   5   6   8.1936   5.0096  16.9231  -0.4114   3.8832   8.6066   0.00    0.0
1998/11/22 12:02:20.000   48.457270302   11.201929911   594.9499   5   6   8.1878   5.0108  16.9099  -0.4065   3.8940   8.5939   0.00    0.0
1998/11/22 12:02:25.000   48.457266116   11.201916231   589.7093   5   6   8.1821   5.0120  16.8967  -0.4018   3.9048   8.5812   0.00    0.0
1998/11/22 12:02:30.000   48.457261820   11.201903345   583.9063   5   6   8.1764   5.0132  16.8835  -0.3972   3.9154   8.5684   0.00    0.0
1998/11/22 12:05:40.000   48.457539363   11.201582524   562.8533   5   6   7.9494   5.0632  16.3410  -0.3859   4.2720   8.0417   0.00    0.0
1998/11/22 12:05:45.000   48.457531862   11.201581473   562.8328   5   6   7.9433   5.0647  16.3259  -0.3900   4.2802   8.0269   0.00    0.0
1998/11/22 12:05:50.000   48.457527161   11.201583125   564.4348   5   6   7.9372   5.0661  16.3108  -0.3943   4.2883   8.0120   0.00    0.0
1998/11/22 12:05:55.000   48.457519882   11.201584473   563.4432   5   6   7.9311   5.0675  16.2956  -0.3987   4.2964   7.9971   0.00    0.0
1998/11/22 12:06:00.000   48.457509587   11.201585845   563.8769   5   6   7.9250   5.0689  16.2804  -0.4033   4.3044   7.9822   0.00    0.0
1998/11/22 12:06:05.000   48.457504739   11.201586314   564.9442   5   6   7.9189   5.0704  16.2652  -0.4081   4.3124   7.9673   0.00    0.0
1998/11/22 12:06:10.000   48.457494509   11.201590553   564.8620   5   6   7.9127   5.0718  16.2500  -0.4131   4.3203   7.9522   0.00    0.0
1998/11/22 12:06:15.000   48.457487510   11.201591849   565.1141   5   6   7.9066   5.0732  16.2347  -0.4181   4.3282   7.9372   0.00    0.0
1998/11/22 12:06:20.000   48.457479786   11.201594369   564.8449   5   6   7.9005   5.0747  16.2194  -0.4233   4.3360   7.9221   0.00    0.0
1998/11/22 12:06:25.000   48.457474009   11.201595184   565.5626   5   6   7.8943   5.0761  16.2041  -0.4287   4.3438   7.9070   0.00    0.0
1998/11/22 12:06:30.000   48.457467590   11.201597351   566.1040   5   6   7.8882   5.0776  16.1887  -0.4342   4.3515   7.8918   0.00    0.0
1998/11/22 12:06:35.000   48.457463257   11.201598361   566.4777   5   6   7.8821   5.0791  16.1733  -0.4398   4.3592   7.8766   0.00    0.0
1998/11/22 12:06:40.000   48.457457623   11.201597848   568.4815   5   6   7.8760   5.0805  16.1579  -0.4455   4.3668   7.8614   0.00    0.0
1998/11/22 12:06:45.000   48.457453274   11.201603113   568.1177   5   6   7.8698   5.0820  16.1425  -0.4514   4.3744   7.8461   0.00    0.0
1998/11/22 12:06:50.000   48.457444460   11.201603336   567.9142   5   6   7.8637   5.0835  16.1270  -0.4573   4.3819   7.8308   0.00    0.0
1998/11/22 12:06:55.000   48.457445642   11.201609261   568.6852   5   6   7.8576   5.0850  16.1116  -0.4634   4.3893   7.8155   0.00    0.0
1998/11/22 12:07:00.000   48.457442159   11.201613457   569.8197   5   6   7.8514   5.0864  16.0960  -0.4695   4.3968   7.8001   0.00    0.0
1998/11/22 12:07:05.000   48.457440308   11.201617210   570.2408   5   6   7.8453   5.0879  16.0805  -0.4758   4.4041   7.7847   0.00    0.0
1998/11/22 12:07:10.000   48.457439985   11.201619105   571.8330   5   6   7.8392   5.0894  16.0650  -0.4821   4.4114   7.7692   0.00    0.0
1998/11/22 12:07:15.000   48.457442411   11.201623555   574.6169   5   6   7.8330   5.0909  16.0494  -0.4886   4.4187   7.7537   0.00    0.0
1998/11/22 12:07:20.000   48.457442624   11.201628635   575.6141   5   6   7.8269   5.0924  16.0338  -0.4951   4.4259   7.7382   0.00    0.0
1998/11/22 12:07:25.000   48.457445784   11.201635517   577.6509   5   6   7.8208   5.0939  16.0182  -0.5017   4.4331   7.7226   0.00    0.0
1998/11/22 12:07:30.000   48.457444786   11.201641498   578.5724   5   6   7.8146   5.0954  16.0026  -0.5084   4.4402   7.7070   0.00    0.0
1998/11/22 12:07:35.000   48.457451165   11.201645332   581.3951   5   6   7.8085   5.0969  15.9870  -0.5152   4.4473   7.6914   0.00    0.0
1998/11/22 12:07:40.000   48.457455090   11.201648907   583.9446   5   6   7.8024   5.0985  15.9713  -0.5220   4.4543   7.6757   0.00    0.0
1998/11/22 12:07:45.000   48.457459545   11.201655207   585.5300   5   6   7.7963   5.1000  15.9556  -0.5289   4.4613   7.6601   0.00    0.0
1998/11/22 12:07:50.000   48.457467647   11.201655305   588.3030   5   6   7.7902   5.1015  15.9399  -0.5358   4.4683   7.6443   0.00    0.0
1998/11/22 12:07:55.000   48.457477627   11.201656752   591.4201   5   6   7.7841   5.1030  15.9242  -0.5429   4.4752   7.6286   0.00    0.0
1998/11/22 12:08:00.000   48.457488601   11.201657402   594.1114   5   6   7.7780   5.1046  15.9085  -0.5499   4.4820   7.6128   0.00    0.0
1998/11/22 12:08:05.000   48.457500650   11.201653189   596.1226   5   6   7.7718   5.1061  15.8928  -0.5571   4.4888   7.5970   0.00    0.0
1998/11/22 12:08:10.000   48.457514182   11.201652545   597.8506   5   6   7.7657   5.1076  15.8770  -0.5643   4.4956   7.5811   0.00    0.0
1998/11/22 12:08:15.000   48.457529243   11.201647763   599.8515   5   6   7.7597   5.1092  15.8613  -0.5715   4.5023   7.5652   0.00    0.0
1998/11/22 12:10:55.000   48.457755436   11.201226260   537.5014   5   6   7.5682   5.1607  15.3534  -0.8196   4.6962   7.0431   0.00    0.0
1998/11/22 12:11:00.000   48.457754189   11.201221659   533.5572   5   6   7.5623   5.1624  15.3375  -0.8276   4.7016   7.0264   0.00    0.0
1998/11/22 12:11:05.000   48.457755072   11.201217653   531.1137   5   6   7.5565   5.1640  15.3216  -0.8357   4.7070   7.0097   0.00    0.0
1998/11/22 12:11:10.000   48.457752186   11.201213836   527.6358   5   6   7.5507   5.1657  15.3057  -0.8437   4.7124   6.9930   0.00    0.0
1998/11/22 12:11:15.000   48.457752113   11.201209686   527.0281   5   6   7.5449   5.1674  15.2899  -0.8518   4.7178   6.9762   0.00    0.0
1998/11/22 12:11:20.000   48.457748256   11.201207299   525.7302   5   6   7.5391   5.1691  15.2740  -0.8599   4.7231   6.9594   0.00    0.0
1998/11/22 12:11:25.000   48.457746250   11.201212330   524.1214   5   6   7.5333   5.1707  15.2581  -0.8680   4.7284   6.9426   0.00    0.0
1998/11/22 12:11:30.000   48.457745976   11.201216124   523.5817   5   6   7.5276   5.1724  15.2423  -0.8761   4.7336   6.9258   0.00    0.0
1998/11/22 12:11:35.000   48.457746713   11.201222267   523.2623   5   6   7.5218   5.1741  15.2264  -0.8842   4.7389   6.9090   0.00    0.0
1998/11/22 12:11:40.000   48.457747504   11.201234214   523.0715   5   6   7.5161   5.1758  15.2106  -0.8923   4.7441   6.8921   0.00    0.0
1998/11/22 12:11:45.000   48.457748776   11.201243030   524.2726   5   6   7.5103   5.1775  15.1948  -0.9004   4.7492   6.8752   0.00    0.0
1998/11/22 12:11:50.000   48.457749337   11.201254241   525.6599   5   6   7.5046   5.1792  15.1789  -0.9085   4.7543   6.8583   0.00    0.0
1998/11/22 12:11:55.000   48.457752657   11.201274926   526.4174   5   6   7.4989   5.1809  15.1631  -0.9166   4.7594   6.8414   0.00    0.0
1998/11/22 12:12:00.000   48.457756596   11.201293401   529.2742   5   6   7.4932   5.1826  15.1473  -0.9247   4.7645   6.8245   0.00    0.0
1998/11/22 12:12:05.000   48.457762281   11.201313143   531.1545   5   6   7.4875   5.1843  15.1315  -0.9328   4.7695   6.8075   0.00    0.0
1998/11/22 12:12:10.000   48.457766111   11.201335918   534.0631   5   6   7.4818   5.1860  15.1157  -0.9409   4.7745   6.7906   0.00    0.0
1998/11/22 12:12:50.000   48.457718970   11.201056744   870.2866   5   5   7.6870   9.9113  72.0534   3.9241 -23.9060  -9.6328   0.00    0.0
1998/11/22 12:12:55.000   48.457716623   11.201067773   882.5328   5   5   7.6888   9.8538  71.6312   3.9348 -23.7281  -9.7029   0.00    0.0
1998/11/22 12:13:00.000   48.457711515   11.201070648   899.6716   5   5   7.6906   9.7970  71.2136   3.9449 -23.5520  -9.7708   0.00    0.0
1998/11/22 12:13:05.000   48.457703706   11.201076839   914.4903   5   5   7.6924   9.7411  70.8005   3.9544 -23.3778  -9.8366   0.00    0.0
1998/11/22 12:13:10.000   48.457697404   11.201075206   931.5014   5   5   7.6944   9.6859  70.3918   3.9634 -23.2054  -9.9005   0.00    0.0
1998/11/22 12:13:15.000   48.457688184   11.201076846   947.1087   5   5   7.6964   9.6315  69.9875   3.9719 -23.0347  -9.9625   0.00    0.0
1998/11/22 12:13:20.000   48.457677787   11.201072739   963.1829   5   5   7.6984   9.5779  69.5875   3.9798 -22.8659 -10.0227   0.00    0.0
1998/11/22 12:13:25.000   48.457668424   11.201067715   980.3693   5   5   7.7005   9.5250  69.1918   3.9873 -22.6987 -10.0812   0.00    0.0
1998/11/22 12:13:30.000   48.457656443   11.201057848   995.5699   5   5   7.7026   9.4728  68.8004   3.9942 -22.5333 -10.1380   0.00    0.0
1998/11/22 12:13:35.000   48.457641450   11.201048266  1009.6638   5   5   7.7048   9.4214  68.4131   4.0007 -22.3696 -10.1931   0.00    0.0
1998/11/22 12:13:40.000   48.457624727   11.201036743  1023.5852   5   5   7.7070   9.3706  68.0301   4.0067 -22.2076 -10.2467   0.00    0.0
1998/11/22 12:13:45.000   48.457611832   11.201025060  1035.4365   5   5   7.7093   9.3206  67.6511   4.0123 -22.0472 -10.2988   0.00    0.0
1998/11/22 12:13:50.000   48.457595536   11.201013279  1045.4149   5   5   7.7116   9.2713  67.2761   4.0175 -21.8884 -10.3494   0.00    0.0
1998/11/22 12:13:55.000   48.457578322   11.200999915  1054.2276   5   5   7.7139   9.2227  66.9052   4.0223 -21.7313 -10.3987   0.00    0.0
1998/11/22 12:14:00.000   48.457558766   11.200987917  1060.2741   5   5   7.7163   9.1747  66.5382   4.0267 -21.5757 -10.4465   0.00    0.0
1998/11/22 12:14:05.000   48.457542835   11.200981719  1061.9111   5   5   7.7188   9.1275  66.1752   4.0306 -21.4218 -10.4931   0.00    0.0
1998/11/22 12:14:10.000   48.457526256   11.200973692  1062.0325   5   5   7.7212   9.0808  65.8160   4.0342 -21.2694 -10.5385   0.00    0.0
1998/11/22 12:14:15.000   48.457508753   11.200966996  1061.3593   5   5   7.7237   9.0349  65.4607   4.0375 -21.1185 -10.5826   0.00    0.0
1998/11/22 12:16:00.000   48.457430134   11.200996463   730.5545   5   5   7.7839   8.2044  58.8008   4.0377 -18.2698 -11.2902   0.00    0.0
1998/11/22 12:16:05.000   48.457447063   11.201019606   709.3203   5   5   7.7871   8.1706  58.5184   4.0351 -18.1479 -11.3157   0.00    0.0
1998/11/22 12:16:09.999   48.457464508   11.201041291   689.4694   5   5   7.7903   8.1373  58.2388   4.0323 -18.0271 -11.3406   0.00    0.0
1998/11/22 12:16:14.999   48.457486470   11.201065768   669.3211   5   5   7.7935   8.1045  57.9620   4.0293 -17.9074 -11.3649   0.00    0.0
1998/11/22 12:16:19.999   48.457505618   11.201089853   649.5544   5   5   7.7967   8.0720  57.6880   4.0261 -17.7888 -11.3887   0.00    0.0
1998/11/22 12:16:24.999   48.457525853   11.201113228   630.3917   5   5   7.8000   8.0401  57.4167   4.0227 -17.6712 -11.4120   0.00    0.0
1998/11/22 12:16:29.999   48.457546694   11.201139576   612.1847   5   5   7.8033   8.0085  57.1482   4.0192 -17.5547 -11.4347   0.00    0.0
1998/11/22 12:16:34.999   48.457566641   11.201161975   597.1035   5   5   7.8066   7.9774  56.8823   4.0154 -17.4392 -11.4570   0.00    0.0
1998/11/22 12:16:39.999   48.457584174   11.201184760   583.6049   5   5   7.8099   7.9467  56.6190   4.0115 -17.3248 -11.4787   0.00    0.0
1998/11/22 12:16:44.999   48.457604565   11.201201400   572.0370   5   5   7.8132   7.9165  56.3584   4.0075 -17.2113 -11.4999   0.00    0.0
1998/11/22 12:16:49.999   48.457622821   11.201217193   563.6202   5   5   7.8166   7.8866  56.1003   4.0032 -17.0988 -11.5207   0.00    0.0
1998/11/22 12:16:54.999   48.457638542   11.201234905   553.4745   5   5   7.8199   7.8572  55.8447   3.9988 -16.9874 -11.5410   0.00    0.0
1998/11/22 12:16:59.999   48.457658200   11.201249853   546.4588   5   5   7.8233   7.8282  55.5917   3.9943 -16.8769 -11.5609   0.00    0.0
